都道府県,市区町村,避難所名,住所,緯度,経度,避難所,一時避難所,広域避難所,地震,風水害,津波,収容人数,備蓄品,備考
岐阜県,中津川市,中津川公園,岐阜県中津川市茄子川１６８３?７９７,35.45727346,137.4659753,1,0,1,1,0,0,,,広域避難所（被害が甚大の場合に避難者を収容する施設）
岐阜県,中津川市,馬籠自然休養村センター,岐阜県中津川市馬籠４７９７?２４１,35.52738356,137.5612882,1,0,0,0,1,0,,,指定避難所（避難生活に最低限必要な設備が整っている施設）
岐阜県,瑞穂市,牛牧小学校校舎・体育館（指定緊急避難場所）,岐阜県瑞穂市牛牧1523,35.37900727,136.67270515,0,1,0,1,0,0,,,指定緊急避難場所
岐阜県,瑞穂市,巣南中学校グラウンド,岐阜県瑞穂市古橋10-1,35.40161308,136.65110125,0,1,1,1,0,0,,,指定緊急避難場所
岐阜県,中津川市,川上自然休養村センター,岐阜県中津川市川上１４２７?６,35.61037077,137.4978403,1,0,0,0,1,0,,,指定避難所（避難生活に最低限必要な設備が整っている施設）
岐阜県,瑞穂市,サンプラスパ,岐阜県瑞穂市只越1061,35.3992235,136.688845,1,0,0,1,1,0,,,民間協定施設
岐阜県,中津川市,アートピア付知交芸プラザ,岐阜県中津川市付知町４９５６?５２,35.66088557,137.4285353,1,0,0,1,0,0,,,指定避難所（避難生活に最低限必要な設備が整っている施設）
岐阜県,瑞穂市,牛牧南部コミュニティセンター（指定緊急避難場所）,岐阜県瑞穂市牛牧1580-1,35.37772961,136.67267185,0,1,0,1,0,0,,,指定緊急避難場所
岐阜県,瑞穂市,上牛牧ふれあい公園,岐阜県瑞穂市牛牧611-1,35.3890136,136.666185,0,1,0,1,0,0,,,指定緊急避難場所
岐阜県,中津川市,下野小学校,岐阜県中津川市下野６６４,35.58520998,137.4667383,1,0,0,1,1,0,,,指定避難所（避難生活に最低限必要な設備が整っている施設）
岐阜県,中津川市,田瀬小学校,岐阜県中津川市田瀬１４,35.62066846,137.4648449,1,0,0,1,1,0,,,指定避難所（避難生活に最低限必要な設備が整っている施設）
岐阜県,瑞穂市,本田コミュニティセンター（指定緊急避難場所）,岐阜県瑞穂市本田977-1,35.40529905,136.67765400,0,1,0,1,0,0,,,指定緊急避難場所
岐阜県,中津川市,苗木トレーニングセンター,岐阜県中津川市苗木４６１０?２４,35.52833764,137.4606592,1,0,0,1,1,0,,,指定避難所（避難生活に最低限必要な設備が整っている施設）
岐阜県,瑞穂市,別府保育所（指定緊急避難場所）,岐阜県瑞穂市別府144-1,35.39750836,136.68887801,0,1,0,1,0,0,,,指定緊急避難場所
岐阜県,瑞穂市,西小学校校舎・体育館（指定緊急避難場所）,岐阜県瑞穂市居倉389,35.41608606,136.64197442,0,1,0,1,0,0,,,指定緊急避難場所
岐阜県,中津川市,山口公民館,岐阜県中津川市山口１６１６?３,35.55628588,137.5437033,1,0,0,1,0,0,,,指定避難所（避難生活に最低限必要な設備が整っている施設）
岐阜県,中津川市,苗木中学校,岐阜県中津川市苗木２０９２,35.52462686,137.4717806,1,0,0,1,1,0,,,指定避難所（避難生活に最低限必要な設備が整っている施設）
岐阜県,瑞穂市,滝坪公園,岐阜県瑞穂市生津滝坪町1-123,35.4092625,136.684315,0,1,0,1,0,0,,,指定緊急避難場所
岐阜県,瑞穂市,柳一色公園,岐阜県瑞穂市稲里680,35.38319885,136.68614268,0,1,0,1,0,0,,,指定緊急避難場所
岐阜県,中津川市,川上小学校,岐阜県中津川市川上４０９?７,35.61800635,137.4984287,1,0,0,1,1,0,,,指定避難所（避難生活に最低限必要な設備が整っている施設）
岐阜県,瑞穂市,本田第一保育所屋外遊戯場,岐阜県瑞穂市本田1915,35.40788205,136.68122298,0,1,0,1,0,0,,,指定緊急避難場所
岐阜県,瑞穂市,穂積北中学校校舎・体育館(指定避難所）,岐阜県瑞穂市本田2000,35.40402421,136.68728075,1,0,0,1,1,0,,,指定避難所
岐阜県,中津川市,坂本北部体育館,岐阜県中津川市千旦林１５７３?４５,35.49492572,137.4458146,1,0,0,1,1,0,,,避難地（発災後、延焼火災等の避難者を収容する広場）
岐阜県,中津川市,下野いきいき会館,岐阜県中津川市下野1423-7,35.58923557,137.4684368,1,0,0,1,1,0,,,指定避難所（避難生活に最低限必要な設備が整っている施設）
岐阜県,中津川市,花街道センター及び公園,岐阜県中津川市付知町８５８１?1,35.64279186,137.4414663,1,0,0,1,0,0,,,指定避難所（避難生活に最低限必要な設備が整っている施設）
岐阜県,瑞穂市,中小学校校舎・体育館（指定緊急避難場所）,岐阜県瑞穂市美江寺173,35.41116515,136.65810874,0,1,0,1,0,0,,,指定緊急避難場所
岐阜県,中津川市,馬籠にぎわい広場,岐阜県中津川市馬籠４７９７?２３５,35.52627876,137.5604473,1,0,0,1,1,0,,,避難地（発災後、延焼火災等の避難者を収容する広場）
岐阜県,瑞穂市,ＰＬＡＮＴ６瑞穂店駐車場・トイレ,岐阜県瑞穂市犀川5-38,35.37017771,136.67722711,0,1,0,1,0,0,,,民間協定施設
岐阜県,中津川市,福岡小学校,岐阜県中津川市福岡７３７,35.56087701,137.4529895,1,0,0,1,1,0,,,指定避難所（避難生活に最低限必要な設備が整っている施設）
岐阜県,瑞穂市,高道公園,岐阜県瑞穂市馬場小城町1-122,35.4097955,136.690658,0,1,0,1,0,0,,,指定緊急避難場所
岐阜県,中津川市,坂下公民館,岐阜県中津川市坂下８２０?１,35.57400886,137.5282881,1,0,0,1,1,0,,,指定避難所（避難生活に最低限必要な設備が整っている施設）
岐阜県,瑞穂市,穂積中学校校舎・体育館（指定緊急避難場所）,岐阜県瑞穂市別府1888,35.39167291,136.68648403,0,1,0,1,0,0,,,指定緊急避難場所
岐阜県,中津川市,デイサービスセンター「椿苑」,岐阜県中津川市山口２１５５?４,35.5525617,137.5469263,1,0,0,1,1,0,,,指定避難所（避難生活に最低限必要な設備が整っている施設）
岐阜県,瑞穂市,せせらぎ公園,岐阜県瑞穂市本田12201-15,35.4033600,136.670338,0,1,0,1,0,0,,,指定緊急避難場所
岐阜県,中津川市,付知福祉センター,岐阜県中津川市付知町５８８１?３２,35.6605986,137.4292123,1,0,0,1,1,0,,,指定避難所（避難生活に最低限必要な設備が整っている施設）
岐阜県,中津川市,坂本小学校,岐阜県中津川市千旦林１４６０,35.47842249,137.4471854,1,0,0,1,1,0,,,指定避難所（避難生活に最低限必要な設備が整っている施設）
岐阜県,瑞穂市,朝日大学6号館・10周年記念館（指定避難所）,岐阜県瑞穂市穂積1851,35.38176303,136.69056451,1,0,0,1,1,0,,,指定避難所
岐阜県,中津川市,福岡中学校,岐阜県中津川市福岡１?８,35.57336733,137.4538739,1,0,0,1,1,0,,,指定避難所（避難生活に最低限必要な設備が整っている施設）
岐阜県,中津川市,中津商業高等学校,岐阜県中津川市駒場１６４６,35.50383829,137.4933636,1,0,0,1,1,0,,,指定避難所（避難生活に最低限必要な設備が整っている施設）
岐阜県,中津川市,付知北小学校,岐阜県中津川市付知町３７１９?１,35.66622897,137.4145223,1,0,0,1,0,0,,,指定避難所（避難生活に最低限必要な設備が整っている施設）
岐阜県,瑞穂市,朝日大学グラウンド,岐阜県瑞穂市穂積1896-1,35.38176303,136.69056451,0,1,1,1,0,0,,,指定緊急避難場所
岐阜県,中津川市,総合グランド,岐阜県中津川市川上１４３３?２,35.60905402,137.4978988,1,0,0,1,1,0,,,避難地（発災後、延焼火災等の避難者を収容する広場）
岐阜県,瑞穂市,西保育・教育センター屋外遊戯場,岐阜県瑞穂市居倉177-1,35.41653602,136.64305763,0,1,0,1,0,0,,,指定緊急避難場所
岐阜県,中津川市,坂本幼稚園,岐阜県中津川市千旦林１４６０,35.47797158,137.447298,1,0,0,0,1,0,,,指定避難所（避難生活に最低限必要な設備が整っている施設）
岐阜県,中津川市,坂下中学校,岐阜県中津川市坂下１５００?１,35.57906184,137.5230585,1,0,0,1,1,0,,,指定避難所（避難生活に最低限必要な設備が整っている施設）
岐阜県,瑞穂市,穂積保育所屋外遊戯場,岐阜県瑞穂市穂積966-1,35.38283527,136.69586950,0,1,0,1,0,0,,,指定緊急避難場所
岐阜県,中津川市,旭ヶ丘公園,岐阜県中津川市中津川１３１６?１,35.5005668,137.5084041,1,0,0,1,1,0,,,避難地（発災後、延焼火災等の避難者を収容する広場）
岐阜県,中津川市,蛭川保育園,岐阜県中津川市蛭川４８４４?１,35.51544533,137.3995643,1,0,0,1,1,0,,,指定避難所（避難生活に最低限必要な設備が整っている施設）
岐阜県,瑞穂市,彦内公園,岐阜県瑞穂市生津外宮前町2-87,35.4037058,136.691820,0,1,0,1,0,0,,,指定緊急避難場所
岐阜県,瑞穂市,市民センター（指定避難所）,岐阜県瑞穂市別府1300-3,35.39172852,136.68996698,1,0,0,1,1,0,,,指定避難所
岐阜県,中津川市,茄子川産業振興財団,岐阜県中津川市茄子川１３１７?４,35.4673762,137.4470776,1,0,0,1,1,0,,,指定避難所（避難生活に最低限必要な設備が整っている施設）
岐阜県,中津川市,蛭川小学校,岐阜県中津川市蛭川２２９８?１,35.52440639,137.3809999,1,0,0,1,1,0,,,指定避難所（避難生活に最低限必要な設備が整っている施設）
岐阜県,中津川市,えびす公園,岐阜県中津川市えびす町１７０７?２,35.49600892,137.5046591,1,0,0,1,1,0,,,避難地（発災後、延焼火災等の避難者を収容する広場）
岐阜県,瑞穂市,牛牧第２保育所,岐阜県瑞穂市祖父江170,35.38005464,136.68205149,1,1,0,1,0,0,,,指定避難所・指定緊急避難場所
岐阜県,中津川市,坂本北部運動場広場,岐阜県中津川市千旦林１５７１?６２,35.49517808,137.4436495,1,0,0,1,1,0,,,指定避難所（避難生活に最低限必要な設備が整っている施設）
岐阜県,中津川市,落合事務所,岐阜県中津川市落合７２８?２,35.51348978,137.5308957,1,0,0,1,1,0,,,指定避難所（避難生活に最低限必要な設備が整っている施設）
岐阜県,瑞穂市,南小学校校舎・体育館（指定避難所）,岐阜県瑞穂市古橋1660,35.38802565,136.65681472,1,0,0,1,1,0,,,指定避難所
岐阜県,瑞穂市,穂積保育所,岐阜県瑞穂市穂積966-1,35.38283527,136.69586950,1,1,0,1,0,0,,,指定避難所・指定緊急避難場所
岐阜県,瑞穂市,穂積第２グラウンド,岐阜県瑞穂市稲里607-1,35.3855436,136.684328,0,1,0,1,0,0,,,指定緊急避難場所
岐阜県,中津川市,南小学校,岐阜県中津川市昭和町６?４７,35.49249443,137.5035187,1,0,0,1,1,0,,,指定避難所（避難生活に最低限必要な設備が整っている施設）
岐阜県,中津川市,中津高等学校,岐阜県中津川市中津川１０８８?２,35.50156444,137.5076178,1,0,0,1,1,0,,,指定避難所（避難生活に最低限必要な設備が整っている施設）
岐阜県,瑞穂市,穂積中学校校舎・体育館（指定避難所）,岐阜県瑞穂市別府1888,35.39167291,136.68648403,1,0,0,1,1,0,,,指定避難所
岐阜県,中津川市,蛭川福祉センターやすらぎ荘,岐阜県中津川市蛭川４８６２?１,35.5142758,137.397664,1,0,0,1,1,0,,,指定避難所（避難生活に最低限必要な設備が整っている施設）
岐阜県,中津川市,坂下保育所,岐阜県中津川市坂下１５７８?３,35.57447803,137.525227,1,0,0,1,1,0,,,指定避難所（避難生活に最低限必要な設備が整っている施設）
岐阜県,中津川市,付知公民館,岐阜県中津川市付知町４９５６?４３,35.66109249,137.4290973,1,0,0,1,0,0,,,指定避難所（避難生活に最低限必要な設備が整っている施設）
岐阜県,中津川市,蛭川中学校,岐阜県中津川市蛭川１７９８?１,35.52467689,137.3719478,1,0,0,1,1,0,,,指定避難所（避難生活に最低限必要な設備が整っている施設）
岐阜県,中津川市,北野保育園,岐阜県中津川市中川町３?３６,35.50523585,137.5033666,1,0,0,1,1,0,,,指定避難所（避難生活に最低限必要な設備が整っている施設）
岐阜県,瑞穂市,巣南中学校校舎・体育館（指定緊急避難場所）,岐阜県瑞穂市古橋10-1,35.40161308,136.65110125,0,1,0,1,0,0,,,指定緊急避難場所
岐阜県,中津川市,蛭川生きがいの家,岐阜県中津川市蛭川４１１７?１３,35.51310926,137.3844912,1,0,0,1,0,0,,,指定避難所（避難生活に最低限必要な設備が整っている施設）
岐阜県,中津川市,ふるさとにぎわい広場,岐阜県中津川市えびす町１７０７?２,35.49681928,137.5062255,1,0,0,1,1,0,,,避難地（発災後、延焼火災等の避難者を収容する広場）
岐阜県,中津川市,神坂小学校,岐阜県中津川市神坂１５２６?３,35.51991677,137.5689468,1,0,0,1,1,0,,,指定避難所（避難生活に最低限必要な設備が整っている施設）
岐阜県,中津川市,神坂中学校,岐阜県中津川市神坂１５２６?３,35.51945868,137.5686907,1,0,0,1,1,0,,,指定避難所（避難生活に最低限必要な設備が整っている施設）
岐阜県,中津川市,高山小学校,岐阜県中津川市高山１０３７,35.53639326,137.4411471,1,0,0,1,1,0,,,指定避難所（避難生活に最低限必要な設備が整っている施設）
岐阜県,瑞穂市,生津小学校校舎・体育館（指定緊急避難場所）,岐阜県瑞穂市馬場上光町2-108,35.41124272,136.68447252,0,1,0,1,0,0,,,指定緊急避難場所
岐阜県,瑞穂市,本田コミュニティセンター（指定避難所）,岐阜県瑞穂市本田977-1,35.40529905,136.67765400,1,0,0,1,1,0,,,指定避難所
岐阜県,瑞穂市,朝日大学6号館・10周年記念館（指定緊急避難場所）,岐阜県瑞穂市穂積1851,35.38176303,136.69056451,0,1,0,1,0,0,,,指定緊急避難場所
岐阜県,瑞穂市,カーマ２１瑞穂店駐車場,岐阜県瑞穂市穂積3110-1,35.3911963,136.699898,0,1,0,1,0,0,,,民間協定施設
岐阜県,中津川市,山口小学校,岐阜県中津川市山口１６４７?２１,35.55767673,137.5444045,1,0,0,1,0,0,,,指定避難所（避難生活に最低限必要な設備が整っている施設）
岐阜県,瑞穂市,馬場公園,岐阜県瑞穂市馬場上光町2-107,35.41005676,136.68616124,0,1,0,1,0,0,,,指定緊急避難場所
岐阜県,中津川市,苗木交流センター,岐阜県中津川市苗木７５１６?１,35.523314,137.475824,1,0,0,1,1,0,,,指定避難所（避難生活に最低限必要な設備が整っている施設）
岐阜県,瑞穂市,穂積小学校グラウンド,岐阜県瑞穂市穂積452,35.38983716,136.69484153,0,1,1,1,0,0,,,指定緊急避難場所
岐阜県,下呂市,加子母B＆G海洋センター,岐阜県中津川市下呂市御厩野３０１５?１０２,35.7513459,137.3294707,1,0,0,1,1,0,,,指定避難所（避難生活に最低限必要な設備が整っている施設）
岐阜県,中津川市,坂本保育園,岐阜県中津川市茄子川６９２?１２,35.47510755,137.4488882,1,0,0,1,1,0,,,指定避難所（避難生活に最低限必要な設備が整っている施設）
岐阜県,中津川市,加子母ふれあいコミュニティーセンター,岐阜県中津川市加子母３４２７,35.71663194,137.3693272,1,0,0,1,0,0,,,指定避難所（避難生活に最低限必要な設備が整っている施設）
岐阜県,中津川市,B＆G付知海洋センター,岐阜県中津川市付知町５６９２,35.65704315,137.4259717,1,0,0,1,1,0,,,指定避難所（避難生活に最低限必要な設備が整っている施設）
岐阜県,瑞穂市,老人福祉センター（指定緊急避難場所）,岐阜県瑞穂市田之上597,35.40656808,136.64993190,0,1,0,1,0,0,,,指定緊急避難場所
岐阜県,瑞穂市,祖父江公園,岐阜県瑞穂市祖父江1143-5,35.36946146,136.68631799,0,1,0,1,0,0,,,指定緊急避難場所
岐阜県,中津川市,神坂生活改善センター,岐阜県中津川市神坂２９４?２,35.50881562,137.5764216,1,0,0,-,-,-,,,指定避難所（避難生活に最低限必要な設備が整っている施設）
岐阜県,中津川市,蛭川公民館「蛭子座」,岐阜県中津川市蛭川２１９８?１,35.52320038,137.3826721,1,0,0,1,1,0,,,指定避難所（避難生活に最低限必要な設備が整っている施設）
岐阜県,瑞穂市,生津小学校グラウンド,岐阜県瑞穂市馬場上光町2-108,35.41124272,136.68447252,0,1,1,1,0,0,,,指定緊急避難場所
岐阜県,瑞穂市,中保育・教育センター屋外遊戯場,岐阜県瑞穂市美江寺223,35.41074580,136.66020296,0,1,0,1,0,0,,,指定緊急避難場所
岐阜県,瑞穂市,巣南公民館（指定緊急避難場所）,岐阜県瑞穂市宮田300-1,35.40474605,136.64989580,0,1,0,1,0,0,,,指定緊急避難場所
岐阜県,瑞穂市,牛牧第１保育所,岐阜県瑞穂市牛牧1246-1,35.37781013,136.67175526,1,1,0,1,0,0,,,指定避難所・指定緊急避難場所
岐阜県,瑞穂市,巣南公民館（指定避難所）,岐阜県瑞穂市宮田300-1,35.40474605,136.64989580,1,0,0,1,1,0,,,指定避難所
岐阜県,中津川市,加子母小学校,岐阜県中津川市加子母２７８１?７２,35.7180555,137.3600806,1,0,0,1,0,0,,,指定避難所（避難生活に最低限必要な設備が整っている施設）
岐阜県,中津川市,楽生館,岐阜県中津川市中津川３９５１,35.44162113,137.5274304,1,0,0,1,0,0,,,指定避難所（避難生活に最低限必要な設備が整っている施設）
岐阜県,中津川市,瀬戸公民館,岐阜県中津川市瀬戸６１４?３,35.52468679,137.5248955,1,0,0,1,1,0,,,指定避難所（避難生活に最低限必要な設備が整っている施設）
岐阜県,中津川市,坂下総合事務所第２庁舎,岐阜県中津川市坂下１６６５?５,35.5720546,137.5278274,1,0,0,1,1,0,,,指定避難所（避難生活に最低限必要な設備が整っている施設）
岐阜県,瑞穂市,生津小学校校舎・体育館（指定避難所）,岐阜県瑞穂市馬場上光町2-108,35.41124272,136.68447252,1,0,0,1,1,0,,,指定避難所
岐阜県,瑞穂市,南保育・教育センター（指定緊急避難場所）,岐阜県瑞穂市古橋1129-1,35.39138351,136.65106799,0,1,0,1,0,0,,,指定緊急避難場所
岐阜県,中津川市,高山区民会館,岐阜県中津川市高山１２８６?７６,35.53403865,137.4427033,1,0,0,1,1,0,,,指定避難所（避難生活に最低限必要な設備が整っている施設）
岐阜県,瑞穂市,西小学校グラウンド,岐阜県瑞穂市居倉389,35.41608606,136.64197442,0,1,1,1,0,0,,,指定緊急避難場所
岐阜県,中津川市,ふれあいのやかた「かしも」,岐阜県中津川市加子母３８９０?３,35.70833592,137.3741181,1,0,0,1,0,0,,,指定避難所（避難生活に最低限必要な設備が整っている施設）
岐阜県,瑞穂市,南ふれあい広場,岐阜県瑞穂市古橋1466,35.3877931,136.655822,0,1,0,1,0,0,,,指定緊急避難場所
岐阜県,中津川市,桃山公園,岐阜県中津川市駒場１６５７?４,35.49956954,137.4976212,1,0,0,1,1,0,,,避難地（発災後、延焼火災等の避難者を収容する広場）
岐阜県,中津川市,本町公園,岐阜県中津川市本町３?６,35.49607014,137.4992691,1,0,0,1,1,0,,,避難地（発災後、延焼火災等の避難者を収容する広場）
岐阜県,中津川市,加子母中学校,岐阜県中津川市加子母３３５７?８５,35.7158875,137.3632007,1,0,0,1,1,0,,,指定避難所（避難生活に最低限必要な設備が整っている施設）
岐阜県,瑞穂市,中小学校校舎・体育館（指定避難所）,岐阜県瑞穂市美江寺173,35.41116515,136.65810874,1,0,0,1,1,0,,,指定避難所
岐阜県,瑞穂市,巣南中学校校舎・体育館（指定避難所）,岐阜県瑞穂市古橋10-1,35.40161308,136.65110125,1,0,0,1,1,0,,,指定避難所
岐阜県,瑞穂市,西小学校校舎・体育館（指定避難所）,岐阜県瑞穂市居倉389,35.41608606,136.64197442,1,0,0,1,1,0,,,指定避難所
岐阜県,中津川市,第二中学校,岐阜県中津川市中津川２２５１?１,35.49073725,137.5061286,1,0,0,1,1,0,,,指定避難所（避難生活に最低限必要な設備が整っている施設）
岐阜県,中津川市,馬籠ふるさと学校,岐阜県中津川市馬籠４７９７?２３０,35.52815035,137.559911,1,0,0,1,1,0,,,指定避難所（避難生活に最低限必要な設備が整っている施設）
岐阜県,中津川市,阿木小学校,岐阜県中津川市阿木７９?１,35.3971004,137.4680572,1,0,0,1,1,0,,,指定避難所（避難生活に最低限必要な設備が整っている施設）
岐阜県,中津川市,かたらいの里,岐阜県中津川市川上１４３３?２,35.60974843,137.4983861,1,0,0,1,1,0,,,指定避難所（避難生活に最低限必要な設備が整っている施設）
岐阜県,瑞穂市,西保育・教育センター（指定緊急避難場所）,岐阜県瑞穂市居倉177-1,35.41653602,136.64305763,0,1,0,1,0,0,,,指定緊急避難場所
岐阜県,中津川市,中津川駅前市営駐車場,岐阜県中津川市太田町２?３?１５,35.49928751,137.5035978,1,0,0,1,1,0,,,指定避難所（避難生活に最低限必要な設備が整っている施設）
岐阜県,中津川市,坂下小学校,岐阜県中津川市坂下２３７５,35.58182928,137.5190361,1,0,0,1,1,0,,,指定避難所（避難生活に最低限必要な設備が整っている施設）
岐阜県,中津川市,東小学校,岐阜県中津川市東宮町５?１,35.49575061,137.5092103,1,0,0,1,1,0,,,指定避難所（避難生活に最低限必要な設備が整っている施設）
岐阜県,中津川市,坂本事務所,岐阜県中津川市茄子川１１９７?１０,35.47244389,137.4562115,1,0,0,1,1,0,,,指定避難所（避難生活に最低限必要な設備が整っている施設）
岐阜県,中津川市,阿木事務所,岐阜県中津川市阿木３３,35.39615223,137.4667788,1,0,0,0,1,0,,,指定避難所（避難生活に最低限必要な設備が整っている施設）
岐阜県,中津川市,落合保育園,岐阜県中津川市落合９３６?１,35.51087498,137.5304403,1,0,0,1,1,0,,,指定避難所（避難生活に最低限必要な設備が整っている施設）
岐阜県,瑞穂市,本田第２保育所,岐阜県瑞穂市只越387,35.39891091,136.67804580,1,1,0,1,0,0,,,指定避難所・指定緊急避難場所
岐阜県,瑞穂市,本田小学校校舎・体育館（指定緊急避難場所）,岐阜県瑞穂市本田938,35.40764042,136.67753450,0,1,0,1,0,0,,,指定緊急避難場所
岐阜県,瑞穂市,市民センター（指定緊急避難場所）,岐阜県瑞穂市別府1300-3,35.39172852,136.68996698,0,1,0,1,0,0,,,指定緊急避難場所
岐阜県,瑞穂市,本田第１保育所,岐阜県瑞穂市本田1915,35.40788205,136.68122298,1,1,0,1,0,0,,,指定避難所・指定緊急避難場所
岐阜県,瑞穂市,巣南グラウンド,岐阜県瑞穂市宮田300-2,35.4035949,136.650070,0,1,1,1,0,0,,,指定緊急避難場所
岐阜県,中津川市,落合中学校,岐阜県中津川市落合７６１?２,35.51310312,137.5324518,1,0,0,1,1,0,,,指定避難所（避難生活に最低限必要な設備が整っている施設）
岐阜県,瑞穂市,穂積中学校グラウンド,岐阜県瑞穂市別府1888,35.39167291,136.68648403,0,1,1,1,0,0,,,指定緊急避難場所
岐阜県,中津川市,神坂事務所,岐阜県中津川市神坂２９４?２,35.50881087,137.576174,1,0,0,-,-,-,,,指定避難所（避難生活に最低限必要な設備が整っている施設）
岐阜県,瑞穂市,中小学校グラウンド,岐阜県瑞穂市美江寺173,35.41116515,136.65810874,0,1,1,1,0,0,,,指定緊急避難場所
岐阜県,瑞穂市,牛牧小学校グラウンド,岐阜県瑞穂市牛牧1523,35.37900727,136.67270515,0,1,1,1,0,0,,,指定緊急避難場所
岐阜県,中津川市,名古屋市中津川野外教育センター,岐阜県中津川市苗木４８２７,35.52560111,137.4526775,1,0,0,1,1,0,,,指定避難所（避難生活に最低限必要な設備が整っている施設）
岐阜県,中津川市,勤労青少年ホーム,岐阜県中津川市手賀野１７２,35.47762121,137.4879505,1,0,0,1,1,0,,,指定避難所（避難生活に最低限必要な設備が整っている施設）
岐阜県,瑞穂市,穂積北中学校校舎南球技場,岐阜県瑞穂市本田2000,35.40402421,136.68728075,0,1,1,1,0,0,,,指定緊急避難場所
岐阜県,中津川市,東児童館,岐阜県中津川市中津川２３６４?２３６,35.49068654,137.5183913,1,0,0,1,1,0,,,指定避難所（避難生活に最低限必要な設備が整っている施設）
岐阜県,瑞穂市,牛牧南部コミュニティセンター（指定避難所）,岐阜県瑞穂市牛牧1580-1,35.37772961,136.67267185,1,0,0,1,1,0,,,指定避難所
岐阜県,瑞穂市,穂積小学校校舎・体育館（指定避難所）,岐阜県瑞穂市穂積452,35.38983716,136.69484153,1,0,0,1,1,0,,,指定避難所
岐阜県,瑞穂市,穂南公園,岐阜県瑞穂市犀川4-27,35.3680105,136.675111,0,1,0,1,0,0,,,指定緊急避難場所
岐阜県,中津川市,東美濃ふれあいセンター,岐阜県中津川市茄子川１６８３?１０３１,35.45794381,137.4680044,1,0,1,1,0,0,,,広域避難所（被害が甚大の場合に避難者を収容する施設）
岐阜県,瑞穂市,十九条公園,岐阜県瑞穂市十九条37-1,35.39628052,136.66081146,0,1,0,1,0,0,,,指定緊急避難場所
岐阜県,瑞穂市,穂積北中学校校舎・体育館(指定緊急避難場所）,岐阜県瑞穂市本田2000,35.40402421,136.68728075,0,1,0,1,0,0,,,指定緊急避難場所
岐阜県,瑞穂市,牛牧南部コミュニティセンター駐車場,岐阜県瑞穂市牛牧1580-1,35.37772961,136.67267185,0,1,0,1,0,0,,,指定緊急避難場所
岐阜県,瑞穂市,本田小学校グラウンド,岐阜県瑞穂市本田938,35.40764042,136.67753450,0,1,1,1,0,0,,,指定緊急避難場所
岐阜県,中津川市,地域活性化センター,岐阜県中津川市神坂３４７?６,35.50870986,137.5771167,1,0,0,1,0,0,,,指定避難所（避難生活に最低限必要な設備が整っている施設）
岐阜県,中津川市,西小学校,岐阜県中津川市駒場３０１?１,35.48712085,137.4949921,1,0,0,1,1,0,,,指定避難所（避難生活に最低限必要な設備が整っている施設）
岐阜県,中津川市,阿木高等学校,岐阜県中津川市阿木１１９,35.39735341,137.4643627,1,0,0,1,1,0,,,指定避難所（避難生活に最低限必要な設備が整っている施設）
岐阜県,瑞穂市,上光公園,岐阜県瑞穂市馬場上光町1-141,35.4135671,136.684872,0,1,0,1,0,0,,,指定緊急避難場所
岐阜県,瑞穂市,前畑公園,岐阜県瑞穂市馬場前畑町2-169,35.4129833,136.680500,0,1,0,1,0,0,,,指定緊急避難場所
岐阜県,中津川市,商工会議所ホール,岐阜県中津川市かやの木町１?２０,35.48903329,137.5009891,1,0,0,1,1,0,,,指定避難所（避難生活に最低限必要な設備が整っている施設）
岐阜県,瑞穂市,別府保育所屋外遊戯場,岐阜県瑞穂市別府140,35.3974460,136.690043,0,1,0,1,0,0,,,指定緊急避難場所
岐阜県,瑞穂市,本田小学校校舎・体育館（指定避難所）,岐阜県瑞穂市本田938,35.40764042,136.67753450,1,0,0,1,1,0,,,指定避難所
岐阜県,瑞穂市,西ふれあい広場,岐阜県瑞穂市居倉175,35.41574724,136.64299097,0,1,0,1,0,0,,,指定緊急避難場所
岐阜県,中津川市,中津川工業高等学校,岐阜県中津川市千旦林１５２１?３,35.48611085,137.4444777,1,0,0,1,1,0,,,指定避難所（避難生活に最低限必要な設備が整っている施設）
岐阜県,瑞穂市,生津スポーツ広場,岐阜県瑞穂市生津223-1,35.4060413,136.694763,0,1,0,1,0,0,,,指定緊急避難場所
岐阜県,中津川市,中津川保育園,岐阜県中津川市柳町５?１１,35.49419095,137.4969905,1,0,0,1,1,0,,,指定避難所（避難生活に最低限必要な設備が整っている施設）
岐阜県,瑞穂市,南保育・教育センター（指定避難所）,岐阜県瑞穂市古橋1129-1,35.39138351,136.65106799,1,0,0,1,1,0,,,指定避難所
岐阜県,中津川市,せせらぎ会館,岐阜県中津川市川上１４３７?１,35.61022273,137.4982726,1,0,0,1,1,0,,,指定避難所（避難生活に最低限必要な設備が整っている施設）
岐阜県,瑞穂市,本田第二保育所屋外遊戯場,岐阜県瑞穂市只越387,35.39891091,136.67804580,0,1,0,1,0,0,,,指定緊急避難場所
岐阜県,中津川市,西児童館,岐阜県中津川市駒場１２４９?１２,35.49530483,137.4903019,1,0,0,1,1,0,,,指定避難所（避難生活に最低限必要な設備が整っている施設）
岐阜県,瑞穂市,旭化成グラウンド,岐阜県瑞穂市別府2352-1,35.3926874,136.679244,0,1,0,1,0,0,,,民間協定施設
岐阜県,瑞穂市,南小学校校舎・体育館（指定緊急避難場所）,岐阜県瑞穂市古橋1660,35.38802565,136.65681472,0,1,0,1,0,0,,,指定緊急避難場所
岐阜県,瑞穂市,西保育・教育センター（指定避難所）,岐阜県瑞穂市居倉177-1,35.41653602,136.64305763,1,0,0,1,1,0,,,指定避難所
岐阜県,中津川市,落合小学校,岐阜県中津川市落合９４３?４,35.51084516,137.5290855,1,0,0,1,1,0,,,指定避難所（避難生活に最低限必要な設備が整っている施設）
岐阜県,瑞穂市,中保育・教育センター,岐阜県瑞穂市美江寺223,35.41074580,136.66020296,1,1,0,1,0,0,,,指定避難所・指定緊急避難場所
岐阜県,瑞穂市,穂積グラウンド,岐阜県瑞穂市稲里452-1,35.3864971,136.684489,0,1,0,1,0,0,,,指定緊急避難場所
岐阜県,中津川市,坂本中学校,岐阜県中津川市千旦林１３８６?１,35.47646933,137.4483861,1,0,0,1,1,0,,,指定避難所（避難生活に最低限必要な設備が整っている施設）
岐阜県,中津川市,苗木公園,岐阜県中津川市苗木４５９７,35.52660645,137.461656,1,0,0,1,1,0,,,避難地（発災後、延焼火災等の避難者を収容する広場）
岐阜県,中津川市,福岡区民会館,岐阜県中津川市福岡６９９?１,35.55895372,137.4496289,1,0,0,1,1,0,,,指定避難所（避難生活に最低限必要な設備が整っている施設）
岐阜県,瑞穂市,南小学校グラウンド,岐阜県瑞穂市古橋1660,35.38802565,136.65681472,0,1,1,1,0,0,,,指定緊急避難場所
岐阜県,瑞穂市,牛牧小学校校舎・体育館（指定避難所）,岐阜県瑞穂市牛牧1523,35.37900727,136.67270515,1,0,0,1,1,0,,,指定避難所
岐阜県,中津川市,付知中学校,岐阜県中津川市付知町５７５８,35.65792492,137.4256097,1,0,0,1,1,0,,,指定避難所（避難生活に最低限必要な設備が整っている施設）
岐阜県,瑞穂市,南保育・教育センター屋外遊戯場,岐阜県瑞穂市古橋1129-1,35.39138351,136.65106799,0,1,0,1,0,0,,,指定緊急避難場所
岐阜県,瑞穂市,天待公園,岐阜県瑞穂市生津天王東町2-70,35.4033416,136.696876,0,1,0,1,0,0,,,指定緊急避難場所
岐阜県,瑞穂市,老人福祉センター（指定避難所）,岐阜県瑞穂市田之上597,35.40656808,136.64993190,1,0,0,1,1,0,,,指定避難所（福祉避難所）
岐阜県,中津川市,福岡公民館,岐阜県中津川市福岡７１６?２,35.56115372,137.4525156,1,0,0,0,1,0,,,指定避難所（避難生活に最低限必要な設備が整っている施設）
岐阜県,中津川市,付知南小学校,岐阜県中津川市付知町１０８９０,35.64249494,137.4436201,1,0,0,1,0,0,,,指定避難所（避難生活に最低限必要な設備が整っている施設）
岐阜県,恵那市,明智コミュニティセンター,岐阜県恵那市明智町846?6,35.3016793,137.386743,1,0,0,-,-,-,140人,,指定避難所
岐阜県,瑞穂市,ほづみ幼稚園,岐阜県瑞穂市只越500,35.39836099,136.68446182,1,1,0,1,0,0,,,指定避難所・指定緊急避難場所
岐阜県,中津川市,杉の子幼稚園広場,岐阜県中津川市駒場１１９５?７,35.49617573,137.4905799,1,0,0,1,1,0,,,避難地（発災後、延焼火災等の避難者を収容する広場）
岐阜県,中津川市,蛭川保健センター,岐阜県中津川市蛭川２３５８?４,35.5294206,137.3805954,1,0,0,1,1,0,,,指定避難所（避難生活に最低限必要な設備が整っている施設）
岐阜県,中津川市,阿木中学校,岐阜県中津川市阿木６００６,35.39499053,137.4785379,1,0,0,1,1,0,,,指定避難所（避難生活に最低限必要な設備が整っている施設）
岐阜県,中津川市,サンライフ中津川,岐阜県中津川市手賀野１７２?１,35.47721824,137.4873435,1,0,0,1,1,0,,,指定避難所（避難生活に最低限必要な設備が整っている施設）
岐阜県,恵那市,明智杉野集会センター,岐阜県恵那市明智町杉野900,35.3182957,137.399421,1,0,0,-,-,-,58人,,指定避難所
岐阜県,瑞穂市,中ふれあい広場,岐阜県瑞穂市美江寺276,35.40999308,136.66152506,0,1,0,1,0,0,,,指定緊急避難場所
岐阜県,可児郡御嵩町,大庭台第一公園総合集会所,岐阜県可児郡御嵩町中2678-137,35.443204,137.120495,0,1,0,-,-,-,,,指定避難所
岐阜県,恵那市,岩邑中学校,岐阜県恵那市岩村町1273?1,35.3751526,137.43873,1,1,1,-,-,-,540人,,指定避難所、広域避難場所、指定緊急避難場所
岐阜県,中津川市,山口幼稚園,岐阜県中津川市山口１６４７?３６,35.55691255,137.5463873,1,0,0,1,0,0,,,指定避難所（避難生活に最低限必要な設備が整っている施設）
岐阜県,中津川市,付知北ふれあいセンター,岐阜県中津川市付知町２７７４?２,35.67010851,137.4178168,1,0,0,1,1,0,,,指定避難所（避難生活に最低限必要な設備が整っている施設）
岐阜県,瑞穂市,別府保育所（指定避難所）,岐阜県瑞穂市別府144-1,35.39750836,136.68887801,1,0,0,1,1,0,,,指定避難所
岐阜県,中津川市,第一中学校,岐阜県中津川市駒場１６０６?３,35.49788335,137.4876311,1,0,0,1,0,0,,,指定避難所（避難生活に最低限必要な設備が整っている施設）
岐阜県,恵那市,中野方グラウンド,岐阜県恵那市中野方町2551-5,35.5206711,137.311377,0,1,0,-,-,-,2250人,,指定緊急避難場所
岐阜県,中津川市,苗木小学校,岐阜県中津川市苗木２０８４,35.52355657,137.4725106,1,0,0,1,1,0,,,指定避難所（避難生活に最低限必要な設備が整っている施設）
岐阜県,恵那市,養護老人ホーム恵光園,岐阜県恵那市大井町2716?166,35.4643425,137.392321,1,1,0,-,-,-,95人,,指定避難所、福祉避難所、指定緊急避難場所
岐阜県,恵那市,恵那文化センター,岐阜県恵那市長島町中野414?1,35.4493152,137.404592,1,1,0,-,-,-,2658人,,指定避難所、指定緊急避難場所
岐阜県,中津川市,田瀬区民会館,岐阜県中津川市田瀬１８１１,35.61641945,137.4620442,1,0,0,1,1,0,,,指定避難所（避難生活に最低限必要な設備が整っている施設）
岐阜県,中津川市,坂下高等学校,岐阜県中津川市坂下６２４?１,35.57848715,137.524765,1,0,0,1,1,0,,,指定避難所（避難生活に最低限必要な設備が整っている施設）
岐阜県,中津川市,苗木保育園,岐阜県中津川市苗木１６１０?３,35.52761131,137.4703786,1,0,0,1,1,0,,,指定避難所（避難生活に最低限必要な設備が整っている施設）
岐阜県,瑞穂市,南流公園,岐阜県瑞穂市生津天王町2-106,35.4008398,136.695680,0,1,0,1,0,0,,,指定緊急避難場所
岐阜県,恵那市,藤多目的研修センター,岐阜県恵那市武並町藤1712-6,35.4547332,137.321907,1,0,0,-,-,-,218人,,指定避難所
岐阜県,瑞穂市,真菰池公園,岐阜県瑞穂市生津外宮東町1-97,35.4062368,136.691394,0,1,0,1,0,0,,,指定緊急避難場所
岐阜県,恵那市,飯峡会館,岐阜県恵那市岩村町飯羽間2601?3,35.3851421,137.431841,1,1,0,-,-,-,100人,,指定避難所、指定緊急避難場所
岐阜県,可児郡御嵩町,御嵩小学校,岐阜県可児郡御嵩町中2628,35.4346074,137.127664,1,0,0,1,1,0,,,指定避難所
岐阜県,中津川市,小鳩保育園,岐阜県中津川市中津川２９０６?１,35.48219267,137.5053799,1,0,0,1,0,0,,,指定避難所（避難生活に最低限必要な設備が整っている施設）
岐阜県,瑞穂市,穂積小学校校舎・体育館（指定緊急避難場所）,岐阜県瑞穂市穂積452,35.38983716,136.69484153,0,1,0,1,0,0,,,指定緊急避難場所
岐阜県,瑞穂市,牛牧第一保育所屋外遊戯場,岐阜県瑞穂市牛牧1246-1,35.37781013,136.67175526,0,1,0,1,0,0,,,指定緊急避難場所
岐阜県,瑞穂市,牛牧団地公園,岐阜県瑞穂市牛牧1293-99,35.40402421,136.68728075,0,1,0,1,0,0,,,指定緊急避難場所
岐阜県,恵那市,田園空間ビジターセンター,岐阜県恵那市笠置町河合655?7,35.4901034,137.329036,1,0,0,-,-,-,213人,,指定避難所
岐阜県,恵那市,上矢作コミュニティセンター,岐阜県恵那市上矢作町漆原44?2,35.2951042,137.483744,1,1,0,-,-,-,300人,,指定避難所、指定緊急避難場所
岐阜県,恵那市,武並小学校,岐阜県恵那市武並町竹折1059?91,35.4394003,137.346255,1,1,0,-,-,-,284人,,指定避難所、指定緊急避難場所
岐阜県,恵那市,岩村総合福祉センター,岐阜県恵那市岩村町1650-1,35.3657929,137.436126,1,0,0,-,-,-,204人,,福祉避難所
岐阜県,中津川市,坂下総合体育館,岐阜県中津川市坂下１５１２?１,35.57887822,137.5217448,1,0,0,1,0,0,,,指定避難所（避難生活に最低限必要な設備が整っている施設）
岐阜県,恵那市,東野小学校,岐阜県恵那市東野1346,35.4415019,137.428273,1,1,0,-,-,-,486人,,指定避難所、指定緊急避難場所
岐阜県,可児郡御嵩町,B&G海洋センター,岐阜県可児郡御嵩町中2777-28,35.4233898,137.127120,1,0,0,1,1,0,,,指定避難所
岐阜県,瑞穂市,牛牧第二保育所屋外遊戯場,岐阜県瑞穂市祖父江170,35.38005464,136.68205149,0,1,0,1,0,0,,,指定緊急避難場所
岐阜県,恵那市,三郷コミュニティセンター,岐阜県恵那市三郷町佐々良木1839?4,35.4102602,137.365504,1,0,0,-,-,-,362人,,指定避難所
岐阜県,可児郡御嵩町,綱木グラウンド管理棟,岐阜県可児郡御嵩町上之郷7112-1,35.4487016,137.170290,1,0,0,1,1,0,,,指定避難所
岐阜県,恵那市,山岡Ｂ＆Ｇ海洋センター,岐阜県恵那市山岡町下手向33?1,35.3533467,137.376118,1,0,0,-,-,-,200人,,指定避難所
岐阜県,恵那市,明智文化センター,岐阜県恵那市明智町1860?6,35.3042355,137.389048,1,0,0,-,-,-,150人,,指定避難所
岐阜県,中津川市,発達支援センター「つくしんぼ」,岐阜県中津川市柳町５?１０,35.49384012,137.4967177,1,0,0,1,1,0,,,指定避難所（避難生活に最低限必要な設備が整っている施設）
岐阜県,恵那市,中野方コミュニティセンター,岐阜県恵那市中野方町1802?1,35.5212804,137.306886,1,0,0,-,-,-,896人,,指定避難所
岐阜県,恵那市,恵那北中学校,岐阜県恵那市笠置町河合980,35.4808071,137.330835,1,1,1,-,-,-,556人,,指定避難所、広域避難場所、指定緊急避難場所
岐阜県,瑞穂市,ほづみ幼稚園屋外遊戯場,岐阜県瑞穂市只越500,35.39836099,136.68446182,0,1,0,1,0,0,,,指定緊急避難場所
岐阜県,恵那市,原公民館,岐阜県恵那市山岡町原921?1,35.3301762,137.355319,1,0,0,-,-,-,80人,,指定避難所
岐阜県,恵那市,恵那特別支援学校,岐阜県恵那市岩村町133?3,35.3660735,137.445058,1,1,0,-,-,-,600人,,指定避難所、指定緊急避難場所
岐阜県,恵那市,恵那西中学校,岐阜県恵那市長島町中野1269?261,35.4398933,137.382299,1,1,0,-,-,-,615人,,指定避難所、指定緊急避難場所
岐阜県,恵那市,サンホールくしはら,岐阜県恵那市串原3150,35.2616384,137.405949,1,0,0,-,-,-,500人,,指定避難所
岐阜県,恵那市,恵那農業高等学校,岐阜県恵那市大井町2625?17,35.4654929,137.414734,1,1,0,-,-,-,525人,,指定避難所、指定緊急避難場所
岐阜県,恵那市,吉田小学校,岐阜県恵那市明智町吉良見560?1,35.3046051,137.351259,1,1,0,-,-,-,343人,,指定避難所、指定緊急避難場所
岐阜県,恵那市,恵那高等学校,岐阜県恵那市大井町1023?1,35.4526769,137.419068,1,1,0,-,-,-,535人,,指定避難所、指定緊急避難場所
岐阜県,中津川市,中央公民館・中央図書館,岐阜県中津川市本町２?３?２５,35.49510941,137.5032108,1,0,0,1,1,0,,,指定避難所（避難生活に最低限必要な設備が整っている施設）
岐阜県,恵那市,釜屋公孫樹会館,岐阜県恵那市山岡町釜屋684?1,35.3373412,137.373406,1,0,0,-,-,-,20人,,指定避難所
岐阜県,恵那市,飯地小学校,岐阜県恵那市飯地町26?4,35.4862087,137.291916,1,1,1,-,-,-,365人,,指定避難所、広域避難場所、指定緊急避難場所
岐阜県,可児郡御嵩町,向陽中学校,岐阜県可児郡御嵩町御嵩1306,35.4349989,137.129577,1,0,0,1,1,0,,,指定避難所
岐阜県,恵那市,特別養護老人ホーム万年青苑,岐阜県恵那市長島町永田381-49,35.4455954,137.40553,1,0,0,-,-,-,994人,,福祉避難所
岐阜県,恵那市,上矢作小学校,岐阜県恵那市上矢作町1798?1,35.3006852,137.502165,1,1,0,-,-,-,500人,,指定避難所、指定緊急避難場所
岐阜県,恵那市,山岡小学校,岐阜県恵那市山岡町下手向1831,35.3502208,137.382501,1,1,0,-,-,-,448人,,指定避難所、指定緊急避難場所
岐阜県,恵那市,飯地コミュニティセンター,岐阜県恵那市飯地町68?1,35.483719,137.292219,1,0,0,-,-,-,162人,,指定避難所
岐阜県,中津川市,木匠塾,岐阜県中津川市千旦林１４１７?２６,35.48526105,137.4507408,1,0,0,1,1,0,,,避難地（発災後、延焼火災等の避難者を収容する広場）
岐阜県,恵那市,三郷小学校,岐阜県恵那市三郷町佐々良木1822,35.4107721,137.364746,1,1,0,-,-,-,328人,,指定避難所、指定緊急避難場所
岐阜県,可児郡御嵩町,共和中学校,岐阜県可児郡御嵩町伏見1875-1,35.4405238,137.095405,1,0,0,1,1,0,,,指定避難所
岐阜県,恵那市,上矢作基幹集落センター,岐阜県恵那市上矢作町漆原15?1,35.2946619,137.484333,1,0,0,-,-,-,30人,,指定避難所
岐阜県,恵那市,上矢作中学校,岐阜県恵那市上矢作町漆原67,35.2921973,137.487164,1,1,0,-,-,-,500人,,指定避難所、指定緊急避難場所
岐阜県,可児郡御嵩町,上之郷中学校,岐阜県可児郡御嵩町中切1785,35.4193890,137.163044,1,0,0,1,1,0,,,指定避難所
岐阜県,可児郡御嵩町,東濃実業高校,岐阜県可児郡御嵩町伏見891,35.4400299,137.084032,1,0,0,1,1,0,,,指定避難所
岐阜県,恵那市,武並コミュニティセンター,岐阜県恵那市武並町竹折1059?36,35.4396036,137.347307,1,0,0,-,-,-,273人,,指定避難所
岐阜県,中津川市,一色公園,岐阜県中津川市日の出町３,35.49275712,137.5112152,1,0,0,1,1,0,,,避難地（発災後、延焼火災等の避難者を収容する広場）
岐阜県,恵那市,山岡中学校,岐阜県恵那市山岡町下手向182?4,35.3554431,137.374401,1,1,0,-,-,-,670人,,指定避難所、指定緊急避難場所
岐阜県,中津川市,保古自然館,岐阜県中津川市茄子川1688-21,35.4404876,137.496431,1,0,0,-,-,-,100人,,指定避難所
岐阜県,恵那市,城ヶ丘保育園,岐阜県恵那市大井町848?1,35.4561970,137.415446,1,0,0,-,-,-,290人,,指定避難所
岐阜県,可児郡御嵩町,中公民館,岐阜県可児郡御嵩町中2171-1,35.4316352,137.123673,1,0,0,1,1,0,,,指定避難所
岐阜県,恵那市,総合福祉センター,岐阜県恵那市大井町727-11,35.4531609,137.415966,1,0,0,-,-,-,107人,,福祉避難所
岐阜県,恵那市,上矢作保育園,岐阜県恵那市上矢作町下720,35.2748882,137.475228,1,1,0,-,-,-,300人,,指定避難所、指定緊急避難場所
岐阜県,恵那市,シアター恵那,岐阜県恵那市大井町2709-55,35.4779494,137.401529,0,1,1,-,-,-,5850人,,広域避難場所、指定緊急避難場所
岐阜県,可児郡御嵩町,東濃高校,岐阜県可児郡御嵩町御嵩2854-1,35.4336002,137.134941,1,0,0,1,1,0,,,指定避難所
岐阜県,恵那市,まきがね公園,岐阜県恵那市長島町中野1269-389,35.4446927,137.385658,0,1,1,-,-,-,56900人,,広域避難場所、指定緊急避難場所
岐阜県,恵那市,特別養護老人ホーム福寿苑,岐阜県恵那市上矢作町下723-1,35.2744753,137.47477,1,0,0,-,-,-,1231人,,福祉避難所
岐阜県,恵那市,まきがね西体育館,岐阜県恵那市長島町中野1269?440,35.4418884,137.382564,1,0,0,-,-,-,399人,,指定避難所
岐阜県,恵那市,岐阜県森林組合連合会東濃支所,岐阜県恵那市長島町永田307-69,35.4370453,137.405366,1,0,0,-,-,-,75人,,一時避難所（協定避難所）
岐阜県,恵那市,中山道大井宿広場,岐阜県恵那市大井町210-1,35.4532708,137.409123,0,1,0,-,-,-,1175人,,指定緊急避難場所
岐阜県,恵那市,明智小学校,岐阜県恵那市明智町122?2,35.3107053,137.391608,1,1,0,-,-,-,400人,,指定避難所、指定緊急避難場所
岐阜県,恵那市,大井第二小学校,岐阜県恵那市大井町1982?1,35.4636265,137.420282,1,1,1,-,-,-,496人,,指定避難所、広域避難場所、指定緊急避難場所
岐阜県,恵那市,恵那南部農業者トレーニングセンター,岐阜県恵那市三郷町野井1355?3,35.4241872,137.383814,1,1,0,-,-,-,328人,,指定避難所、指定緊急避難場所
岐阜県,恵那市,恵那市中央図書館,岐阜県恵那市長島町中野二丁目2?5,35.4482072,137.410855,1,1,0,-,-,-,1326人,,指定避難所、指定緊急避難場所
岐阜県,恵那市,恵那東中学校,岐阜県恵那市大井町1073?1,35.4518980,137.421527,1,1,0,-,-,-,650人,,指定避難所、指定緊急避難場所
岐阜県,恵那市,毛呂窪公民館,岐阜県恵那市笠置町毛呂窪1047-1,35.4878561,137.378778,1,0,0,-,-,-,100人,,指定避難所
岐阜県,大垣市,興文地区センター,岐阜県大垣市東外側町2-24,35.3641,136.6144,1,0,0,1,0,0,,避難所とは、被災者の住宅が回復されるまで、あるいは応急仮設住宅へ入居できるまでの一時的な生活の本拠地。,
岐阜県,恵那市,恵那総合庁舎駐車場,岐阜県恵那市長島町正家1067-71,35.4498679,137.433026,0,1,0,-,-,-,2150人,,指定緊急避難場所
岐阜県,恵那市,上矢作体育館,岐阜県恵那市上矢作町漆原33?2,35.295029,137.483843,1,1,0,-,-,-,700人,,指定避難所、指定緊急避難場所
岐阜県,恵那市,野井公民館,岐阜県恵那市三郷町野井1987?2,35.4218969,137.382265,1,0,0,-,-,-,344人,,指定避難所
岐阜県,可児郡御嵩町,御嵩町役場,岐阜県可児郡御嵩町御嵩1239-1,35.4342830,137.130927,1,0,0,1,1,0,,,指定避難所
岐阜県,恵那市,クリスタルパーク恵那スケート場,岐阜県恵那市武並町竹折970?1,35.4321833,137.35531,1,1,1,-,-,-,121人,,指定避難所、広域避難場所、指定緊急避難場所
岐阜県,恵那市,山岡グラウンド,岐阜県恵那市山岡町上手向1161-1,35.3539898,137.376723,0,1,1,-,-,-,9150人,,広域避難場所、指定緊急避難場所
岐阜県,可児郡御嵩町,伏見保育園,岐阜県可児郡御嵩町伏見751-1,35.4358996,137.080346,1,0,0,1,1,0,,,指定避難所
岐阜県,大垣市,スイトピアセンター（学習館）,岐阜県大垣市室本町5-51,35.3639,136.607,1,0,0,1,0,0,,避難所とは、被災者の住宅が回復されるまで、あるいは応急仮設住宅へ入居できるまでの一時的な生活の本拠地。,
岐阜県,恵那市,岩村振興事務所駐車場,岐阜県恵那市岩村町545-1,35.3646885,137.440467,0,1,0,-,-,-,2100人,,指定緊急避難場所
岐阜県,恵那市,中野方小学校,岐阜県恵那市中野方町2353?1,35.5235278,137.309032,1,1,0,-,-,-,389人,,指定避難所、指定緊急避難場所
岐阜県,大垣市,アクアウォーク大垣駐車場,岐阜県大垣市林町6-80-21,35.3701,136.6171,1,0,1,1,0,0,,広域避難場所とは、大規模な災害が発生した場合に大人数を収容できる避難場所。避難所とは、被災者の住宅が回復されるまで、あるいは応急仮設住宅へ入居できるまでの一時的な生活の本拠地。,
岐阜県,恵那市,ふるさと富田会館,岐阜県恵那市岩村町富田1916?3,35.3769498,137.45087,1,1,0,-,-,-,100人,,指定避難所、指定緊急避難場所
岐阜県,恵那市,明智東方センター,岐阜県恵那市明智町東方590,35.290624,137.422712,1,0,0,-,-,-,175人,,指定避難所
岐阜県,恵那市,正家公民館,岐阜県恵那市長島町正家504?4,35.4440526,137.415022,1,0,0,-,-,-,276人,,指定避難所
岐阜県,可児郡御嵩町,伏見小学校,岐阜県可児郡御嵩町伏見489,35.4372853,137.085438,1,0,0,1,1,0,,,指定避難所
岐阜県,大垣市,日新地区センター,岐阜県大垣市入方2-1611-1,35.3277,136.6004,1,0,0,1,0,0,,避難所とは、被災者の住宅が回復されるまで、あるいは応急仮設住宅へ入居できるまでの一時的な生活の本拠地。,
岐阜県,恵那市,大井小学校,岐阜県恵那市大井町851-1,35.4550646,137.416488,1,1,0,-,-,-,460人,,指定避難所、指定緊急避難場所
岐阜県,恵那市,明智中学校,岐阜県恵那市明智町60?1,35.3094216,137.392958,1,1,0,-,-,-,951人,,指定避難所、指定緊急避難場所
岐阜県,大垣市,宝林保育園,岐阜県大垣市貝曽根町166,35.3724,136.6321,1,0,0,1,0,0,,避難所とは、被災者の住宅が回復されるまで、あるいは応急仮設住宅へ入居できるまでの一時的な生活の本拠地。,
岐阜県,恵那市,岩村コミュニティセンター,岐阜県恵那市岩村町1657?1,35.3661595,137.435186,1,1,0,-,-,-,200人,,指定避難所、指定緊急避難場所
岐阜県,恵那市,ひまわり会館,岐阜県恵那市山岡町田沢3154?1,35.3456511,137.395348,1,0,0,-,-,-,38人,,指定避難所
岐阜県,恵那市,阿妻公民館,岐阜県恵那市明智町阿妻211?1,35.2740035,137.345183,1,0,0,-,-,-,43人,,指定避難所
岐阜県,大垣市,荒崎幼保園,岐阜県大垣市長松町771-1,35.3649,136.5692,1,0,0,1,0,0,,避難所とは、被災者の住宅が回復されるまで、あるいは応急仮設住宅へ入居できるまでの一時的な生活の本拠地。,
岐阜県,大垣市,西保育園,岐阜県大垣市南若森町665-3,35.3565,136.6002,1,0,0,1,0,0,,避難所とは、被災者の住宅が回復されるまで、あるいは応急仮設住宅へ入居できるまでの一時的な生活の本拠地。,
岐阜県,恵那市,さくら会館,岐阜県恵那市山岡町馬場山田970?1,35.35568,137.407967,1,0,0,-,-,-,38人,,指定避難所
岐阜県,恵那市,串原総合福祉センター,岐阜県恵那市串原3171?1,35.2605894,137.405916,1,0,0,-,-,-,80人,,指定避難所、福祉避難所
岐阜県,大垣市,墨俣小学校,岐阜県大垣市墨俣町墨俣242-1,35.3629,136.6845,1,0,0,1,0,0,,避難所とは、被災者の住宅が回復されるまで、あるいは応急仮設住宅へ入居できるまでの一時的な生活の本拠地。,
岐阜県,可児郡御嵩町,御嵩公民館,岐阜県可児郡御嵩町御嵩626-1,35.4290080,137.136712,1,0,0,1,0,0,,,指定避難所
岐阜県,恵那市,長島小学校,岐阜県恵那市長島町永田461?1,35.4497623,137.402945,1,1,0,-,-,-,532人,,指定避難所、指定緊急避難場所
岐阜県,恵那市,明智Ｂ＆Ｇ海洋センター,岐阜県恵那市明智町1138?1,35.3001955,137.390295,1,1,0,-,-,-,550人,,指定避難所、指定緊急避難場所
岐阜県,大垣市,大垣東高校,岐阜県大垣市美和町1784,35.3531,136.6171,1,0,0,1,0,0,,避難所とは、被災者の住宅が回復されるまで、あるいは応急仮設住宅へ入居できるまでの一時的な生活の本拠地。,
岐阜県,大垣市,大垣市医師会看護専門学校,岐阜県大垣市緑園129,35.3612,136.6324,1,0,0,1,0,0,,避難所とは、被災者の住宅が回復されるまで、あるいは応急仮設住宅へ入居できるまでの一時的な生活の本拠地。,
岐阜県,恵那市,爪切地蔵ふれあい会館,岐阜県恵那市山岡町久保原382?1,35.369359,137.39359,1,0,0,-,-,-,20人,,指定避難所
岐阜県,恵那市,山岡農村環境改善センター,岐阜県恵那市山岡町上手向1228?1,35.3519741,137.381209,1,0,0,-,-,-,100人,,指定避難所
岐阜県,大垣市,安井幼稚園,岐阜県大垣市禾森1-46-1,35.352,136.6273,1,0,0,1,0,0,,避難所とは、被災者の住宅が回復されるまで、あるいは応急仮設住宅へ入居できるまでの一時的な生活の本拠地。,
岐阜県,恵那市,岩邑小学校,岐阜県恵那市岩村町1524?1,35.368886,137.439287,1,1,0,-,-,-,400人,,指定避難所、指定緊急避難場所
岐阜県,可児郡御嵩町,伏見公民館,岐阜県可児郡御嵩町伏見990,35.4387189,137.086887,1,0,0,1,1,0,,,指定避難所
岐阜県,恵那市,明智横通集会センター,岐阜県恵那市明智町986?69,35.2875963,137.378099,1,0,0,-,-,-,47人,,指定避難所
岐阜県,大垣市,多良小学校,岐阜県大垣市上石津町宮38,35.2814,136.4627,1,0,0,1,0,0,,避難所とは、被災者の住宅が回復されるまで、あるいは応急仮設住宅へ入居できるまでの一時的な生活の本拠地。,
岐阜県,大垣市,青年の家,岐阜県大垣市見取町1-13-1,35.3715,136.6135,1,0,0,1,0,0,,避難所とは、被災者の住宅が回復されるまで、あるいは応急仮設住宅へ入居できるまでの一時的な生活の本拠地。,
岐阜県,恵那市,特別養護老人ホーム明日香苑,岐阜県恵那市三郷町佐々良木1470-1,35.4051068,137.356211,1,0,0,-,-,-,1515人,,福祉避難所
岐阜県,可児郡御嵩町,御嵩保育園,岐阜県可児郡御嵩町御嵩689-1,35.4302268,137.135841,1,0,0,1,1,0,,,指定避難所
岐阜県,大垣市,総合福祉会館,岐阜県大垣市馬場町124,35.3575,136.6121,1,0,0,1,0,0,,避難所とは、被災者の住宅が回復されるまで、あるいは応急仮設住宅へ入居できるまでの一時的な生活の本拠地。,
岐阜県,恵那市,明智かえでホール,岐阜県恵那市明智町1138?1,35.299854,137.39029,1,0,0,-,-,-,544人,,指定避難所
岐阜県,恵那市,笠置コミュニティセンター,岐阜県恵那市笠置町姫栗10?2,35.4864943,137.34565,1,0,0,-,-,-,379人,,指定避難所
岐阜県,恵那市,毛呂窪体育館,岐阜県恵那市笠置町毛呂窪1042,35.4885747,137.377995,1,1,0,-,-,-,354人,,指定避難所、指定緊急避難場所
岐阜県,大垣市,中川小学校,岐阜県大垣市中川町2-460,35.3839,136.6159,1,0,0,1,0,0,,避難所とは、被災者の住宅が回復されるまで、あるいは応急仮設住宅へ入居できるまでの一時的な生活の本拠地。,
岐阜県,大垣市,スイトピアセンター（文化会館）,岐阜県大垣市室本町5-51,35.3639,136.607,1,0,0,1,0,0,,避難所とは、被災者の住宅が回復されるまで、あるいは応急仮設住宅へ入居できるまでの一時的な生活の本拠地。,
岐阜県,恵那市,東野コミュニティセンター,岐阜県恵那市東野1342?1,35.4420270,137.428407,1,0,0,-,-,-,585人,,指定避難所
岐阜県,恵那市,明智福祉センター,岐阜県恵那市明智町1090,35.2963523,137.394714,1,0,0,-,-,-,137人,,福祉避難所
岐阜県,大垣市,上多良公民館,岐阜県大垣市上石津町上多良983,35.2727,136.4624,1,0,0,1,0,0,,避難所とは、被災者の住宅が回復されるまで、あるいは応急仮設住宅へ入居できるまでの一時的な生活の本拠地。,
岐阜県,恵那市,田代集落農事集会所,岐阜県恵那市山岡町田代871?1,35.3387934,137.32351,1,0,0,-,-,-,20人,,指定避難所
岐阜県,恵那市,吉田保育園,岐阜県恵那市明智町大田892?2,35.3053369,137.361159,1,0,0,-,-,-,163人,,指定避難所
岐阜県,可児郡御嵩町,上之郷小学校,岐阜県可児郡御嵩町宿2002,35.4178852,137.168623,1,0,0,1,0,0,,,指定避難所
岐阜県,大垣市,時小学校,岐阜県大垣市上石津町堂之上875,35.2473,136.4582,1,0,0,1,0,0,,避難所とは、被災者の住宅が回復されるまで、あるいは応急仮設住宅へ入居できるまでの一時的な生活の本拠地。,
岐阜県,大垣市,赤坂地区センター,岐阜県大垣市赤坂町3342-1,35.3928,136.5803,1,0,0,1,0,0,,避難所とは、被災者の住宅が回復されるまで、あるいは応急仮設住宅へ入居できるまでの一時的な生活の本拠地。,
岐阜県,大垣市,西美濃農業協同組合ふれあいホール,岐阜県大垣市東前町955-1,35.3458,136.638,1,0,0,1,0,0,,避難所とは、被災者の住宅が回復されるまで、あるいは応急仮設住宅へ入居できるまでの一時的な生活の本拠地。,
岐阜県,恵那市,恵那北小学校,岐阜県恵那市長島町久須見177?4,35.4733351,137.359717,1,1,0,-,-,-,239人,,指定避難所、指定緊急避難場所
岐阜県,大垣市,青墓地区センター,岐阜県大垣市青墓町270-51,35.3808,136.5709,1,0,0,1,0,0,,避難所とは、被災者の住宅が回復されるまで、あるいは応急仮設住宅へ入居できるまでの一時的な生活の本拠地。,
岐阜県,恵那市,メダリオン・ベルグラビアリゾート,岐阜県恵那市串原3915,35.2531017,137.429021,1,0,0,-,-,-,300人,,一時避難所（協定避難所）
岐阜県,大垣市,木の花保育園（旧和合保育園）,岐阜県大垣市開発町5-658-1,35.3803,136.6424,1,0,0,1,0,0,,避難所とは、被災者の住宅が回復されるまで、あるいは応急仮設住宅へ入居できるまでの一時的な生活の本拠地。,
岐阜県,恵那市,上矢作グラウンド,岐阜県恵那市上矢作町漆原41-1,35.2960216,137.483329,0,1,0,-,-,-,3900人,,指定緊急避難場所
岐阜県,大垣市,総合体育館,岐阜県大垣市加賀野4-62,35.366,136.6403,1,0,0,1,0,0,,避難所とは、被災者の住宅が回復されるまで、あるいは応急仮設住宅へ入居できるまでの一時的な生活の本拠地。,
岐阜県,大垣市,川並地区センター,岐阜県大垣市古宮町1537,35.3364,136.6361,1,0,0,1,0,0,,避難所とは、被災者の住宅が回復されるまで、あるいは応急仮設住宅へ入居できるまでの一時的な生活の本拠地。,
岐阜県,大垣市,赤坂中学校,岐阜県大垣市赤坂町3421,35.3881,136.5784,1,0,0,1,0,0,,避難所とは、被災者の住宅が回復されるまで、あるいは応急仮設住宅へ入居できるまでの一時的な生活の本拠地。,
岐阜県,可児郡御嵩町,上之郷保育園,岐阜県可児郡御嵩町中切1359-2,35.4242494,137.161005,1,0,0,1,1,0,,,指定避難所
岐阜県,大垣市,三城地区センター,岐阜県大垣市加賀野4-37-1,35.3664,136.6391,1,0,0,1,0,0,,避難所とは、被災者の住宅が回復されるまで、あるいは応急仮設住宅へ入居できるまでの一時的な生活の本拠地。,
岐阜県,可児郡御嵩町,上之郷公民館,岐阜県可児郡御嵩町中切874-4,35.4270244,137.157371,1,0,0,1,1,0,,,指定避難所
岐阜県,大垣市,法音寺大垣支院,岐阜県大垣市宝和町5,35.3693,136.5983,1,0,0,1,0,0,,避難所とは、被災者の住宅が回復されるまで、あるいは応急仮設住宅へ入居できるまでの一時的な生活の本拠地。,
岐阜県,可児郡御嵩町,ぽっぽかん,岐阜県可児郡御嵩町顔度1176-2,35.4399482,137.108121,1,0,0,1,1,0,,,指定避難所
岐阜県,大垣市,日新小学校,岐阜県大垣市入方1-34,35.3323,136.6004,1,0,0,1,0,0,,避難所とは、被災者の住宅が回復されるまで、あるいは応急仮設住宅へ入居できるまでの一時的な生活の本拠地。,
岐阜県,大垣市,西部研修センター,岐阜県大垣市桧町357,35.3652,136.5804,1,0,0,1,0,0,,避難所とは、被災者の住宅が回復されるまで、あるいは応急仮設住宅へ入居できるまでの一時的な生活の本拠地。,
岐阜県,大垣市,安井地区センター,岐阜県大垣市東前3-10,35.3475,136.6343,1,0,0,1,0,0,,避難所とは、被災者の住宅が回復されるまで、あるいは応急仮設住宅へ入居できるまでの一時的な生活の本拠地。,
岐阜県,大垣市,浅草ひかり保育園（旧あさくさ保育園）,岐阜県大垣市浅草3-48,35.3106,136.6127,1,0,0,1,0,0,,避難所とは、被災者の住宅が回復されるまで、あるいは応急仮設住宅へ入居できるまでの一時的な生活の本拠地。,
岐阜県,大垣市,三城保育園,岐阜県大垣市小野2-27,35.3674,136.6456,1,0,0,1,0,0,,避難所とは、被災者の住宅が回復されるまで、あるいは応急仮設住宅へ入居できるまでの一時的な生活の本拠地。,
岐阜県,恵那市,ふれあい会館吉良見,岐阜県恵那市明智町吉良見472?1,35.3070444,137.355316,1,1,0,-,-,-,63人,,指定避難所、指定緊急避難場所
岐阜県,大垣市,南一色公園,岐阜県大垣市南一色町224-13,35.3715,136.5987,1,0,1,1,0,0,,広域避難場所とは、大規模な災害が発生した場合に大人数を収容できる避難場所。避難所とは、被災者の住宅が回復されるまで、あるいは応急仮設住宅へ入居できるまでの一時的な生活の本拠地。,
岐阜県,大垣市,大垣特別支援学校,岐阜県大垣市西大外羽1-227-1,35.3209,136.594,1,0,0,1,0,0,,避難所とは、被災者の住宅が回復されるまで、あるいは応急仮設住宅へ入居できるまでの一時的な生活の本拠地。,
岐阜県,大垣市,綾里小学校,岐阜県大垣市綾野5-85,35.3428,136.5872,1,0,0,1,0,0,,避難所とは、被災者の住宅が回復されるまで、あるいは応急仮設住宅へ入居できるまでの一時的な生活の本拠地。,
岐阜県,大垣市,大垣工業高校,岐阜県大垣市南若森町301-1,35.3501,136.6049,1,0,0,1,0,0,,避難所とは、被災者の住宅が回復されるまで、あるいは応急仮設住宅へ入居できるまでの一時的な生活の本拠地。,
岐阜県,大垣市,荒崎小学校,岐阜県大垣市長松町789,35.3642,136.5688,1,0,0,1,0,0,,避難所とは、被災者の住宅が回復されるまで、あるいは応急仮設住宅へ入居できるまでの一時的な生活の本拠地。,
岐阜県,大垣市,上石津中学校,岐阜県大垣市上石津町一之瀬100,35.3124,136.4786,1,0,0,1,0,0,,避難所とは、被災者の住宅が回復されるまで、あるいは応急仮設住宅へ入居できるまでの一時的な生活の本拠地。,
岐阜県,大垣市,丸の内保育園,岐阜県大垣市丸の内2-78,35.3612,136.6126,1,0,0,1,0,0,,避難所とは、被災者の住宅が回復されるまで、あるいは応急仮設住宅へ入居できるまでの一時的な生活の本拠地。,
岐阜県,大垣市,上鍛冶屋公民館,岐阜県大垣市上石津町上鍛冶屋82-1,35.2957,136.4675,1,0,0,1,0,0,,避難所とは、被災者の住宅が回復されるまで、あるいは応急仮設住宅へ入居できるまでの一時的な生活の本拠地。,
岐阜県,大垣市,西部中学校,岐阜県大垣市荒川町337,35.3643,136.5782,1,0,0,1,0,0,,避難所とは、被災者の住宅が回復されるまで、あるいは応急仮設住宅へ入居できるまでの一時的な生活の本拠地。,
岐阜県,大垣市,三城公園,岐阜県大垣市加賀野5-49-1,35.3646,136.6412,1,0,1,1,0,0,,広域避難場所とは、大規模な災害が発生した場合に大人数を収容できる避難場所。避難所とは、被災者の住宅が回復されるまで、あるいは応急仮設住宅へ入居できるまでの一時的な生活の本拠地。,
岐阜県,大垣市,北地区センター,岐阜県大垣市林町6-105,35.3713,136.6145,1,0,0,1,0,0,,避難所とは、被災者の住宅が回復されるまで、あるいは応急仮設住宅へ入居できるまでの一時的な生活の本拠地。,
岐阜県,大垣市,荒崎地区センター,岐阜県大垣市島町80,35.3547,136.5645,1,0,0,1,0,0,,避難所とは、被災者の住宅が回復されるまで、あるいは応急仮設住宅へ入居できるまでの一時的な生活の本拠地。,
岐阜県,大垣市,江東小学校,岐阜県大垣市内原3-135,35.3138,136.6139,1,0,0,1,0,0,,避難所とは、被災者の住宅が回復されるまで、あるいは応急仮設住宅へ入居できるまでの一時的な生活の本拠地。,
岐阜県,大垣市,安井保育園,岐阜県大垣市大井1-1-2,35.3497,136.6273,1,0,0,1,0,0,,避難所とは、被災者の住宅が回復されるまで、あるいは応急仮設住宅へ入居できるまでの一時的な生活の本拠地。,
岐阜県,大垣市,大垣桜高校,岐阜県大垣市墨俣町上宿468,35.3599,136.6807,1,0,0,1,0,0,,避難所とは、被災者の住宅が回復されるまで、あるいは応急仮設住宅へ入居できるまでの一時的な生活の本拠地。,
岐阜県,大垣市,江並中学校,岐阜県大垣市外渕4-66,35.327,136.6226,1,0,0,1,0,0,,避難所とは、被災者の住宅が回復されるまで、あるいは応急仮設住宅へ入居できるまでの一時的な生活の本拠地。,
岐阜県,大垣市,谷畑コミュニティセンター,岐阜県大垣市上石津町谷畑132,35.2964,136.4643,1,0,0,1,0,0,,避難所とは、被災者の住宅が回復されるまで、あるいは応急仮設住宅へ入居できるまでの一時的な生活の本拠地。,
岐阜県,大垣市,杭瀬川公園,岐阜県大垣市静里町1761-1,35.3576,136.5961,1,0,1,1,0,0,,広域避難場所とは、大規模な災害が発生した場合に大人数を収容できる避難場所。避難所とは、被災者の住宅が回復されるまで、あるいは応急仮設住宅へ入居できるまでの一時的な生活の本拠地。,
岐阜県,大垣市,南小学校,岐阜県大垣市美和町1871,35.3526,136.6195,1,0,0,1,0,0,,避難所とは、被災者の住宅が回復されるまで、あるいは応急仮設住宅へ入居できるまでの一時的な生活の本拠地。,
岐阜県,大垣市,宇留生地区センター,岐阜県大垣市荒尾町1438,35.3729,136.5835,1,0,0,1,0,0,,避難所とは、被災者の住宅が回復されるまで、あるいは応急仮設住宅へ入居できるまでの一時的な生活の本拠地。,
岐阜県,大垣市,イオン大垣ショッピングセンター駐車場,岐阜県大垣市外野2-100,35.3378,136.6123,1,0,1,1,0,0,,広域避難場所とは、大規模な災害が発生した場合に大人数を収容できる避難場所。避難所とは、被災者の住宅が回復されるまで、あるいは応急仮設住宅へ入居できるまでの一時的な生活の本拠地。,
岐阜県,大垣市,南公園運動場,岐阜県大垣市禾森町6-1468-4,35.3478,136.6199,1,0,1,1,0,0,,広域避難場所とは、大規模な災害が発生した場合に大人数を収容できる避難場所。避難所とは、被災者の住宅が回復されるまで、あるいは応急仮設住宅へ入居できるまでの一時的な生活の本拠地。,
岐阜県,大垣市,大垣西高校,岐阜県大垣市中曽根町147-1,35.3563,136.5763,1,0,0,1,0,0,,避難所とは、被災者の住宅が回復されるまで、あるいは応急仮設住宅へ入居できるまでの一時的な生活の本拠地。,
岐阜県,大垣市,赤坂東地区センター,岐阜県大垣市赤坂新町1-10,35.3938,136.5893,1,0,0,1,0,0,,避難所とは、被災者の住宅が回復されるまで、あるいは応急仮設住宅へ入居できるまでの一時的な生活の本拠地。,
岐阜県,大垣市,平野学園,岐阜県大垣市清水町65-3,35.3613,136.6208,1,0,0,1,0,0,,避難所とは、被災者の住宅が回復されるまで、あるいは応急仮設住宅へ入居できるまでの一時的な生活の本拠地。,
岐阜県,大垣市,大垣競輪場駐車場,岐阜県大垣市住吉町3　ほか,35.3605,136.6311,1,0,1,1,0,0,,広域避難場所とは、大規模な災害が発生した場合に大人数を収容できる避難場所。避難所とは、被災者の住宅が回復されるまで、あるいは応急仮設住宅へ入居できるまでの一時的な生活の本拠地。,
岐阜県,大垣市,上石津総合体育館,岐阜県大垣市上石津町牧田1995,35.3364,136.4942,1,0,0,1,0,0,,避難所とは、被災者の住宅が回復されるまで、あるいは応急仮設住宅へ入居できるまでの一時的な生活の本拠地。,
岐阜県,大垣市,西中学校,岐阜県大垣市割田1-601-2,35.3421,136.6017,1,0,0,1,0,0,,避難所とは、被災者の住宅が回復されるまで、あるいは応急仮設住宅へ入居できるまでの一時的な生活の本拠地。,
岐阜県,大垣市,大垣ひかり保育園,岐阜県大垣市中川町3-96,35.3795,136.6218,1,0,0,1,0,0,,避難所とは、被災者の住宅が回復されるまで、あるいは応急仮設住宅へ入居できるまでの一時的な生活の本拠地。,
岐阜県,大垣市,ながさわ保育園,岐阜県大垣市長沢町3-63,35.3557,136.6411,1,0,0,1,0,0,,避難所とは、被災者の住宅が回復されるまで、あるいは応急仮設住宅へ入居できるまでの一時的な生活の本拠地。,
岐阜県,大垣市,北部体育館,岐阜県大垣市楽田町8-1-1,35.3855,136.6224,1,0,0,1,0,0,,避難所とは、被災者の住宅が回復されるまで、あるいは応急仮設住宅へ入居できるまでの一時的な生活の本拠地。,
岐阜県,大垣市,江東地区センター,岐阜県大垣市浅草2-10,35.3143,136.6159,1,0,0,1,0,0,,避難所とは、被災者の住宅が回復されるまで、あるいは応急仮設住宅へ入居できるまでの一時的な生活の本拠地。,
岐阜県,大垣市,むつみ保育園,岐阜県大垣市荒尾町1019,35.3775,136.5766,1,0,0,1,0,0,,避難所とは、被災者の住宅が回復されるまで、あるいは応急仮設住宅へ入居できるまでの一時的な生活の本拠地。,
岐阜県,大垣市,東地区センター,岐阜県大垣市藤江町6-207,35.3615,136.6249,1,0,0,1,0,0,,避難所とは、被災者の住宅が回復されるまで、あるいは応急仮設住宅へ入居できるまでの一時的な生活の本拠地。,
岐阜県,大垣市,子育て総合支援センター,岐阜県大垣市外花6-45,35.3312,136.6102,1,0,0,1,0,0,,避難所とは、被災者の住宅が回復されるまで、あるいは応急仮設住宅へ入居できるまでの一時的な生活の本拠地。,
岐阜県,大垣市,大垣日大高校,岐阜県大垣市林町6-5,35.3743,136.6177,1,0,0,1,0,0,,避難所とは、被災者の住宅が回復されるまで、あるいは応急仮設住宅へ入居できるまでの一時的な生活の本拠地。,
岐阜県,大垣市,大垣城ホール,岐阜県大垣市郭町2-53,35.3606,136.616,1,0,0,1,0,0,,避難所とは、被災者の住宅が回復されるまで、あるいは応急仮設住宅へ入居できるまでの一時的な生活の本拠地。,
岐阜県,大垣市,大垣南高校,岐阜県大垣市浅中2-69,35.3118,136.6045,1,0,0,1,0,0,,避難所とは、被災者の住宅が回復されるまで、あるいは応急仮設住宅へ入居できるまでの一時的な生活の本拠地。,
岐阜県,大垣市,興文小学校,岐阜県大垣市西外側町1-34,35.362,136.6114,1,0,0,1,0,0,,避難所とは、被災者の住宅が回復されるまで、あるいは応急仮設住宅へ入居できるまでの一時的な生活の本拠地。,
岐阜県,大垣市,大垣女子短期大学,岐阜県大垣市西之川町1-109,35.3864,136.608,1,0,0,1,0,0,,避難所とは、被災者の住宅が回復されるまで、あるいは応急仮設住宅へ入居できるまでの一時的な生活の本拠地。,
岐阜県,大垣市,安井小学校,岐阜県大垣市禾森1-1,35.3535,136.6267,1,0,0,1,0,0,,避難所とは、被災者の住宅が回復されるまで、あるいは応急仮設住宅へ入居できるまでの一時的な生活の本拠地。,
岐阜県,大垣市,すもと保育園,岐阜県大垣市外渕4-67,35.3267,136.624,1,0,0,1,0,0,,避難所とは、被災者の住宅が回復されるまで、あるいは応急仮設住宅へ入居できるまでの一時的な生活の本拠地。,
岐阜県,大垣市,和合地区センター,岐阜県大垣市開発町5-86-3,35.379,136.6426,1,0,0,1,0,0,,避難所とは、被災者の住宅が回復されるまで、あるいは応急仮設住宅へ入居できるまでの一時的な生活の本拠地。,
岐阜県,大垣市,日新幼保園,岐阜県大垣市入方1-38,35.3311,136.6005,1,0,0,1,0,0,,避難所とは、被災者の住宅が回復されるまで、あるいは応急仮設住宅へ入居できるまでの一時的な生活の本拠地。,
岐阜県,安八郡安八町,東安中学校,岐阜県安八町東結952-43,35.3607,136.6729,1,0,0,1,0,0,,避難所とは、被災者の住宅が回復されるまで、あるいは応急仮設住宅へ入居できるまでの一時的な生活の本拠地。,
岐阜県,大垣市,北公園,岐阜県大垣市八島町2247,35.3725,136.6142,1,0,1,1,0,0,,広域避難場所とは、大規模な災害が発生した場合に大人数を収容できる避難場所。避難所とは、被災者の住宅が回復されるまで、あるいは応急仮設住宅へ入居できるまでの一時的な生活の本拠地。,
岐阜県,大垣市,大垣別院,岐阜県大垣市伝馬町11,35.3642,136.6213,1,0,0,1,0,0,,避難所とは、被災者の住宅が回復されるまで、あるいは応急仮設住宅へ入居できるまでの一時的な生活の本拠地。,
岐阜県,大垣市,東小学校,岐阜県大垣市三塚町1180,35.3633,136.6288,1,0,0,1,0,0,,避難所とは、被災者の住宅が回復されるまで、あるいは応急仮設住宅へ入居できるまでの一時的な生活の本拠地。,
岐阜県,大垣市,ゆりかご保育園,岐阜県大垣市南切石町2-67,35.3549,136.6076,1,0,0,1,0,0,,避難所とは、被災者の住宅が回復されるまで、あるいは応急仮設住宅へ入居できるまでの一時的な生活の本拠地。,
岐阜県,大垣市,まこと保育園,岐阜県大垣市三塚町1018,35.3652,136.6328,1,0,0,1,0,0,,避難所とは、被災者の住宅が回復されるまで、あるいは応急仮設住宅へ入居できるまでの一時的な生活の本拠地。,
岐阜県,大垣市,綾里地区センター,岐阜県大垣市綾野6-111-1,35.3423,136.5896,1,0,0,1,0,0,,避難所とは、被災者の住宅が回復されるまで、あるいは応急仮設住宅へ入居できるまでの一時的な生活の本拠地。,
岐阜県,大垣市,牧田支所,岐阜県大垣市上石津町牧田2200-2,35.34,136.4933,1,0,0,1,0,0,,避難所とは、被災者の住宅が回復されるまで、あるいは応急仮設住宅へ入居できるまでの一時的な生活の本拠地。,
岐阜県,大垣市,平和堂アル･プラザ鶴見駐車場,岐阜県大垣市鶴見町字上渡瀬641-2,35.3589,136.641,1,0,1,1,0,0,,広域避難場所とは、大規模な災害が発生した場合に大人数を収容できる避難場所。避難所とは、被災者の住宅が回復されるまで、あるいは応急仮設住宅へ入居できるまでの一時的な生活の本拠地。,
岐阜県,大垣市,星和中学校,岐阜県大垣市楽田町6-60,35.3841,136.6304,1,0,0,1,0,0,,避難所とは、被災者の住宅が回復されるまで、あるいは応急仮設住宅へ入居できるまでの一時的な生活の本拠地。,
岐阜県,大垣市,みそぎ保育園,岐阜県大垣市北方町1-1591,35.3953,136.6123,1,0,0,1,0,0,,避難所とは、被災者の住宅が回復されるまで、あるいは応急仮設住宅へ入居できるまでの一時的な生活の本拠地。,
岐阜県,大垣市,南中学校,岐阜県大垣市南頬町4-141,35.3542,136.6194,1,0,0,1,0,0,,避難所とは、被災者の住宅が回復されるまで、あるいは応急仮設住宅へ入居できるまでの一時的な生活の本拠地。,
岐阜県,大垣市,北中学校,岐阜県大垣市八島町2290,35.3745,136.6156,1,0,0,1,0,0,,避難所とは、被災者の住宅が回復されるまで、あるいは応急仮設住宅へ入居できるまでの一時的な生活の本拠地。,
岐阜県,大垣市,わかたけ保育園,岐阜県大垣市西之川町1-110,35.386,136.6087,1,0,0,1,0,0,,避難所とは、被災者の住宅が回復されるまで、あるいは応急仮設住宅へ入居できるまでの一時的な生活の本拠地。,
岐阜県,美濃加茂市,牧野交流センター,岐阜県美濃加茂市牧野1941-1,35.4495108,137.0719355,1,0,0,-,-,-,300人,,第１次避難施設：市民の避難が必要であると認められる場合及び自主避難が予想されるときに開設する施設
岐阜県,美濃加茂市,下米田保育園,岐阜県美濃加茂市下米田町今109-2,35.4629432,137.0609307,1,0,0,-,-,-,80人,,第２次避難施設：大規模な災害のため、第１次避難施設で対応できないときに開設
岐阜県,大垣市,東中学校,岐阜県大垣市三塚町1169,35.3631,136.6307,1,0,0,1,0,0,,避難所とは、被災者の住宅が回復されるまで、あるいは応急仮設住宅へ入居できるまでの一時的な生活の本拠地。,
岐阜県,大垣市,静里小学校,岐阜県大垣市久徳町423,35.3602,136.5891,1,0,0,1,0,0,,避難所とは、被災者の住宅が回復されるまで、あるいは応急仮設住宅へ入居できるまでの一時的な生活の本拠地。,
岐阜県,大垣市,興文中学校,岐阜県大垣市西崎町1-82,35.3621,136.6073,1,0,0,1,0,0,,避難所とは、被災者の住宅が回復されるまで、あるいは応急仮設住宅へ入居できるまでの一時的な生活の本拠地。,
岐阜県,大垣市,中川地区センター,岐阜県大垣市中川町4-150,35.3816,136.6191,1,0,0,1,0,0,,避難所とは、被災者の住宅が回復されるまで、あるいは応急仮設住宅へ入居できるまでの一時的な生活の本拠地。,
岐阜県,大垣市,奥コミュニティセンター,岐阜県大垣市上石津町奥335-1,35.2939,136.4545,1,0,0,1,0,0,,避難所とは、被災者の住宅が回復されるまで、あるいは応急仮設住宅へ入居できるまでの一時的な生活の本拠地。,
岐阜県,大垣市,烏頭坂コミュニティセンター,岐阜県大垣市上石津町牧田740-55,35.3525,136.4788,1,0,0,1,0,0,,避難所とは、被災者の住宅が回復されるまで、あるいは応急仮設住宅へ入居できるまでの一時的な生活の本拠地。,
岐阜県,美濃加茂市,総合福祉会館,岐阜県美濃加茂市新池町3-4-1,35.4534584,137.0301637,1,0,0,-,-,-,150人,,初期対応避難施設：災害が発生するおそれのある場合又は災害発生時等において応急的に開設する施設　　　　　　　　　　　　　　　　　　　　　　　　　　　　　　　　　　　　　　　　　　　　　　　　　　　　　　　　　　　　福祉避難施設：一般的な避難施設では生活に支障をきたす人のための施設
岐阜県,美濃加茂市,美濃加茂中学高等学校,岐阜県美濃加茂市本郷町7-6-60,35.4619639,137.0420841,1,0,0,-,-,-,1460人,,第２次避難施設：大規模な災害のため、第１次避難施設で対応できないときに開設
岐阜県,大垣市,小野小学校,岐阜県大垣市小野1-171,35.3711,136.6469,1,0,0,1,0,0,,避難所とは、被災者の住宅が回復されるまで、あるいは応急仮設住宅へ入居できるまでの一時的な生活の本拠地。,
岐阜県,大垣市,川並小学校,岐阜県大垣市馬の瀬町1500,35.3371,136.6386,1,0,0,1,0,0,,避難所とは、被災者の住宅が回復されるまで、あるいは応急仮設住宅へ入居できるまでの一時的な生活の本拠地。,
岐阜県,大垣市,ひまわり学園,岐阜県大垣市禾森町5-1463-1,35.3494,136.6183,1,0,0,1,0,0,,避難所とは、被災者の住宅が回復されるまで、あるいは応急仮設住宅へ入居できるまでの一時的な生活の本拠地。,
岐阜県,大垣市,赤坂総合センター,岐阜県大垣市昼飯町108,35.3863,136.5734,1,0,0,1,0,0,,避難所とは、被災者の住宅が回復されるまで、あるいは応急仮設住宅へ入居できるまでの一時的な生活の本拠地。,
岐阜県,大垣市,宇留生小学校,岐阜県大垣市熊野町1171,35.3746,136.5837,1,0,0,1,0,0,,避難所とは、被災者の住宅が回復されるまで、あるいは応急仮設住宅へ入居できるまでの一時的な生活の本拠地。,
岐阜県,大垣市,青墓幼保園,岐阜県大垣市青墓町2-228,35.3843,136.5615,1,0,0,1,0,0,,避難所とは、被災者の住宅が回復されるまで、あるいは応急仮設住宅へ入居できるまでの一時的な生活の本拠地。,
岐阜県,美濃加茂市,生涯学習センター,岐阜県美濃加茂市太田町3425-1,35.4400815,137.0162769,1,0,0,-,-,-,150人,,初期対応避難施設：災害が発生するおそれのある場合又は災害発生時等において応急的に開設する施設
岐阜県,美濃加茂市,蜂屋交流センター（連絡所）,岐阜県美濃加茂市蜂屋町上蜂屋3637,35.4715359,137.0087501,1,0,0,-,-,-,100人,,第１次避難施設：市民の避難が必要であると認められる場合及び自主避難が予想されるときに開設する施設
岐阜県,大垣市,まこと幼稚園,岐阜県大垣市三塚町350,35.3655,136.6319,1,0,0,1,0,0,,避難所とは、被災者の住宅が回復されるまで、あるいは応急仮設住宅へ入居できるまでの一時的な生活の本拠地。,
岐阜県,大垣市,岐阜経済大学,岐阜県大垣市北方町5-50,35.3941,136.6191,1,0,0,1,0,0,,避難所とは、被災者の住宅が回復されるまで、あるいは応急仮設住宅へ入居できるまでの一時的な生活の本拠地。,
岐阜県,大垣市,青墓小学校・青墓公民館,岐阜県大垣市青墓町1-787,35.3848,136.5625,1,0,0,1,0,0,,避難所とは、被災者の住宅が回復されるまで、あるいは応急仮設住宅へ入居できるまでの一時的な生活の本拠地。,
岐阜県,大垣市,きど保育園,岐阜県大垣市木戸町440,35.3666,136.6016,1,0,0,1,0,0,,避難所とは、被災者の住宅が回復されるまで、あるいは応急仮設住宅へ入居できるまでの一時的な生活の本拠地。,
岐阜県,大垣市,イビデン健康保険会館,岐阜県大垣市日の出町1-1,35.3596,136.605,1,0,0,1,0,0,,避難所とは、被災者の住宅が回復されるまで、あるいは応急仮設住宅へ入居できるまでの一時的な生活の本拠地。,
岐阜県,大垣市,赤坂幼保園(旧赤坂幼稚園),岐阜県大垣市赤坂新町1-49,35.3925,136.5888,1,0,0,1,0,0,,避難所とは、被災者の住宅が回復されるまで、あるいは応急仮設住宅へ入居できるまでの一時的な生活の本拠地。,
岐阜県,加茂郡八百津町,逆巻公民分館,岐阜県加茂郡八百津町,35.474080417912,137.12358148565,-,-,-,-,-,-,,,一時避難場所
岐阜県,美濃加茂市,伊深交流センター（連絡所）,岐阜県美濃加茂市伊深町909,35.5011300,137.0050070,1,0,0,-,-,-,30人,,第１次避難施設：市民の避難が必要であると認められる場合及び自主避難が予想されるときに開設する施設
岐阜県,大垣市,西小学校,岐阜県大垣市久瀬川町6-110,35.3581,136.6008,1,0,0,1,0,0,,避難所とは、被災者の住宅が回復されるまで、あるいは応急仮設住宅へ入居できるまでの一時的な生活の本拠地。,
岐阜県,大垣市,農村環境改善センター,岐阜県大垣市上石津町上原1195,35.2824,136.472,1,0,0,1,0,0,,避難所とは、被災者の住宅が回復されるまで、あるいは応急仮設住宅へ入居できるまでの一時的な生活の本拠地。,
岐阜県,大垣市,川並幼稚園,岐阜県大垣市馬の瀬町1524,35.3365,136.6381,1,0,0,1,0,0,,避難所とは、被災者の住宅が回復されるまで、あるいは応急仮設住宅へ入居できるまでの一時的な生活の本拠地。,
岐阜県,大垣市,赤坂小学校,岐阜県大垣市赤坂新町1-49,35.3925,136.5888,1,0,0,1,0,0,,避難所とは、被災者の住宅が回復されるまで、あるいは応急仮設住宅へ入居できるまでの一時的な生活の本拠地。,
岐阜県,大垣市,えぼしふれあい会館,岐阜県大垣市上石津町下山2860,35.2486,136.4624,1,0,0,1,0,0,,避難所とは、被災者の住宅が回復されるまで、あるいは応急仮設住宅へ入居できるまでの一時的な生活の本拠地。,
岐阜県,大垣市,大垣勤労者総合福祉センター,岐阜県大垣市長松町847-95,35.3674,136.5657,1,0,0,1,0,0,,避難所とは、被災者の住宅が回復されるまで、あるいは応急仮設住宅へ入居できるまでの一時的な生活の本拠地。,
岐阜県,郡上市,二日町地区第1コミュニティ消防センター,岐阜県郡上市白鳥町二日町838-1,35.905390585055,136.84497461774,1,0,0,-,-,-,,,拠点避難所
岐阜県,美濃加茂市,カナリヤの家,岐阜県美濃加茂市本郷町2-8-25,35.4501960,137.0379282,1,0,0,-,-,-,20人,,第２次避難施設：大規模な災害のため、第１次避難施設で対応できないときに開設
岐阜県,美濃加茂市,西中学校,岐阜県美濃加茂市西町1-30,35.4471672,137.0051116,1,0,0,-,-,-,590人,,第２次避難施設：大規模な災害のため、第１次避難施設で対応できないときに開設
岐阜県,大垣市,大垣北高校,岐阜県大垣市中川町4-110-1,35.3839,136.6205,1,0,0,1,0,0,,避難所とは、被災者の住宅が回復されるまで、あるいは応急仮設住宅へ入居できるまでの一時的な生活の本拠地。,
岐阜県,大垣市,大垣公園,岐阜県大垣市郭町2-53,35.3609,136.615,1,0,1,1,0,0,,広域避難場所とは、大規模な災害が発生した場合に大人数を収容できる避難場所。避難所とは、被災者の住宅が回復されるまで、あるいは応急仮設住宅へ入居できるまでの一時的な生活の本拠地。,
岐阜県,大垣市,西地区センター,岐阜県大垣市南若森町438,35.3527,136.6027,1,0,0,1,0,0,,避難所とは、被災者の住宅が回復されるまで、あるいは応急仮設住宅へ入居できるまでの一時的な生活の本拠地。,
岐阜県,大垣市,西公園,岐阜県大垣市日の出町2-69-1,35.3578,136.6053,1,0,1,1,0,0,,広域避難場所とは、大規模な災害が発生した場合に大人数を収容できる避難場所。避難所とは、被災者の住宅が回復されるまで、あるいは応急仮設住宅へ入居できるまでの一時的な生活の本拠地。,
岐阜県,大垣市,牧田小学校,岐阜県大垣市上石津町牧田2672,35.3393,136.4959,1,0,0,1,0,0,,避難所とは、被災者の住宅が回復されるまで、あるいは応急仮設住宅へ入居できるまでの一時的な生活の本拠地。,
岐阜県,関市,富岡保育園,岐阜県関市市平賀501-1,35.484936744348,136.94580886723,-,-,-,-,-,-,231人,,福祉避難所
岐阜県,関市,関市勤労会館,岐阜県関市平和通6丁目11-1,35.482858353795,136.91230698336,-,-,-,-,-,-,229人,,予備避難所
岐阜県,美濃加茂市,上古井交流センター（連絡所）,岐阜県美濃加茂市本郷町8-8-48,35.4514392,137.0461522,1,0,0,-,-,-,170人,,第１次避難施設：市民の避難が必要であると認められる場合及び自主避難が予想されるときに開設する施設
岐阜県,大垣市,西山コミュニティセンター,岐阜県大垣市上石津町西山402-1,35.2638,136.4407,1,0,0,1,0,0,,避難所とは、被災者の住宅が回復されるまで、あるいは応急仮設住宅へ入居できるまでの一時的な生活の本拠地。,
岐阜県,美濃加茂市,蜂屋保育園,岐阜県美濃加茂市蜂屋町中蜂屋4474,35.4703689,137.0099871,1,0,0,-,-,-,40人,,第２次避難施設：大規模な災害のため、第１次避難施設で対応できないときに開設
岐阜県,大垣市,南地区センター,岐阜県大垣市南頬町1-74-1,35.3565,136.6229,1,0,0,1,0,0,,避難所とは、被災者の住宅が回復されるまで、あるいは応急仮設住宅へ入居できるまでの一時的な生活の本拠地。,
岐阜県,大垣市,みのり保育園,岐阜県大垣市室本町4-14,35.3665,136.6071,1,0,0,1,0,0,,避難所とは、被災者の住宅が回復されるまで、あるいは応急仮設住宅へ入居できるまでの一時的な生活の本拠地。,
岐阜県,大垣市,老人福祉センター,岐阜県大垣市寺内町4-94-1,35.3542,136.6131,1,0,0,1,0,0,,避難所とは、被災者の住宅が回復されるまで、あるいは応急仮設住宅へ入居できるまでの一時的な生活の本拠地。,
岐阜県,加茂郡東白川村,五加運動場,岐阜県加茂郡東白川村,35.622907513212,137.28996442411,-,-,-,-,-,-,,,広域避難所
岐阜県,美濃市,防災・中央コミュニティセンター,岐阜県美濃市,35.545088818506,136.90745788862,-,-,-,-,-,-,,,避難場所
岐阜県,美濃加茂市,加茂野小学校,岐阜県美濃加茂市加茂野町今泉1541,35.4621310,136.9738070,1,0,0,-,-,-,310人,,第２次避難施設：大規模な災害のため、第１次避難施設で対応できないときに開設
岐阜県,大垣市,一之瀬小学校,岐阜県大垣市上石津町一之瀬1590,35.3162,136.482,1,0,0,1,0,0,,避難所とは、被災者の住宅が回復されるまで、あるいは応急仮設住宅へ入居できるまでの一時的な生活の本拠地。,
岐阜県,美濃加茂市,下米田交流センター（連絡所）,岐阜県美濃加茂市下米田町則光182,35.4631237,137.0618737,1,0,0,-,-,-,90人,,第１次避難施設：市民の避難が必要であると認められる場合及び自主避難が予想されるときに開設する施設
岐阜県,大垣市,市民会館,岐阜県大垣市新田町1-2,35.3447,136.626,1,0,0,1,0,0,,避難所とは、被災者の住宅が回復されるまで、あるいは応急仮設住宅へ入居できるまでの一時的な生活の本拠地。,
岐阜県,大垣市,大垣幼稚園,岐阜県大垣市伝馬町11,35.3639,136.6218,1,0,0,1,0,0,,避難所とは、被災者の住宅が回復されるまで、あるいは応急仮設住宅へ入居できるまでの一時的な生活の本拠地。,
岐阜県,大垣市,墨俣さくら会館,岐阜県大垣市墨俣町上宿510-1,35.3587,136.6813,1,0,0,1,0,0,,避難所とは、被災者の住宅が回復されるまで、あるいは応急仮設住宅へ入居できるまでの一時的な生活の本拠地。,
岐阜県,高山市,栃尾小学校,岐阜県高山市奥飛騨温泉郷栃尾350-1,36.249172743761,137.51441877913,1,0,0,-,-,-,,,一時避難所
岐阜県,本巣市,根尾小学校,岐阜県本巣市根尾市場461,35.636054682186,136.60969709317,1,0,0,-,-,-,300人,,避難所
岐阜県,下呂市,上原公民館,岐阜県下呂市,35.707717398199,137.28779643941,1,0,0,1,0,0,,,避難所
岐阜県,美濃加茂市,あじさい看護福祉専門学校,岐阜県美濃加茂市川合町4-6-8,35.4506842,137.0506739,1,0,0,-,-,-,822人,,福祉避難施設：一般的な避難施設では生活に支障をきたす人のための施設
岐阜県,美濃加茂市,蜂屋小学校,岐阜県美濃加茂市蜂屋町上蜂屋11,35.4724126,137.0068168,1,0,0,-,-,-,310人,,第２次避難施設：大規模な災害のため、第１次避難施設で対応できないときに開設
岐阜県,大垣市,武道館,岐阜県大垣市米野町2-1-1,35.3347,136.6247,1,0,0,1,0,0,,避難所とは、被災者の住宅が回復されるまで、あるいは応急仮設住宅へ入居できるまでの一時的な生活の本拠地。,
岐阜県,美濃加茂市,可茂特別支援学校,岐阜県美濃加茂市牧野2007-1,35.4479792,137.0618344,1,0,0,-,-,-,573人,,福祉避難施設：一般的な避難施設では生活に支障をきたす人のための施設
岐阜県,大垣市,北小学校,岐阜県大垣市八島町2302,35.3745,136.6138,1,0,0,1,0,0,,避難所とは、被災者の住宅が回復されるまで、あるいは応急仮設住宅へ入居できるまでの一時的な生活の本拠地。,
岐阜県,関市,津保公民センター,岐阜県関市西欠ノ下73-2,35.477714578057,136.92019534642,1,0,0,-,-,-,64人,,臨時避難所
岐阜県,下呂市,住弥氏宅前広場,岐阜県下呂市大垣内1338,35.956771678188,137.25918502921,-,-,-,1,0,0,413人,,避難場所・避難所
岐阜県,羽島郡岐南町,岐南さくら南保育園,岐阜県羽島郡岐南町徳田6丁目15番地,35.380089272766,136.77330910272,1,0,0,-,-,-,,,避難施設
岐阜県,美濃加茂市,山之上小学校,岐阜県美濃加茂市山之上町3495-2,35.4799677,137.0411881,1,0,0,-,-,-,320人,,第２次避難施設：大規模な災害のため、第１次避難施設で対応できないときに開設
岐阜県,多治見市,東栄公園,岐阜県多治見市東栄町1-1-2,35.353922548532,137.13783952015,-,-,-,-,-,-,,,一時避難場所
岐阜県,美濃加茂市,あじさいエコパーク,岐阜県美濃加茂市加茂野町鷹之巣2158-2,35.4723527,136.9682380,1,0,0,-,-,-,300人,,第１次避難施設：市民の避難が必要であると認められる場合及び自主避難が予想されるときに開設する施設
岐阜県,美濃加茂市,伊深保育園,岐阜県美濃加茂市伊深町1563-3,35.5012664,137.0038488,1,0,0,-,-,-,50人,,第２次避難施設：大規模な災害のため、第１次避難施設で対応できないときに開設
岐阜県,大垣市,北幼保園,岐阜県大垣市室村町1-42-8,35.3744,136.6105,1,0,0,1,0,0,,避難所とは、被災者の住宅が回復されるまで、あるいは応急仮設住宅へ入居できるまでの一時的な生活の本拠地。,
岐阜県,加茂郡東白川村,東白川中学校,岐阜県加茂郡東白川村,35.644567739649,137.32768635766,1,0,0,-,-,-,300人,,避難所・広域避難所
岐阜県,下呂市,馬瀬憩いの広場,岐阜県下呂市惣島1700,35.839657345788,137.18665150058,-,-,-,1,0,0,500人,,避難場所・避難所
岐阜県,多治見市,旭ヶ丘公民館,岐阜県多治見市旭ヶ丘8-29-99,35.36556180189,137.10481180667,-,-,-,-,-,-,250人,,一時避難場所
岐阜県,美濃加茂市,東図書館,岐阜県美濃加茂市本郷町9-2-22,35.4511704,137.0400969,1,0,0,-,-,-,70人,,第２次避難施設：大規模な災害のため、第１次避難施設で対応できないときに開設
岐阜県,飛騨市,地場産品研究加工施設,岐阜県飛騨市,36.26771614206,137.10102046444,1,0,0,-,-,-,,,避難所
岐阜県,美濃加茂市,太田小学校,岐阜県美濃加茂市太田本町5-4-39,35.4377145,137.0089644,1,0,0,-,-,-,330人,,第２次避難施設：大規模な災害のため、第１次避難施設で対応できないときに開設
岐阜県,美濃加茂市,文化の森,岐阜県美濃加茂市蜂屋町上蜂屋3299-1,35.4569692,137.0216555,1,0,0,-,-,-,200人,,第２次避難施設：大規模な災害のため、第１次避難施設で対応できないときに開設
岐阜県,大垣市,プラント６駐車場,岐阜県大垣市墨俣町墨俣,35.3688,136.6784,1,0,1,1,0,0,,広域避難場所とは、大規模な災害が発生した場合に大人数を収容できる避難場所。避難所とは、被災者の住宅が回復されるまで、あるいは応急仮設住宅へ入居できるまでの一時的な生活の本拠地。,
岐阜県,関市,中池体育館,岐阜県関市塔ノ洞3885-1,35.505772565836,136.93650173473,-,-,-,-,-,-,377人,,予備避難所
岐阜県,郡上市,美山コミュニティ消防センター,岐阜県郡上市美山2377-1,35.737792148453,137.00804438697,1,0,0,-,-,-,20人,,一時避難所
岐阜県,郡上市,原集会所,岐阜県郡上市初音4358-3,35.792859414103,136.96606754167,1,0,0,-,-,-,20人,,一時避難所
岐阜県,美濃加茂市,下古井交流センター,岐阜県美濃加茂市島町1-3-7,35.4421859,137.0284850,1,0,0,-,-,-,120人,,第２次避難施設：大規模な災害のため、第１次避難施設で対応できないときに開設
岐阜県,本巣市,口谷集会所,岐阜県本巣市根尾口谷81-3,35.635374429248,136.64036517238,1,0,0,-,-,-,50人,,避難場所
岐阜県,美濃加茂市,山之上交流センター（連絡所）,岐阜県美濃加茂市山之上町3457-1,35.4781776,137.0417714,1,0,0,-,-,-,90人,,第１次避難施設：市民の避難が必要であると認められる場合及び自主避難が予想されるときに開設する施設
岐阜県,美濃加茂市,西体育館,岐阜県美濃加茂市西町3-232,35.444115,137.001159,1,0,0,-,-,-,540人,,第２次避難施設：大規模な災害のため、第１次避難施設で対応できないときに開設
岐阜県,大垣市,中川ふれあいセンター,岐阜県大垣市中川町4-668-1,35.3825,136.6194,1,0,0,1,0,0,,避難所とは、被災者の住宅が回復されるまで、あるいは応急仮設住宅へ入居できるまでの一時的な生活の本拠地。,
岐阜県,関市,板取保健センター,岐阜県関市板取6503,35.688509278324,136.81167561275,-,-,-,-,-,-,144人,,予備避難所
岐阜県,揖斐郡池田町,中央公民館,岐阜県揖斐郡池田町六之井,35.442023455891,136.57372106649,1,0,0,-,-,-,,,指定避難所
岐阜県,飛騨市,戸市公民館,岐阜県飛騨市,36.276705883358,137.15671669066,1,0,0,-,-,-,,,第一時避難所
岐阜県,美濃加茂市,文化会館,岐阜県美濃加茂市島町2-5-27,35.4380564,137.0266406,1,0,0,-,-,-,110人,,第２次避難施設：大規模な災害のため、第１次避難施設で対応できないときに開設
岐阜県,大野郡白川村,白川村コミュニティー消防センター,岐阜県大野郡白川村大字荻町1171番地の1,36.263040791521,136.90606212473,1,0,0,-,-,-,20人,,避難所
岐阜県,美濃加茂市,古井小学校,岐阜県美濃加茂市本郷町1-9-8,35.4473786,137.0390861,1,0,0,-,-,-,440人,,第２次避難施設：大規模な災害のため、第１次避難施設で対応できないときに開設
岐阜県,美濃加茂市,三和小学校,岐阜県美濃加茂市三和町川浦2560,35.5129882,137.0425370,1,0,0,-,-,-,40人,,第１次避難施設：市民の避難が必要であると認められる場合及び自主避難が予想されるときに開設する施設
岐阜県,大垣市,大垣商業高校,岐阜県大垣市開発町4-300,35.3777,136.6398,1,0,0,1,0,0,,避難所とは、被災者の住宅が回復されるまで、あるいは応急仮設住宅へ入居できるまでの一時的な生活の本拠地。,
岐阜県,可児市,広見公民館ゆとりピア,岐阜県可児市広見7-77,35.422634755231,137.06798224433,-,-,-,-,-,-,650人,,１次避難所
岐阜県,揖斐郡揖斐川町,木曽屋地区活性化支援センター,岐阜県揖斐郡揖斐川町谷汲木曽屋685-1,35.538384825197,136.5631461914,1,0,0,-,-,-,,,避難場所
岐阜県,関市,富野小学校,岐阜県関市西神野270-1,35.518639390958,136.97059788128,1,0,0,-,-,-,1060人,,指定避難所
岐阜県,美濃加茂市,加茂高等学校,岐阜県美濃加茂市本郷町2-6-78,35.4484971,137.0356782,1,0,0,-,-,-,520人,,第２次避難施設：大規模な災害のため、第１次避難施設で対応できないときに開設
岐阜県,安八郡安八町,歴史資料館,岐阜県安八郡安八町西結2521,35.335672661177,136.66410673043,-,-,-,-,-,-,,,第１次避難場所
岐阜県,美濃加茂市,加茂農林高等学校,岐阜県美濃加茂市本郷町3-3-13,35.4493417,137.0310172,1,0,0,-,-,-,700人,,第２次避難施設：大規模な災害のため、第１次避難施設で対応できないときに開設
岐阜県,美濃加茂市,古井第一保育園,岐阜県美濃加茂市本郷町2-8-1,35.4499613,137.0376124,1,0,0,-,-,-,120人,,第２次避難施設：大規模な災害のため、第１次避難施設で対応できないときに開設
岐阜県,大垣市,農村環境改善サブセンター,岐阜県大垣市上石津町下山2864-2,35.2488,136.4627,1,0,0,1,0,0,,避難所とは、被災者の住宅が回復されるまで、あるいは応急仮設住宅へ入居できるまでの一時的な生活の本拠地。,
岐阜県,高山市,道の駅飛騨街道なぎさ,岐阜県高山市久々野町渚2685,36.006871092121,137.29166001548,1,0,0,1,0,0,,,避難所
岐阜県,郡上市,喫茶枠人前広場,岐阜県郡上市大島1554-1,35.860741973512,136.86424397223,-,-,-,-,-,-,124人,,一時避難所
岐阜県,本巣市,南町公民館,岐阜県本巣市上真桑,35.438291162377,136.67776313761,1,0,0,-,-,-,40人,,避難場所
岐阜県,関市,下有知中学校,岐阜県関市下有知3121-1,35.516081678396,136.90884807854,1,0,0,-,-,-,1648人,,指定避難所
岐阜県,本巣市,門脇集会所,岐阜県本巣市根尾門脇166,35.656180249915,136.58692426786,1,0,0,-,-,-,50人,,避難場所
岐阜県,美濃加茂市,下米田小学校,岐阜県美濃加茂市下米田町西脇578,35.4644303,137.0612478,1,0,0,-,-,-,360人,,第２次避難施設：大規模な災害のため、第１次避難施設で対応できないときに開設
岐阜県,美濃加茂市,太田第二保育園,岐阜県美濃加茂市西町3-249-1,35.4430989,137.0009773,1,0,0,-,-,-,90人,,第２次避難施設：大規模な災害のため、第１次避難施設で対応できないときに開設
岐阜県,大垣市,南保育園,岐阜県大垣市南頬町4-1,35.3557,136.6187,1,0,0,1,0,0,,避難所とは、被災者の住宅が回復されるまで、あるいは応急仮設住宅へ入居できるまでの一時的な生活の本拠地。,
岐阜県,郡上市,郡上東中学校屋内運動場,岐阜県郡上市和良町法師丸196-1,35.743874550865,137.08550694535,-,-,-,-,-,-,,,一時避難所
岐阜県,郡上市,郡上八幡川佐農林集会所,岐阜県郡上市旭363-4,35.770676130901,136.9927219924,1,0,0,-,-,-,20人,,一時避難所
岐阜県,関市,十六所公園・グラウンド,岐阜県関市十六所地内,35.479284741054,136.90987030744,-,-,-,-,-,-,,,広域避難場所
岐阜県,本巣市,中集会所,岐阜県本巣市根尾中92,35.647320072241,136.60131164871,1,0,0,-,-,-,50人,,避難場所
岐阜県,可児市,春里公民館,岐阜県可児市矢戸407,35.403410030093,137.02265607502,-,-,-,-,-,-,150人,,１次避難所
岐阜県,美濃加茂市,東中学校,岐阜県美濃加茂市本郷町8-8-52,35.4520311,137.0467436,1,0,0,-,-,-,720人,,第２次避難施設：大規模な災害のため、第１次避難施設で対応できないときに開設
岐阜県,美濃加茂市,山之上保育園,岐阜県美濃加茂市山之上町2812-1,35.4790359,137.0444906,1,0,0,-,-,-,60人,,第２次避難施設：大規模な災害のため、第１次避難施設で対応できないときに開設
岐阜県,美濃加茂市,伊深小学校,岐阜県美濃加茂市伊深町888-2,35.5018424,137.0045518,1,0,0,-,-,-,220人,,第２次避難施設：大規模な災害のため、第１次避難施設で対応できないときに開設
岐阜県,郡上市,北濃地区介護予防拠点施設,岐阜県郡上市二日町1591-1,35.902672043258,136.8473144502,1,0,0,1,0,0,40人,,一時避難所
岐阜県,羽島郡笠松町,児童館,岐阜県羽島郡笠松町田代290,35.363343815459,136.75712554206,-,-,-,-,-,-,82人,,第２次避難所
岐阜県,養老郡養老町,ふれあいセンター養老,岐阜県養老郡養老町石畑1560-5,35.295752890018,136.54823186411,1,0,0,-,-,-,,,避難場所
岐阜県,瑞浪市,高松公園,岐阜県瑞浪市西小田町3丁目258,35.359471558881,137.23187086239,-,-,-,-,-,-,900人,,避難地
岐阜県,下呂市,シーテック株式会社資材置場,岐阜県下呂市坂下292,35.943117278434,137.25429165788,-,-,-,1,0,0,412人,,避難場所・避難所
岐阜県,美濃加茂市,古井第二保育園,岐阜県美濃加茂市古井町下古井207,35.4404100,137.0209874,1,0,0,-,-,-,40人,,第２次避難施設：大規模な災害のため、第１次避難施設で対応できないときに開設
岐阜県,大野郡白川村,道の駅「白川郷」,岐阜県大野郡白川村大字飯島411,36.279026248481,136.90159260507,-,-,-,-,-,-,,,広域避難場所
岐阜県,美濃加茂市,加茂野保育園,岐阜県美濃加茂市加茂野町鷹之巣1453,35.4629561,136.9728907,1,0,0,-,-,-,70人,,第２次避難施設：大規模な災害のため、第１次避難施設で対応できないときに開設
岐阜県,下呂市,上原診療所,岐阜県下呂市田口515,35.731216080728,137.28825073888,1,0,0,1,0,0,40人,,避難場所・避難所
岐阜県,瑞浪市,日吉小学校,岐阜県瑞浪市日吉町2370-1,35.415452802128,137.2367078138,1,0,0,-,-,-,4700人,,避難地・２次避難所
岐阜県,可児市,可児高等学校,岐阜県可児市坂戸987-2,35.414178910832,137.04021529761,1,0,0,-,-,-,450人,,指定避難所
岐阜県,本巣市,本巣小学校,岐阜県本巣市文殊179,35.488489722907,136.67441007285,1,0,0,-,-,-,1850人,,避難場所・避難所
岐阜県,不破郡垂井町,岩手幼稚園,岐阜県不破郡垂井町岩手619-2,35.385667722194,136.49936874763,1,0,0,1,0,0,,,避難所
岐阜県,美濃加茂市,三和交流センター（連絡所）,岐阜県美濃加茂市三和町川浦2565,35.5125518,137.0413116,1,0,0,-,-,-,70人,,第２次避難施設：大規模な災害のため、第１次避難施設で対応できないときに開設
岐阜県,美濃市,梅山集会所,岐阜県美濃市梅山町29-8,35.551654506395,136.91553767245,-,-,-,-,-,-,,,避難場所
岐阜県,美濃加茂市,プラザちゅうたい,岐阜県美濃加茂市太田町1916-1,35.4424024,137.0132341,1,0,0,-,-,-,520人,,第２次避難施設：大規模な災害のため、第１次避難施設で対応できないときに開設
岐阜県,郡上市,桂昌寺,岐阜県郡上市大原579-1,35.640683995717,136.95939317953,1,0,0,-,-,-,32人,,一時避難所
岐阜県,美濃市,立花ふれあいセンター,岐阜県美濃市立花410-1,35.578404976893,136.93558871602,-,-,-,-,-,-,,,避難場所
岐阜県,関市,養護訓練センター,岐阜県関市本郷町88,35.486846619666,136.92566557424,-,-,-,-,-,-,246人,,福祉避難所
岐阜県,安八郡安八町,道浄公園,岐阜県安八郡安八町西結1332-1,35.355801254027,136.66517817888,-,-,-,-,-,-,,,第１次避難場所
岐阜県,高山市,猪ノ鼻公民館,岐阜県高山市高根町猪ノ鼻96,36.030641195361,137.43066292751,1,0,0,-,-,-,,,一時避難所
岐阜県,安八郡輪之内町,ごまんど（神社）,岐阜県安八郡輪之内町,35.266331870425,136.62782743509,-,-,-,1,0,0,,,第１次避難場所
岐阜県,飛騨市,釜崎集会場,岐阜県飛騨市,36.321617489479,137.30462432835,1,0,0,-,-,-,,,避難所
岐阜県,美濃加茂市,加茂野交流センター（連絡所）,岐阜県美濃加茂市加茂野町今泉1546-4,35.4617131,136.9751714,1,0,0,-,-,-,80人,,第１次避難施設：市民の避難が必要であると認められる場合及び自主避難が予想されるときに開設する施設
岐阜県,関市,大平台公民センター,岐阜県関市大平台3-5,35.496532663092,136.85804166536,1,0,0,-,-,-,66人,,臨時避難所
岐阜県,揖斐郡揖斐川町,樫原集会場,岐阜県揖斐郡揖斐川町樫原485-1,35.570994772405,136.48565528857,1,0,0,-,-,-,20人,,避難場所
岐阜県,本巣市,高尾集会所,岐阜県本巣市根尾高尾790,35.598092028401,136.62658647796,1,0,0,-,-,-,50人,,避難場所
岐阜県,高山市,阿多野郷公民館,岐阜県高山市高根町阿多野郷320,36.036040301786,137.52242117059,1,0,0,-,-,-,,,一時避難所
岐阜県,海津市,南濃総合福祉会館ゆとりの森,岐阜県海津市南濃町駒野827-1,35.221746979199,136.60617088095,1,0,0,1,0,0,1392人,,避難所・福祉避難所
岐阜県,加茂郡八百津町,第三公民分館,岐阜県加茂郡八百津町,35.529302874936,137.2400427112,-,-,-,-,-,-,,,一時避難場所
岐阜県,多治見市,美坂保育園,岐阜県多治見市美坂町8-8,35.331414429438,137.14700283212,-,-,-,-,-,-,120人,,一時避難場所
岐阜県,美濃加茂市,山手小学校,岐阜県美濃加茂市田島町2-6-6,35.4502253,137.0222931,1,0,0,-,-,-,370人,,第２次避難施設：大規模な災害のため、第１次避難施設で対応できないときに開設
岐阜県,郡上市,鈴原集会所,岐阜県郡上市相生,35.72579409691,136.94685139532,1,0,0,-,-,-,17人,,一時避難所
岐阜県,安八郡輪之内町,楡俣新田公民館,岐阜県安八郡輪之内町,35.298511918861,136.65135898745,-,-,-,1,0,0,,,第１次避難場所
岐阜県,本巣市,席田小学校,岐阜県本巣市郡府37,35.457702606754,136.68363513919,1,0,0,-,-,-,300人,,避難所
岐阜県,山県市,乾運動場,岐阜県山県市,35.597691642016,136.78398778625,-,-,-,0,1,0,,,指定緊急避難場所
岐阜県,本巣郡北方町,宮東公園,岐阜県本巣郡北方町,35.444264988882,136.69492340657,-,-,-,-,-,-,,,避難場所
岐阜県,本巣郡北方町,岐阜農林高校,岐阜県本巣郡北方町150番地,35.437305993543,136.6980196433,1,0,0,-,-,-,,,避難場所
岐阜県,飛騨市,上野公民館,岐阜県飛騨市,36.243775015872,137.16787674972,1,0,0,-,-,-,,,第一時避難所
岐阜県,加茂郡七宗町,木の国七宗コミュニティーセンター,岐阜県加茂郡七宗町上麻生2125-1,35.542281803137,137.12180747083,1,0,0,-,-,-,500人,,避難場所・避難所
岐阜県,関市,いこいの家,岐阜県関市一ツ山町54,35.478872752915,136.91599016061,1,0,0,-,-,-,,,指定避難所
岐阜県,揖斐郡揖斐川町,日坂公民館,岐阜県揖斐郡揖斐川町,35.552578565875,136.45406385366,1,0,0,-,-,-,50人,,避難場所
岐阜県,山県市,柿野交流センター,岐阜県山県市柿野1371,35.622258047668,136.79495423078,1,0,0,-,-,-,,,指定避難所
岐阜県,郡上市,美並梅原集会所,岐阜県郡上市梅原294,35.693164885681,136.96426924029,1,0,0,-,-,-,20人,,拠点避難所
岐阜県,安八郡安八町,トミダ屋北駐車,岐阜県安八郡安八町東結199-1,35.362654698425,136.66904926886,-,-,-,-,-,-,,,第１次避難場所
岐阜県,本巣市,小柿共栄公民館,岐阜県本巣市小柿,35.422348325135,136.67656090951,1,0,0,-,-,-,40人,,避難場所
岐阜県,飛騨市,飛騨市神岡振興事務所,岐阜県飛騨市神岡町東町378,36.332097346211,137.30208684787,1,0,0,-,-,-,,,避難所
岐阜県,羽島市,蓮瑞寺,岐阜県羽島市,35.307842090284,136.71131549847,1,0,0,-,-,-,30人,,一時避難地・避難場所
岐阜県,美濃市,前野コミュニティセンター,岐阜県美濃市,35.553751508092,136.90593996546,-,-,-,-,-,-,,,避難場所
岐阜県,高山市,久々野公民館,岐阜県高山市久-野町久-野1505-4,36.053262363971,137.27671462042,1,0,0,-,-,-,,,一時避難所
岐阜県,高山市,飛騨高山ビッグアリーナ,岐阜県高山市中山町600,36.150200304931,137.2331714913,1,0,0,1,0,0,,,避難所
岐阜県,飛騨市,古川町図書館,岐阜県飛騨市古川町片原町8-1,36.234482976139,137.19170781036,1,0,0,-,-,-,,,避難所
岐阜県,高山市,松本公民館,岐阜県高山市松本町4143,36.162082444956,137.25414141758,1,0,0,-,-,-,,,一時避難所
岐阜県,関市,板取門出体育館,岐阜県関市板取1129,35.693094997112,136.81001736926,-,-,-,-,-,-,193人,,予備避難所
岐阜県,多治見市,双葉保育園,岐阜県多治見市元町4-10-2,35.326227976406,137.13113804908,-,-,-,-,-,-,120人,,一時避難場所
岐阜県,多治見市,幸町広場,岐阜県多治見市幸町4-44-2,35.353329273491,137.09526591051,-,-,-,-,-,-,,,一時避難場所
岐阜県,加茂郡白川町,白川北保育園,岐阜県加茂郡白川町坂ノ東4875-2,35.611926938729,137.16936061625,1,0,0,-,-,-,,,避難場所・避難所
岐阜県,本巣郡北方町,北方南保育園,岐阜県本巣郡北方町高屋勅使1丁目52番地,35.423268866274,136.68831617545,1,0,0,-,-,-,,,避難場所
岐阜県,飛騨市,老人保健施設たかはら,岐阜県飛騨市神岡町殿1081-19,36.324295627022,137.30774452984,1,0,0,-,-,-,,,避難所
岐阜県,瑞浪市,福寿荘,岐阜県瑞浪市日吉町4116-1,35.40570138681,137.24411860738,1,0,0,-,-,-,40人,,１次避難所
岐阜県,郡上市,明宝公民館,岐阜県郡上市畑佐192,35.861754671258,137.06243030412,1,0,0,-,-,-,1284人,,一時避難所
岐阜県,関市,水ノ輪公園,岐阜県関市水ノ輪町51,35.501303567074,136.9089325701,-,-,-,-,-,-,,,一時避難場所
岐阜県,多治見市,共栄保育園,岐阜県多治見市高田町3-64,35.358184452385,137.13459722479,-,-,-,-,-,-,200人,,一時避難場所
岐阜県,羽島郡笠松町,米野会館,岐阜県羽島郡笠松町米野480,35.380320885564,136.81194903967,-,-,-,-,-,-,68人,,第２次避難所
岐阜県,関市,堅仙房公民センター,岐阜県関市北仙房26-1,35.494949350962,136.90581294771,1,0,0,-,-,-,64人,,臨時避難所
岐阜県,海津市,養南グラウンド,岐阜県海津市南濃町津屋1935-1,35.25766756353,136.56160079868,1,0,0,1,0,0,,,避難所
岐阜県,郡上市,高鷲正ケ洞集会所,岐阜県郡上市大鷲83-1,35.945066700378,136.87205519131,1,0,0,1,0,0,59人,,一時避難所
岐阜県,羽島郡岐南町,総合体育館,岐阜県羽島郡岐南町平成7丁目47番地,35.382397577527,136.77998314532,1,0,0,-,-,-,,,避難施設
岐阜県,高山市,丹生川小学校,岐阜県高山市丹生川町町方65-1,36.172185946833,137.30986814006,1,0,0,1,0,0,,,避難所
岐阜県,下呂市,旧川上分校,岐阜県下呂市川上274,35.953738276423,137.13576107416,1,0,0,1,0,0,50人,,避難場所・避難所
岐阜県,羽島郡笠松町,町民体育館,岐阜県羽島郡笠松町常盤町6,35.373992203207,136.76097484818,-,-,-,-,-,-,582人,,第２次避難所
岐阜県,郡上市,和良運動公園広場,岐阜県郡上市宮地1155,35.742326300405,137.06800913215,-,-,-,-,-,-,750人,,広域避難場所
岐阜県,加茂郡八百津町,B＆G体育館,岐阜県加茂郡八百津町八百津3389番地1,35.476449006578,137.14474582406,1,0,0,-,-,-,551人,,避難所
岐阜県,郡上市,河辺集会所,岐阜県郡上市河辺530-1,35.793627650817,136.91002245314,1,0,0,1,0,0,29人,,一時避難所
岐阜県,加茂郡八百津町,錦織公民分館,岐阜県加茂郡八百津町,35.471724408591,137.15589536172,-,-,-,-,-,-,,,一時避難場所
岐阜県,郡上市,福田研修所,岐阜県郡上市大和町島1047,35.785749937419,136.9070739948,1,0,0,-,-,-,,,拠点避難所
岐阜県,多治見市,北丘中央公園,岐阜県多治見市北丘町5-6-93外,35.362791799581,137.07835309947,-,-,-,-,-,-,,,一時避難場所
岐阜県,揖斐郡揖斐川町,外津汲集会場,岐阜県揖斐郡揖斐川町外津汲1695,35.534165584317,136.51190001488,1,0,0,-,-,-,30人,,避難場所
岐阜県,高山市,引下公民館,岐阜県高山市久々野町引下518-1,36.034980888478,137.28979978132,1,0,0,-,-,-,,,一時避難所
岐阜県,下呂市,一の鳥居公園前,岐阜県下呂市落合1798,35.920463470752,137.32251635404,-,-,-,1,0,0,60人,,避難場所・避難所
岐阜県,羽島郡笠松町,コミュニティ消防センター,岐阜県羽島郡笠松町中新町29,35.371233538007,136.76135693102,-,-,-,-,-,-,68人,,第２次避難所
岐阜県,山県市,美山小学校,岐阜県山県市岩佐763,35.547888511721,136.79802948551,1,0,0,-,-,-,,,指定避難所
岐阜県,羽島市,羽島市老人福祉センター,岐阜県羽島市竹鼻町丸の内6-160,35.328702434908,136.69831394411,1,0,0,-,-,-,116人,,一時避難地・避難場所
岐阜県,各務原市,蘇原地区体育館,岐阜県各務原市蘇原古市場町5-2,35.422738542135,136.86638339594,-,-,-,-,-,-,,,２次避難所
岐阜県,下呂市,下呂交流会館,岐阜県下呂市森2270-3,35.806956339964,137.25206557603,1,0,0,-,-,-,,,避難所
岐阜県,下呂市,湯屋小学校,岐阜県下呂市湯屋46,35.923351675652,137.30927568657,1,0,0,1,0,0,3828人,,避難場所・避難所
岐阜県,加茂郡坂祝町,加茂山第2集会所,岐阜県加茂郡坂祝町加茂山2-10-1,35.440196152673,136.98484769473,-,-,-,-,-,-,,,指定緊急避難場所
岐阜県,羽島郡岐南町,平島公民館,岐阜県羽島郡岐南町平島4丁目84番地,35.38534326499,136.81085003357,1,0,0,-,-,-,,,避難施設
岐阜県,可児市,平牧公民館,岐阜県可児市二野2547-4,35.409667440513,137.0822426651,-,-,-,-,-,-,250人,,１次避難所
岐阜県,瑞浪市,瑞浪高等学校,岐阜県瑞浪市土岐町7928-2,35.359675304378,137.26429738917,1,0,0,-,-,-,790人,,２次避難所
岐阜県,本巣郡北方町,中央公園,岐阜県本巣郡北方町,35.429800170154,136.68954491297,-,-,-,-,-,-,,,避難場所
岐阜県,飛騨市,小無雁地域集会場,岐阜県飛騨市,36.301014006751,137.11320359051,1,0,0,-,-,-,,,避難所
岐阜県,羽島郡岐南町,白山神社,岐阜県羽島郡岐南町伏屋4丁目199番地,35.38272107201,136.79230012312,1,0,0,-,-,-,,,避難施設
岐阜県,羽島郡岐南町,法善寺,岐阜県羽島郡岐南町上印食4丁目121番地,35.395301724714,136.78697349137,1,0,0,-,-,-,,,避難施設
岐阜県,高山市,宇津江2区集会所,岐阜県高山市国府町宇津江2243-92,36.216396590993,137.19798247022,1,0,0,-,-,-,,,一時避難所
岐阜県,本巣市,能郷集会所,岐阜県本巣市根尾能郷266-1,35.684182262296,136.56532045474,1,0,0,-,-,-,50人,,避難場所
岐阜県,不破郡垂井町,文化会館,岐阜県不破郡垂井町宮代2957-2,35.367125620612,136.53742845367,1,0,0,1,0,0,,,避難所
岐阜県,高山市,三日町集会所,岐阜県高山市国府町三日町221,36.216234167472,137.22055512397,1,0,0,-,-,-,,,一時避難所
岐阜県,高山市,一宝水婦人ホーム,岐阜県高山市奥飛騨温泉郷一重ヶ根200-103,36.224304543967,137.5376082636,1,0,0,-,-,-,,,一時避難所
岐阜県,養老郡養老町,広幡公民館（自治会館）,岐阜県養老郡養老町口ヶ島19-1,35.297853336535,136.56921817964,1,0,0,-,-,-,,,避難場所
岐阜県,安八郡輪之内町,八幡神社,岐阜県安八郡輪之内町,35.302134841543,136.63534328637,-,-,-,1,0,0,,,第１次避難場所
岐阜県,多治見市,共栄公民館広場,岐阜県多治見市高田町6-40,35.360145304468,137.13364397857,-,-,-,-,-,-,,,一時避難場所
岐阜県,加茂郡東白川村,東白川小学校,岐阜県加茂郡東白川村,35.65692433399,137.33918887642,1,0,0,-,-,-,300人,,避難所・広域避難所
岐阜県,山県市,美山中央公民館,岐阜県山県市岩佐1177番地1,35.546180165502,136.79121900731,1,0,0,-,-,-,,,指定避難所
岐阜県,関市,天神公民センター,岐阜県関市北天神3丁目2-1,35.478975985125,136.93781836489,1,0,0,-,-,-,63人,,臨時避難所
岐阜県,揖斐郡揖斐川町,久瀬中学校,岐阜県揖斐郡揖斐川町西津汲481-3,35.554199701979,136.50652891865,1,0,0,-,-,-,120人,,避難場所
岐阜県,郡上市,フィールドミュージアム第2駐車場,岐阜県郡上市大和町牧785,35.811016229731,136.92249437186,-,-,-,-,-,-,,,一時避難所
岐阜県,大野郡白川村,道の駅「飛騨白山」,岐阜県大野郡白川村大字平瀬516-12,36.173879327237,136.90164814814,-,-,-,-,-,-,,,広域避難場所
岐阜県,加茂郡八百津町,人道の丘公園,岐阜県加茂郡八百津町八百津1088番地2,35.472508183197,137.16847931246,-,-,-,-,-,-,17511人,,一時避難場所
岐阜県,羽島市,小熊小学校,岐阜県羽島市小熊町2-361-5,35.349592035083,136.6979722418,1,0,0,-,-,-,4055人,,一時避難地・避難場所
岐阜県,下呂市,永養寺,岐阜県下呂市尾崎936,35.924964712297,137.19869944361,1,0,0,1,0,0,165人,,避難場所・避難所
岐阜県,高山市,大新町4丁目公民館,岐阜県高山市大新町4丁目150,36.151217255456,137.25749121716,1,0,0,-,-,-,,,一時避難所
岐阜県,安八郡安八町,南今ヶ渕神社,岐阜県安八郡安八町南今ヶ渕10,35.338089562176,136.66449749066,-,-,-,-,-,-,,,第１次避難場所
岐阜県,山県市,小規模多機能ホームしゃくなげ,岐阜県山県市東深瀬505,35.519958137082,136.79095084793,1,0,0,-,-,-,,,避難所・福祉避難所
岐阜県,本巣市,中野会館,岐阜県本巣市七五三1574,35.445222735394,136.65651909992,1,0,0,-,-,-,50人,,避難場所
岐阜県,郡上市,郡上八幡中央コミュニティ消防センター,岐阜県郡上市島谷1010-2,35.747063691739,136.95703711901,1,0,0,-,-,-,54人,,拠点避難所
岐阜県,本巣郡北方町,北方中保育園,岐阜県本巣郡北方町北方1857番地の3,35.433059113641,136.68413300896,1,0,0,-,-,-,,,避難場所
岐阜県,美濃市,富野公民館,岐阜県美濃市富野,35.539639585929,136.93733214538,1,0,0,-,-,-,,,避難所
岐阜県,関市,上之保つどいの家,岐阜県関市上之保9825-1,35.636689760433,137.03448414655,-,-,-,-,-,-,46人,,福祉避難所
岐阜県,加茂郡白川町,蘇原保育園,岐阜県加茂郡白川町切井1168-3,35.546469144316,137.30829323479,1,0,0,-,-,-,,,避難場所・避難所
岐阜県,養老郡養老町,東部町民体育館,岐阜県養老郡養老町下笠2751,35.273094220346,136.59167166179,1,0,0,-,-,-,,,避難場所
岐阜県,不破郡垂井町,府中小学校,岐阜県不破郡垂井町府中464,35.387367691284,136.52543740003,1,0,0,1,0,0,,,避難所
岐阜県,本巣郡北方町,平成公園,岐阜県本巣郡北方町,35.430936907019,136.68314878927,-,-,-,-,-,-,,,避難場所
岐阜県,加茂郡白川町,佐見保育園,岐阜県加茂郡白川町上佐見3451-1,35.676361068904,137.27540974654,1,0,0,-,-,-,,,避難場所・避難所
岐阜県,飛騨市,憶念寺,岐阜県飛騨市,36.244828202513,137.19125609465,1,0,0,-,-,-,,,第一時避難所
岐阜県,郡上市,長滝コミュニティセンター,岐阜県郡上市長滝77,35.921173386047,136.83099277294,1,0,0,1,0,0,42人,,拠点避難所
岐阜県,高山市,阿多粕公民館,岐阜県高山市久々野町阿多粕116-1,35.98960629309,137.28521325265,1,0,0,-,-,-,,,一時避難所
岐阜県,高山市,ウッドフォーラム飛騨,岐阜県高山市清見町三日町165,36.122463652175,137.18186644665,1,0,0,1,0,0,,,避難所
岐阜県,郡上市,林広院,岐阜県郡上市白山808-1,35.661825106064,136.95657036614,1,0,0,-,-,-,88人,,一時避難所
岐阜県,本巣市,神海保育園,岐阜県本巣市神海459-1,35.537725726029,136.64921563922,1,0,0,-,-,-,100人,,避難所
岐阜県,飛騨市,河合町保健福祉センター,岐阜県飛騨市河合町角川318,36.303792187263,137.10139931918,1,0,0,-,-,-,,,避難所
岐阜県,羽島市,少林寺,岐阜県羽島市,35.323083301791,136.70924434201,1,0,0,-,-,-,38人,,一時避難地・避難場所
岐阜県,下呂市,四美子供広場,岐阜県下呂市四美1067,35.929809596083,137.21084878918,-,-,-,1,0,0,750人,,避難場所・避難所
岐阜県,美濃市,浅野公民館,岐阜県美濃市蕨生,35.582871037497,136.89548577154,1,0,0,-,-,-,,,避難所
岐阜県,瑞浪市,四反田公園,岐阜県瑞浪市薬師町4丁目14,35.363752679311,137.22990247395,-,-,-,-,-,-,700人,,避難地
岐阜県,可児市,広陵中学校,岐阜県可児市東帷子593,35.408472803788,137.01144290206,1,0,0,-,-,-,650人,,指定避難所
岐阜県,美濃市,下牧定住促進センター,岐阜県美濃市片知593,35.580504011634,136.90532998475,-,-,-,-,-,-,,,避難場所
岐阜県,飛騨市,坂巻公民館,岐阜県飛騨市,36.319839402021,137.31289068323,1,0,0,-,-,-,,,避難所
岐阜県,郡上市,美並北部コミュニティセンター,岐阜県郡上市三戸1059-1,35.684890472647,136.96670511109,1,0,0,-,-,-,1050人,,拠点避難所・広域避難場所
岐阜県,下呂市,鹿山バス回転場,岐阜県下呂市大洞245,35.889247246337,137.31410329165,-,-,-,1,0,0,152人,,避難場所・避難所
岐阜県,郡上市,吉田小学校体育館,岐阜県郡上市上田69,35.639877827686,136.94522573255,1,0,0,-,-,-,3936人,,拠点避難所・広域避難場所
岐阜県,養老郡養老町,上多度幼稚園,岐阜県養老郡養老町小倉419-1,35.274193091419,136.56339741889,1,0,0,-,-,-,,,避難場所
岐阜県,郡上市,上野ふれあいと憩の広場公園,岐阜県郡上市大島1806,35.866925154764,136.86332907132,-,-,-,-,-,-,1013人,,広域避難場所
岐阜県,揖斐郡揖斐川町,揖斐公民館,岐阜県揖斐郡揖斐川町三輪442番地1,35.486209978808,136.57260163831,1,0,0,-,-,-,200人,,避難場所
岐阜県,下呂市,下呂市民会館,岐阜県下呂市森801-10,35.802992638544,137.24504141269,1,0,0,1,0,0,700人,,避難場所・避難所
岐阜県,瑞浪市,土岐児童センター,岐阜県瑞浪市土岐町5765-1,35.380896762724,137.27227506011,1,0,0,-,-,-,40人,,１次避難所
岐阜県,郡上市,久造集会所,岐阜県郡上市那比215-1,35.720735991822,136.92466293967,1,0,0,-,-,-,15人,,一時避難所
岐阜県,郡上市,高鷲切立多目的運動広場,岐阜県郡上市鮎立4318,35.932291754132,136.87385682234,-,-,-,-,-,-,1374人,,広域避難場所
岐阜県,加茂郡白川町,佐見小学校（体育館）,岐阜県加茂郡白川町上佐見487,35.676255487082,137.27410988727,1,0,0,-,-,-,,,避難場所・避難所
岐阜県,可児市,名城大学都市情報学部,岐阜県可児市虹ヶ丘4-3-3,35.412155864246,137.01315649566,1,0,0,-,-,-,500人,,指定避難所
岐阜県,飛騨市,農業者トレーニングセンター,岐阜県飛騨市古川町沼町233-1,36.243598264641,137.17540097979,1,0,0,-,-,-,,,避難所
岐阜県,可児市,西可児中学校,岐阜県可児市若葉台7-1,35.407034495365,137.01959779378,1,0,0,-,-,-,650人,,指定避難所
岐阜県,多治見市,栄区公民館,岐阜県多治見市笠原町1360-2,35.299857580182,137.16583416379,-,-,-,-,-,-,30人,,一時避難場所
岐阜県,郡上市,磨墨の里公園物産館,岐阜県郡上市大谷1015,35.845445984482,137.02890341662,1,0,0,-,-,-,1302人,,一時避難所
岐阜県,山県市,山県市共和町防災センター,岐阜県山県市佐賀50番地,35.493188879652,136.78344910126,1,0,0,-,-,-,,,指定避難所
岐阜県,揖斐郡大野町,南小学校,岐阜県揖斐郡大野町加納468,35.441034467399,136.6221533814,1,0,0,-,-,-,400人,,指定避難場所
岐阜県,多治見市,精華小学校,岐阜県多治見市十九田町2-119,35.340028027458,137.12113941566,1,0,0,-,-,-,1000人,,一時避難場所・避難所
岐阜県,安八郡安八町,結小学校グランド西,岐阜県安八郡安八町東結1065,35.361883542653,136.66330669635,1,0,0,-,-,-,,,第２次避難場所
岐阜県,下呂市,竹原保育園,岐阜県下呂市乗政1005-1,35.783085093552,137.28545717275,1,0,0,-,-,-,,,避難所
岐阜県,高山市,東小学校,岐阜県高山市松之木町2962-1,36.148948484978,137.27196212562,1,0,0,1,0,0,,,避難所
岐阜県,美濃市,神明神社,岐阜県美濃市,35.538104396621,136.89495992245,-,-,-,-,-,-,,,避難場所
岐阜県,本巣市,小柿北組公民館,岐阜県本巣市小柿,35.426564964736,136.67583978347,1,0,0,-,-,-,60人,,避難場所
岐阜県,郡上市,美並基幹集落センター,岐阜県郡上市高砂397-1,35.662353002464,136.95020758214,1,0,0,-,-,-,515人,,一時避難所・拠点避難所
岐阜県,安八郡神戸町,ふれあいセンター,岐阜県安八郡神戸町八条261-1,35.406113541874,136.60289776626,1,0,0,-,-,-,,,指定避難所
岐阜県,飛騨市,西ふれ愛センター,岐阜県飛騨市,36.303935877382,137.24737251642,1,0,0,-,-,-,,,避難所
岐阜県,加茂郡八百津町,第五公民分館,岐阜県加茂郡八百津町,35.536404473075,137.21472825595,-,-,-,-,-,-,,,一時避難場所
岐阜県,安八郡安八町,善光公民館,岐阜県安八郡安八町善光115-1,35.324780174469,136.66484767065,-,-,-,-,-,-,,,第１次避難場所
岐阜県,羽島市,光泉寺,岐阜県羽島市,35.318816543563,136.72659653461,1,0,0,-,-,-,42人,,一時避難地・避難場所
岐阜県,下呂市,西村児童館,岐阜県下呂市西村848-1,35.82436360589,137.1904972552,1,0,0,1,0,0,70人,,避難場所・避難所
岐阜県,山県市,伊自良保育園,岐阜県山県市大門912-12,35.533468905796,136.72646235297,1,0,0,-,-,-,,,指定避難所
岐阜県,関市,関口公園,岐阜県関市関口町1丁目52,35.480207654389,136.92920266326,-,-,-,-,-,-,,,一時避難場所
岐阜県,瑞浪市,瑞浪小学校,岐阜県瑞浪市北小田町1丁目66,35.362786671491,137.24433462912,1,0,0,-,-,-,9230人,,避難地・２次避難所
岐阜県,揖斐郡池田町,ゆうごう・ほっと館,岐阜県揖斐郡池田町本郷,35.443178537136,136.56718876047,1,0,0,-,-,-,,,指定避難所
岐阜県,瑞浪市,竜吟幼児園,岐阜県瑞浪市釜戸町2821-2,35.408097210764,137.3025094086,1,0,0,-,-,-,40人,,１次避難所
岐阜県,羽島市,はしまコミュニティセンター,岐阜県羽島市,35.287528068444,136.70352925996,1,0,0,-,-,-,106人,,一時避難地・避難場所
岐阜県,高山市,西蓮寺,岐阜県高山市下之切町645,36.145263530478,137.21440890853,1,0,0,-,-,-,,,一時避難所
岐阜県,本巣郡北方町,石仏公園,岐阜県本巣郡北方町,35.417055305769,136.68510366124,-,-,-,-,-,-,,,避難場所
岐阜県,飛騨市,上気多公民館,岐阜県飛騨市,36.239358354124,137.19587464091,1,0,0,-,-,-,,,第一時避難所
岐阜県,本巣郡北方町,北方町総合体育館,岐阜県本巣郡北方町高屋石末1-9,35.424718709617,136.69310432667,1,0,0,-,-,-,,,避難所
岐阜県,関市,川北公園,岐阜県関市清水町45,35.478276628872,136.91662731505,-,-,-,-,-,-,,,一時避難場所
岐阜県,郡上市,明宝アリーナ,岐阜県郡上市二間手276,35.854409991903,137.03748586981,1,0,0,1,0,0,378人,,拠点避難所
岐阜県,加茂郡白川町,さかなワクワク公園,岐阜県加茂郡白川町和泉97-1,35.598152485162,137.22351576512,1,0,0,-,-,-,,,避難場所・避難所
岐阜県,飛騨市,河合町公民館,岐阜県飛騨市河合町角川247-1,36.304250596013,137.10375736875,1,0,0,-,-,-,,,避難所
岐阜県,羽島市,南春寺,岐阜県羽島市,35.253241043415,136.66951898971,1,0,0,-,-,-,64人,,一時避難地・避難場所
岐阜県,下呂市,菅田小学校,岐阜県下呂市菅田桐洞117,35.642904739421,137.1199676668,1,0,0,1,0,0,3120人,,避難場所・避難所
岐阜県,美濃市,防災中央コミュニティセンター,岐阜県美濃市上条1350,35.545097118442,136.90749568596,1,0,0,-,-,-,,,避難所
岐阜県,美濃市,神洞公民館,岐阜県美濃市神洞,35.574283191545,136.88812754703,1,0,0,-,-,-,,,避難所
岐阜県,本巣市,曲り田公民館,岐阜県本巣市下真桑,35.436164308467,136.65902441291,1,0,0,-,-,-,30人,,避難場所
岐阜県,高山市,小谷公民館,岐阜県高山市朝日町小谷208,36.090873946779,137.32145607349,1,0,0,-,-,-,,,一時避難所
岐阜県,加茂郡川辺町,岐阜県川辺漕艇センター,岐阜県加茂郡川辺町中川辺1678,35.483950757221,137.06712205861,1,0,0,-,-,-,,,指定避難所
岐阜県,加茂郡八百津町,中盛西公民分館,岐阜県加茂郡八百津町,35.518155883859,137.18874966122,-,-,-,-,-,-,,,一時避難場所
岐阜県,高山市,花里町1・2丁目町内会館,岐阜県高山市花里町2丁目119-5,36.134188806076,137.2523393001,1,0,0,-,-,-,,,一時避難所
岐阜県,加茂郡白川町,福祉センターさわやか白楽園,岐阜県加茂郡白川町三川2065-2,35.571927419522,137.21204854274,1,0,0,-,-,-,,,避難場所・避難所
岐阜県,飛騨市,菅沼集落センター,岐阜県飛騨市,36.35258204906,137.20551565912,1,0,0,-,-,-,,,第一時避難所
岐阜県,多治見市,市之倉公民館,岐阜県多治見市市之倉町8-138,35.302055094483,137.12461963611,-,-,-,-,-,-,130人,,一時避難場所
岐阜県,本巣郡北方町,総合体育館,岐阜県本巣郡北方町高屋石末1丁目9番地,35.424743706775,136.69315991882,-,-,-,-,-,-,,,避難場所
岐阜県,高山市,山王保育園,岐阜県高山市森下町1丁目401,36.131925294101,137.25676111784,1,0,0,1,0,0,,,避難所
岐阜県,多治見市,地球村,岐阜県多治見市三の倉町猪場37,35.313453989668,137.08682735561,1,0,0,-,-,-,440人,,一時避難場所・避難所
岐阜県,高山市,中切公民館,岐阜県高山市中切町410,36.170766229655,137.23731896561,1,0,0,-,-,-,,,一時避難所
岐阜県,多治見市,養正小学校,岐阜県多治見市平野町2-80,35.330824835696,137.13388489441,1,0,0,-,-,-,1000人,,一時避難場所・避難所
岐阜県,郡上市,八幡防災センター,岐阜県郡上市島谷228,35.748713871559,136.96395764375,1,0,0,-,-,-,153人,,拠点避難所
岐阜県,郡上市,中津屋伝統芸能継承センター,岐阜県郡上市中津屋846-1,35.851817427282,136.87738270619,1,0,0,-,-,-,235人,,拠点避難所・広域避難場所
岐阜県,羽島市,堀津コミュニティセンター,岐阜県羽島市堀津町593-1,35.302661080057,136.67542790866,1,0,0,-,-,-,49人,,一時避難地・避難場所
岐阜県,加茂郡白川町,蘇原ふれあいセンター,岐阜県加茂郡白川町赤河1060-1,35.547734863422,137.2652160384,1,0,0,-,-,-,,,避難場所・避難所
岐阜県,海津市,南濃コミュニティセンター,岐阜県海津市南濃町津屋2837-263,35.248332588613,136.56499521938,1,0,0,1,0,0,247人,,避難所
岐阜県,飛騨市,福祉会館,岐阜県飛騨市神岡町船津1791,36.333733025841,137.29513473174,1,0,0,-,-,-,,,避難所
岐阜県,加茂郡富加町,高畑公民館,岐阜県加茂郡富加町高畑737,35.477927038838,136.96023017029,1,0,0,-,-,-,60人,,避難所
岐阜県,山県市,梅原小学校,岐阜県山県市梅原1543,35.51592123997,136.7565733847,1,0,0,-,-,-,,,指定避難所
岐阜県,各務原市,岐阜各務野高等学校,岐阜県各務原市鵜沼各務原町8-7-2,35.397745694769,136.90813911815,-,-,-,-,-,-,,,２次避難所
岐阜県,飛騨市,寿楽寺,岐阜県飛騨市,36.25532126032,137.1729735054,1,0,0,-,-,-,,,第一時避難所
岐阜県,関市,洞戸老人福祉センター,岐阜県関市洞戸市場733,35.606110302995,136.81562783914,-,-,-,-,-,-,353人,,福祉避難所
岐阜県,郡上市,高鷲中洞集会所,岐阜県郡上市大鷲842-2,35.948645921782,136.87716864284,1,0,0,-,-,-,74人,,一時避難所
岐阜県,揖斐郡大野町,東保育園,岐阜県揖斐郡大野町相羽763-8,35.459814914429,136.63868392853,1,0,0,-,-,-,200人,,指定避難場所
岐阜県,不破郡垂井町,東小学校,岐阜県不破郡垂井町綾戸910-1,35.372755475623,136.54989631582,1,0,0,1,0,0,,,避難所
岐阜県,羽島市,老人福祉センター羽島温泉,岐阜県羽島市桑原町午南1038ー1,35.257364268531,136.68391405826,1,0,0,-,-,-,90人,,一時避難地・避難場所
岐阜県,飛騨市,元田体育館,岐阜県飛騨市河合町元田11番地4,36.274488741562,137.02687160604,1,0,0,-,-,-,,,避難所
岐阜県,加茂郡坂祝町,中組公民館,岐阜県加茂郡坂祝町酒倉632-3,35.432689257135,136.99691024653,-,-,-,1,0,0,,,指定緊急避難場所
岐阜県,各務原市,那加第三小学校,岐阜県各務原市那加東亜町1-1,35.403523507793,136.83492370204,1,0,0,-,-,-,,,一時避難所
岐阜県,下呂市,富士神社,岐阜県下呂市落合1151,35.925245513893,137.31705847516,1,0,0,1,0,0,337人,,避難場所・避難所
岐阜県,可児市,下恵土公民館,岐阜県可児市下恵土1673,35.421747788617,137.04797271751,-,-,-,-,-,-,250人,,１次避難所
岐阜県,高山市,一念寺,岐阜県高山市清見町三ツ谷563,36.089807628322,137.15705304975,1,0,0,-,-,-,,,一時避難所
岐阜県,飛騨市,金龍寺,岐阜県飛騨市,36.435021172908,137.27591488834,1,0,0,-,-,-,,,避難所
岐阜県,安八郡安八町,金森三蔵宅東広場,岐阜県安八郡安八町牧1877-6,35.323432985046,136.6432796702,-,-,-,-,-,-,,,第１次避難場所
岐阜県,郡上市,恩地農村センター,岐阜県郡上市恩地300-1,35.884761467122,136.88184088479,1,0,0,-,-,-,125人,,拠点避難所・広域避難場所
岐阜県,多治見市,笠原児童館,岐阜県多治見市笠原町2837-2,35.303095446892,137.15404110033,-,-,-,-,-,-,100人,,一時避難場所
岐阜県,瑞浪市,陶公民館,岐阜県瑞浪市陶町猿爪405-1,35.320161315441,137.3294922071,1,0,0,-,-,-,120人,,１次避難所
岐阜県,山県市,山県市谷合運動場,岐阜県山県市谷合1029番地,35.593245768294,136.73625585485,1,0,0,-,-,-,,,指定避難所
岐阜県,郡上市,洲河公民館,岐阜県郡上市洲河1464,35.710170973542,137.02071227852,1,0,0,-,-,-,20人,,一時避難所
岐阜県,養老郡養老町,心身障害者福祉センター,岐阜県養老郡養老町高田789-2,35.308548738294,136.56417961324,1,0,0,-,-,-,,,避難場所
岐阜県,加茂郡川辺町,川辺中央公民館,岐阜県加茂郡川辺町中川辺1518-4,35.486442135712,137.07121061643,1,0,0,-,-,-,100人,,指定避難所
岐阜県,山県市,山県高等学校,岐阜県山県市中洞44番地1,35.548442770917,136.81014091181,1,0,0,-,-,-,,,指定避難所
岐阜県,郡上市,有穂公民館,岐阜県郡上市有穂396,35.837704796269,137.02434819701,1,0,0,-,-,-,40人,,一時避難所
岐阜県,飛騨市,稲越体育館,岐阜県飛騨市河合町稲越491-2,36.256063283357,137.09789423655,1,0,0,-,-,-,,,避難所
岐阜県,揖斐郡揖斐川町,高齢者コミュニティセンター,岐阜県揖斐郡揖斐川町春日美束2675-2,35.484341225174,136.44670579286,1,0,0,-,-,-,200人,,避難場所
岐阜県,多治見市,滝呂保育園,岐阜県多治見市滝呂町8-1-2,35.318335115798,137.14700843325,-,-,-,-,-,-,100人,,一時避難場所
岐阜県,本巣市,真正中学校,岐阜県本巣市下真桑1010,35.433885939028,136.65490855697,1,0,0,-,-,-,4260人,,避難場所・避難所
岐阜県,関市,下白金公民センター,岐阜県関市下白金280,35.474123873556,136.85381110515,1,0,0,-,-,-,63人,,臨時避難所
岐阜県,高山市,高山幼稚園,岐阜県高山市片野町2丁目279,36.122204481544,137.26531602845,1,0,0,-,-,-,,,避難所
岐阜県,関市,関市中池体育館,岐阜県関市塔ノ洞3845-1,35.505192315368,136.93566792907,1,0,0,-,-,-,,,指定避難所
岐阜県,本巣市,緑町公民館,岐阜県本巣市上真桑,35.441381141094,136.67321722416,1,0,0,-,-,-,50人,,避難場所
岐阜県,郡上市,中坪4区集会所,岐阜県郡上市中坪99,35.758201316715,136.95394255563,1,0,0,-,-,-,30人,,一時避難所
岐阜県,美濃市,上生櫛公民館,岐阜県美濃市,35.530148520636,136.89601524331,-,-,-,-,-,-,,,避難場所
岐阜県,養老郡養老町,養老幼稚園,岐阜県養老郡養老町高田231-1,35.310678800081,136.55622209035,1,0,0,-,-,-,,,避難場所
岐阜県,本巣市,浅木公民館,岐阜県本巣市浅木,35.441139304479,136.64103531616,1,0,0,-,-,-,30人,,避難場所
岐阜県,下呂市,金山小学校,岐阜県下呂市金山2151,35.660694811316,137.15910422042,1,0,0,1,0,0,1030人,,避難場所・避難所
岐阜県,美濃市,極楽寺集会所,岐阜県美濃市極楽寺3,35.533206251351,136.88310523579,-,-,-,-,-,-,,,避難場所
岐阜県,加茂郡七宗町,神渕小学校,岐阜県加茂郡七宗町神渕9871,35.582563677614,137.08698458717,1,0,0,-,-,-,300人,,避難場所・避難所
岐阜県,本巣市,更屋敷公民館,岐阜県本巣市政田,35.441693872554,136.64804554904,1,0,0,-,-,-,50人,,避難場所
岐阜県,本巣市,南出公民館,岐阜県本巣市七五三1208-12,35.445700031571,136.64333972982,1,0,0,-,-,-,50人,,避難場所
岐阜県,飛騨市,洞泉寺,岐阜県飛騨市,36.328321462412,137.14224671341,1,0,0,-,-,-,,,第一時避難所
岐阜県,不破郡関ケ原町,今須生活改善センター,岐阜県不破郡関ケ原町今須3479-6,35.34851512262,136.43535445147,1,0,0,-,-,-,,,避難所
岐阜県,安八郡安八町,牧上集会所,岐阜県安八郡安八町牧3213-1,35.33565394762,136.65222384755,-,-,-,-,-,-,,,第１次避難場所
岐阜県,羽島市,寿光苑（特別養護老人ホーム）,岐阜県羽島市小熊町2-750,35.349270547312,136.71046790955,-,-,-,-,-,-,,,福祉避難所
岐阜県,海津市,平田総合福祉会館（やすらぎ会館）,岐阜県海津市平田町仏師川483,35.257051802136,136.63669762106,1,0,0,1,0,0,1268人,,避難所・福祉避難所
岐阜県,高山市,北小学校,岐阜県高山市桐生町2丁目21,36.152894739485,137.25285005655,1,0,0,1,0,0,,,避難所
岐阜県,羽島市,福寿小学校,岐阜県羽島市福寿町本郷1096,35.322980578915,136.686131774,1,0,0,-,-,-,3066人,,一時避難地・避難場所
岐阜県,下呂市,下呂中学校,岐阜県下呂市森455-1,35.799673714702,137.2517630485,1,0,0,1,0,0,3880人,,避難場所・避難所
岐阜県,本巣市,真桑小学校,岐阜県本巣市下真桑223-1,35.433269731882,136.66534080784,1,0,0,-,-,-,3020人,,避難場所・避難所
岐阜県,下呂市,旧三幸衣料協業組合,岐阜県下呂市大垣内1778-1,35.961051925602,137.25976306637,1,0,0,1,0,0,460人,,避難場所・避難所
岐阜県,瑞浪市,釜戸公民館,岐阜県瑞浪市釜戸町2673-1,35.411558078122,137.30825335759,1,0,0,-,-,-,80人,,１次避難所
岐阜県,海津市,生涯学習センタ?,岐阜県海津市平田町仏師川488,35.257201764085,136.63594771981,1,0,0,1,0,0,847人,,避難所
岐阜県,本巣市,天神公民館,岐阜県本巣市仏生寺320-1,35.448798459473,136.68672105037,1,0,0,-,-,-,50人,,避難場所
岐阜県,下呂市,楢尾会館,岐阜県下呂市古関225-1,35.87150491996,137.20817769963,1,0,0,1,0,0,100人,,避難場所・避難所
岐阜県,高山市,下之切町公民館,岐阜県高山市下之切町465,36.144367216672,137.21319596556,1,0,0,-,-,-,,,一時避難所
岐阜県,不破郡垂井町,南体育館,岐阜県不破郡垂井町表佐1498番地の1,35.359442017889,136.54779304678,1,0,0,1,0,0,,,避難所
岐阜県,瑞浪市,稲津中学校,岐阜県瑞浪市稲津町小里456,35.347367940343,137.28041962378,1,0,0,-,-,-,5010人,,避難地・２次避難所
岐阜県,郡上市,牛道小学校体育館,岐阜県郡上市中西499-1,35.891405279041,136.8914284857,1,0,0,-,-,-,1466人,,拠点避難所・広域避難場所
岐阜県,多治見市,総合福祉センター,岐阜県多治見市太平町2-39-1,35.333351335082,137.11128425668,1,0,0,-,-,-,400人,,一時避難場所・避難所
岐阜県,関市,巾公民センター,岐阜県関市巾2丁目209-3,35.483963201929,136.88710568603,1,0,0,-,-,-,64人,,臨時避難所
岐阜県,揖斐郡揖斐川町,清水公民館,岐阜県揖斐郡揖斐川町清水1528番地12,35.470768326073,136.59613810606,1,0,0,-,-,-,100人,,避難場所
岐阜県,高山市,飛騨国分寺,岐阜県高山市総和町1丁目83,36.143315399023,137.25362781382,1,0,0,-,-,-,,,一時避難所
岐阜県,郡上市,日本まん真ん中広場,岐阜県郡上市白山437,35.66644232743,136.96549145194,-,-,-,-,-,-,13450人,,広域避難場所
岐阜県,養老郡養老町,日吉小学校,岐阜県養老郡養老町中138,35.326052269023,136.55286102036,1,0,0,-,-,-,,,避難場所
岐阜県,多治見市,市之倉児童センター,岐阜県多治見市市之倉町7-124,35.300194133102,137.12268932868,-,-,-,-,-,-,80人,,一時避難場所
岐阜県,飛騨市,数河公民館,岐阜県飛騨市,36.302196264367,137.33834962019,1,0,0,-,-,-,,,避難所
岐阜県,本巣郡北方町,曲路公園,岐阜県本巣郡北方町,35.433179295344,136.69520576882,-,-,-,-,-,-,,,避難場所
岐阜県,郡上市,那留小学校体育館,岐阜県郡上市那留1450-1,35.871900090752,136.88392360911,1,0,0,-,-,-,1561人,,拠点避難所・広域避難場所
岐阜県,高山市,新宮小学校,岐阜県高山市新宮町2635-2,36.143028455411,137.2121600203,1,0,0,1,0,0,,,避難所
岐阜県,羽島市,円應寺,岐阜県羽島市,35.296656019806,136.71721522228,1,0,0,-,-,-,90人,,一時避難地・避難場所
岐阜県,加茂郡白川町,蘇原小学校（体育館）,岐阜県加茂郡白川町赤河1079-1,35.544274065042,137.26230269794,1,0,0,-,-,-,,,避難場所・避難所
岐阜県,加茂郡八百津町,八百津町中央公民館,岐阜県加茂郡八百津町八百津3827番地1,35.476476768676,137.14397370293,1,0,0,-,-,-,1950人,,一時避難場所・避難所
岐阜県,飛騨市,釜崎社会体育館,岐阜県飛騨市神岡町釜崎836-1,36.317324010683,137.30356443166,1,0,0,-,-,-,,,避難所
岐阜県,本巣市,下大須集会所,岐阜県本巣市根尾下大須1312-9,35.707748153555,136.67100521992,1,0,0,-,-,-,50人,,避難場所
岐阜県,本巣市,大構公民館,岐阜県本巣市長屋1400-77,35.469308856547,136.67385006521,1,0,0,-,-,-,50人,,避難場所
岐阜県,瑞浪市,明賀台ふれあい公園,岐阜県瑞浪市明賀台2丁目82,35.343520684493,137.24367415583,-,-,-,-,-,-,2400人,,避難地
岐阜県,加茂郡白川町,林業センター,岐阜県加茂郡白川町三川1385-1,35.568586295189,137.21867017044,1,0,0,-,-,-,,,避難場所・避難所
岐阜県,本巣市,向道公民館,岐阜県本巣市曽井中島415-4,35.495152652428,136.66561609371,1,0,0,-,-,-,,,避難場所
岐阜県,高山市,歓喜寺,岐阜県高山市三福寺町1422,36.152808960988,137.26658198853,1,0,0,-,-,-,,,一時避難所
岐阜県,下呂市,東公民館,岐阜県下呂市岩瀬781-4,35.718589728627,137.13599903718,1,0,0,1,0,0,200人,,避難場所・避難所
岐阜県,瑞浪市,土岐小学校,岐阜県瑞浪市土岐町6451-4,35.37534623872,137.26344529878,1,0,0,-,-,-,2290人,,避難地・２次避難所
岐阜県,下呂市,馬瀬中学校,岐阜県下呂市中切1852,35.894685326956,137.16253090067,1,0,0,1,0,0,500人,,避難場所・避難所
岐阜県,飛騨市,信行寺,岐阜県飛騨市,36.266592635863,137.13416734414,1,0,0,-,-,-,,,第一時避難所
岐阜県,不破郡垂井町,垂井西町コミュニティセンター,岐阜県不破郡垂井町1128-1,35.372367505979,136.52319389184,1,0,0,1,0,0,,,避難所
岐阜県,高山市,一之宮福祉センター,岐阜県高山市一之宮町1273,36.085483523053,137.23334779321,1,0,0,1,0,0,,,避難所
岐阜県,揖斐郡揖斐川町,揖斐特別支援学校体育館,岐阜県揖斐郡揖斐川町,35.51485190366,136.60680794286,1,0,0,-,-,-,350人,,避難場所
岐阜県,美濃市,板山集会場,岐阜県美濃市片知,35.608902409525,136.90221354561,1,0,0,-,-,-,,,避難所
岐阜県,羽島郡岐南町,東小学校,岐阜県羽島郡岐南町野中1丁目99番地,35.387319729282,136.79988036161,1,0,0,-,-,-,,,避難施設
岐阜県,郡上市,赤池集会所,岐阜県郡上市山田930,35.672188622988,136.95931142411,1,0,0,-,-,-,166人,,一時避難所・拠点避難所
岐阜県,羽島郡笠松町,松枝みなみ会館,岐阜県羽島郡笠松町北及33-2,35.351990541518,136.74285502965,1,0,0,-,-,-,312人,,第１次避難所
岐阜県,高山市,豊楽園,岐阜県高山市三福寺町1110-5,36.154883658068,137.26532928477,1,0,0,-,-,-,,,一時避難所
岐阜県,関市,板取川温泉バーデェハウス,岐阜県関市板取4172-1,35.734712465888,136.77384317974,1,0,0,-,-,-,70人,,臨時避難所
岐阜県,加茂郡八百津町,口杣沢公民分館,岐阜県加茂郡八百津町,35.476793448822,137.16808281875,-,-,-,-,-,-,,,一時避難場所
岐阜県,美濃市,半道集会所,岐阜県美濃市大矢田2885-1,35.563062838018,136.85488751979,1,0,0,-,-,-,,,避難所
岐阜県,瑞浪市,寿楽荘,岐阜県瑞浪市稲津町小里558,35.347715060906,137.27937246029,1,0,0,-,-,-,20人,,１次避難所
岐阜県,多治見市,明和東第1公園,岐阜県多治見市明和町4-5-559,35.360243914474,137.10295579039,-,-,-,-,-,-,,,一時避難場所
岐阜県,高山市,野麦学舎,岐阜県高山市高根町野麦372,36.049511246656,137.56229845003,1,0,0,-,-,-,,,一時避難所
岐阜県,本巣郡北方町,伊勢田公園,岐阜県本巣郡北方町,35.41331632223,136.69017645739,-,-,-,-,-,-,,,避難場所
岐阜県,関市,関商工高等学校,岐阜県関市桐ヶ丘1-1,35.460534495355,136.89790984886,-,-,-,-,-,-,3770人,,予備避難所
岐阜県,下呂市,金山中学校,岐阜県下呂市金山2619,35.654368220714,137.15625009634,1,0,0,1,0,0,11060人,,避難場所・避難所
岐阜県,山県市,谷合公民館,岐阜県山県市谷合1250番地1,35.592862606178,136.73925281031,1,0,0,-,-,-,,,指定避難所
岐阜県,下呂市,上原保育園,岐阜県下呂市門和佐3688,35.707709894725,137.28805421475,1,0,0,1,0,0,350人,,避難場所・避難所
岐阜県,羽島市,円覚寺,岐阜県羽島市,35.326353508659,136.70594217655,1,0,0,-,-,-,25人,,一時避難地・避難場所
岐阜県,関市,東本郷公民センター,岐阜県関市東本郷通2-1-11,35.488366590362,136.9336047558,1,0,0,-,-,-,64人,,臨時避難所
岐阜県,下呂市,慈雲寺,岐阜県下呂市山之口2540,35.982521813394,137.19324522602,1,0,0,1,0,0,471人,,避難場所・避難所
岐阜県,山県市,伊自良老人福祉センター,岐阜県山県市大門850-67,35.535563056705,136.72517071613,1,0,0,-,-,-,,,指定避難所
岐阜県,下呂市,道の駅美輝の里駐車場,岐阜県下呂市,35.820054057448,137.18752155926,-,-,-,1,0,0,,,避難所
岐阜県,羽島市,文化センター（中央公民館）,岐阜県羽島市,35.328759391555,136.697229075,1,0,0,-,-,-,891人,,一時避難地・避難場所
岐阜県,飛騨市,殿公民館,岐阜県飛騨市,36.327652004981,137.309135016,1,0,0,-,-,-,,,避難所
岐阜県,郡上市,美並半在転作技術研修センター,岐阜県郡上市上田1957-1,35.62152641801,136.94512226664,1,0,0,-,-,-,26人,,拠点避難所
岐阜県,郡上市,大中農村総合センター,岐阜県郡上市中津屋366-2,35.858186225847,136.86782232897,1,0,0,-,-,-,137人,,一時避難所
岐阜県,羽島郡笠松町,笠松保育園,岐阜県羽島郡笠松町西宮町44-2,35.36809280898,136.75910589181,-,-,-,-,-,-,59人,,第２次避難所
岐阜県,飛騨市,黒内屋内運動場,岐阜県飛騨市古川町黒内1419-1,36.242874839562,137.11599043059,1,0,0,-,-,-,,,避難所
岐阜県,山県市,山県市美山構造改善センター,岐阜県山県市笹賀11番地,35.586702775841,136.75961706042,1,0,0,-,-,-,,,指定避難所
岐阜県,高山市,松之木町公民館,岐阜県高山市松之木町137-5,36.150978922508,137.27975290461,1,0,0,-,-,-,,,一時避難所
岐阜県,本巣市,あさぎ苑公民館,岐阜県本巣市浅木,35.443869103577,136.63886728073,1,0,0,-,-,-,50人,,避難場所
岐阜県,不破郡関ケ原町,門間転作促進研修施設,岐阜県不破郡関ケ原町今須123-2,35.347034966847,136.42696465607,1,0,0,-,-,-,,,避難所
岐阜県,郡上市,白鳥駅前避難地,岐阜県郡上市白鳥194-2,35.884722618821,136.86048966244,-,-,-,-,-,-,803人,,広域避難場所
岐阜県,羽島市,因覚寺,岐阜県羽島市,35.311504206242,136.72486352843,1,0,0,-,-,-,26人,,一時避難地・避難場所
岐阜県,不破郡垂井町,表佐保育園,岐阜県不破郡垂井町表佐1506,35.359320931569,136.54776915197,1,0,0,1,0,0,,,避難所
岐阜県,郡上市,英霊寺,岐阜県郡上市中坪,35.75870497965,136.9546285634,1,0,0,-,-,-,500人,,一時避難所
岐阜県,不破郡関ケ原町,妙応寺広場,岐阜県不破郡関ケ原町今須中町,35.349861700144,136.43530744122,1,0,0,-,-,-,,,広域避難所
岐阜県,高山市,冬頭町公民館,岐阜県高山市冬頭町574,36.164340187153,137.24152607794,1,0,0,-,-,-,,,一時避難所
岐阜県,揖斐郡大野町,町民武道館,岐阜県揖斐郡大野町黒野925,35.468813674873,136.63004549297,1,0,0,-,-,-,300人,,指定避難場所
岐阜県,関市,関市役所,岐阜県関市若草通3丁目地内,35.49526817977,136.91784509565,-,-,-,-,-,-,,,広域避難場所
岐阜県,多治見市,笠原小学校,岐阜県多治見市笠原町3387-9,35.293728612338,137.16110362755,1,0,0,-,-,-,300人,,一時避難場所・避難所
岐阜県,高山市,細越集会所,岐阜県高山市丹生川町細越366-1,36.177319237293,137.29029850478,1,0,0,1,0,0,,,避難所
岐阜県,本巣市,上保中部公民館,岐阜県本巣市上保854,35.46562065779,136.67932447899,1,0,0,-,-,-,50人,,避難場所
岐阜県,高山市,荒城集会所,岐阜県高山市丹生川町三之瀬133,36.205280164853,137.31018572815,1,0,0,1,0,0,,,避難所
岐阜県,不破郡関ケ原町,北部集落センター,岐阜県不破郡関ケ原町玉249-1,35.375562278921,136.44220611967,1,0,0,-,-,-,,,避難所・広域避難所
岐阜県,飛騨市,高野公民館,岐阜県飛騨市,36.22702168097,137.17867189138,1,0,0,-,-,-,,,第一時避難所
岐阜県,山県市,葛原公民館,岐阜県山県市葛原4493-3,35.600283600803,136.70995011626,1,0,0,-,-,-,,,指定避難所
岐阜県,本巣市,板所集会所,岐阜県本巣市根尾板所356,35.628355444849,136.61682147812,1,0,0,-,-,-,50人,,避難場所
岐阜県,加茂郡川辺町,下麻生グラウンド,岐阜県加茂郡川辺町下麻生1915,35.523285343367,137.10124083894,-,-,-,-,-,-,,,避難場所
岐阜県,加茂郡東白川村,はなのき会館別館,岐阜県加茂郡東白川村神土606,35.646893217894,137.3214541487,1,0,0,-,-,-,120人,,避難所
岐阜県,飛騨市,五ヶ村農業環境改善センター,岐阜県飛騨市,36.256219073802,137.12813720638,1,0,0,-,-,-,,,第一時避難所
岐阜県,本巣市,西川原公民館,岐阜県本巣市曽井中島722-1,35.487892405211,136.66747741764,1,0,0,-,-,-,,,避難場所
岐阜県,郡上市,明宝コミュニティセンター,岐阜県郡上市二間手532,35.85027503046,137.03310412236,1,0,0,-,-,-,998人,,拠点避難所・広域避難場所
岐阜県,揖斐郡池田町,中央公民館,岐阜県揖斐郡池田町六之井1455-1,35.442005757483,136.57369467029,1,0,0,-,-,-,,,避難所
岐阜県,飛騨市,堀之内白山神社社務所,岐阜県飛騨市,36.318696394699,137.26572142127,1,0,0,-,-,-,,,避難所
岐阜県,本巣郡北方町,桂本公園,岐阜県本巣郡北方町,35.426539837893,136.69073156649,-,-,-,-,-,-,,,避難場所
岐阜県,不破郡関ケ原町,今須小中学校,岐阜県不破郡関ケ原町今須75-1,35.347923770181,136.43503778252,1,0,0,-,-,-,,,避難所・広域避難所
岐阜県,安八郡輪之内町,神明神社,岐阜県安八郡輪之内町,35.289221054599,136.65236022999,-,-,-,1,0,0,,,第１次避難場所
岐阜県,可児市,可児工業高等学校,岐阜県可児市中恵土2358-1,35.43201113293,137.06077697119,1,0,0,-,-,-,450人,,指定避難所
岐阜県,羽島市,双樹園（障がい者支援施設）,岐阜県羽島市桑原町小藪860,35.248564994745,136.67232376238,-,-,-,-,-,-,,,福祉避難所
岐阜県,郡上市,小川小学校体育館,岐阜県郡上市小川632,35.862572769445,137.12362823335,1,0,0,-,-,-,1533人,,拠点避難所・広域避難場所
岐阜県,各務原市,尾崎中央ふれあい会館,岐阜県各務原市尾崎西町1-7-6,35.42501513548,136.82695170044,-,-,-,-,-,-,,,災害時要援護者専用避難所
岐阜県,多治見市,昭和小学校,岐阜県多治見市平和町4-180,35.328285627129,137.12036424474,1,0,0,-,-,-,1700人,,一時避難場所・避難所
岐阜県,可児市,南帷子小学校,岐阜県可児市東帷子2231,35.389566758882,137.01219907384,1,0,0,-,-,-,400人,,指定避難所
岐阜県,飛騨市,笹ヶ洞公民館,岐阜県飛騨市,36.247403006386,137.12912389133,1,0,0,-,-,-,,,第一時避難所
岐阜県,山県市,伊自良南小学校,岐阜県山県市大森540,35.525814174574,136.72966227155,1,0,0,-,-,-,,,指定避難所
岐阜県,揖斐郡揖斐川町,久瀬小学校,岐阜県揖斐郡揖斐川町西津汲481-3,35.553533387475,136.50582403735,1,0,0,-,-,-,250人,,避難場所
岐阜県,高山市,新張集会所,岐阜県高山市丹生川町新張940,36.179120390186,137.28271926147,1,0,0,-,-,-,,,一時避難所
岐阜県,羽島市,市民会館,岐阜県羽島市福寿町浅平3丁目25,35.321408635747,136.69345076892,1,0,0,-,-,-,525人,,一時避難地・避難場所
岐阜県,多治見市,北陵中学校,岐阜県多治見市旭ヶ丘10-6,35.366128629721,137.11031127384,1,0,0,-,-,-,1000人,,一時避難場所・避難所
岐阜県,本巣市,本巣老人福祉センター,岐阜県本巣市曽井中島1170-6,35.483256872985,136.66799982872,1,0,0,-,-,-,150人,,避難所
岐阜県,加茂郡八百津町,下田公民分館,岐阜県加茂郡八百津町,35.517557029903,137.19879042149,-,-,-,-,-,-,,,一時避難場所
岐阜県,不破郡垂井町,北中学校,岐阜県不破郡垂井町新井152-1,35.38382920014,136.51691096609,1,0,0,1,0,0,,,避難所
岐阜県,羽島郡笠松町,北門間会館,岐阜県羽島郡笠松町門間522-1,35.358017502062,136.73527271684,-,-,-,-,-,-,46人,,第２次避難所
岐阜県,郡上市,穀見集会所,岐阜県郡上市稲成780,35.734880065132,136.95550907919,1,0,0,-,-,-,30人,,一時避難所
岐阜県,揖斐郡池田町,宮地小学校,岐阜県揖斐郡池田町宮地,35.455612564172,136.55061353251,1,0,0,-,-,-,,,指定避難所
岐阜県,山県市,山県高等学校運動場,岐阜県山県市,35.548284186507,136.81013652078,-,-,-,0,1,0,,,指定緊急避難場所
岐阜県,安八郡輪之内町,水谷宅前,岐阜県安八郡輪之内町,35.301067388588,136.61917658528,-,-,-,1,0,0,,,第１次避難場所
岐阜県,本巣郡北方町,生涯学習センター,岐阜県本巣郡北方町北方1857番地,35.43458659046,136.68416905998,-,-,-,-,-,-,,,避難場所
岐阜県,郡上市,北濃地区第2体育館,岐阜県郡上市歩岐島353-1,35.938965324911,136.83586800065,1,0,0,-,-,-,249人,,一時避難所・拠点避難所
岐阜県,多治見市,滝呂区民会館,岐阜県多治見市滝呂町10-48,35.314101712461,137.14395015327,-,-,-,-,-,-,150人,,一時避難場所
岐阜県,加茂郡坂祝町,坂祝中学校,岐阜県加茂郡坂祝町深萱146,35.432343740689,136.97766763176,1,0,0,-,-,-,,,避難所
岐阜県,高山市,法力活性化施設,岐阜県高山市丹生川町法力147,36.17333884834,137.3412193595,1,0,0,1,0,0,,,避難所
岐阜県,山県市,北山公民館,岐阜県山県市神崎114番地1,35.630818652749,136.7170820526,1,0,0,-,-,-,,,指定避難所
岐阜県,安八郡安八町,水防倉庫付近,岐阜県安八郡安八町西結264,35.374649008945,136.66167566835,-,-,-,-,-,-,,,第１次避難場所
岐阜県,下呂市,道の駅はなもも駐車場,岐阜県下呂市,35.931645030584,137.29452763896,-,-,-,1,0,0,,,避難所
岐阜県,安八郡輪之内町,集会場,岐阜県安八郡輪之内町,35.288843116465,136.63109580014,-,-,-,1,0,0,,,第１次避難場所
岐阜県,可児市,桜ケ丘小学校,岐阜県可児市桜ケ丘5-55-2,35.382032814512,137.1135657623,1,0,0,-,-,-,400人,,指定避難所
岐阜県,多治見市,明和東第2公園,岐阜県多治見市明和町4-5-382,35.362578901629,137.10284851368,-,-,-,-,-,-,,,一時避難場所
岐阜県,多治見市,旧滝呂小学校跡地,岐阜県多治見市,35.313648631015,137.13953281197,-,-,-,-,-,-,,,一時避難場所
岐阜県,羽島市,かみなり村西館（ケアホーム）,岐阜県羽島市正木町坂丸二-78,35.332805901647,136.7297761391,-,-,-,-,-,-,,,福祉避難所
岐阜県,関市,関市陸上競技場管理棟,岐阜県関市塔ノ洞3300-2,35.502220258834,136.9367224079,1,0,0,-,-,-,,,指定避難所
岐阜県,高山市,本通下公民館,岐阜県高山市一之宮町3393番地の2,36.083814415957,137.24467861945,1,0,0,-,-,-,,,一時避難所
岐阜県,羽島市,看護大学,岐阜県羽島市江吉良町3047-1,35.306079905537,136.68499914059,1,0,0,-,-,-,6355人,,一時避難地・避難場所
岐阜県,羽島郡笠松町,二見児童公園,岐阜県羽島郡笠松町二見町65,35.371552192527,136.76281222619,-,-,-,-,-,-,510人,,一時退避場所
岐阜県,美濃市,美濃市中央公民館,岐阜県美濃市上条95-2,35.542201707629,136.90806899956,1,0,0,-,-,-,,,避難所
岐阜県,羽島市,極了寺,岐阜県羽島市,35.3174397682,136.7263823915,1,0,0,-,-,-,29人,,一時避難地・避難場所
岐阜県,郡上市,明宝スポーツセンター,岐阜県郡上市気良52,35.854012656076,137.02921062829,1,0,0,-,-,-,426人,,一時避難所・拠点避難所
岐阜県,本巣郡北方町,夕べが池自然公園,岐阜県本巣郡北方町,35.425841417738,136.6985022928,-,-,-,-,-,-,,,避難場所
岐阜県,加茂郡富加町,東児童館,岐阜県加茂郡富加町加治田350,35.490113688175,136.99470482621,1,0,0,-,-,-,100人,,避難所
岐阜県,美濃市,志摩公民センター,岐阜県美濃市志摩38-1,35.515137078234,136.89482686142,-,-,-,-,-,-,,,避難場所
岐阜県,多治見市,坂上公園,岐阜県多治見市坂上町6-34-1,35.33435734542,137.14020413263,-,-,-,-,-,-,,,一時避難場所
岐阜県,揖斐郡揖斐川町,谷汲スポーツセンター,岐阜県揖斐郡揖斐川町谷汲名礼141,35.519385280864,136.60675216361,1,0,0,-,-,-,750人,,避難場所
岐阜県,飛騨市,青龍会館,岐阜県飛騨市,36.234875634601,137.18898145784,1,0,0,-,-,-,,,第一時避難所
岐阜県,養老郡養老町,東部中学校,岐阜県養老郡養老町下笠2769,35.272913727102,136.59123280718,1,0,0,-,-,-,,,避難場所
岐阜県,下呂市,益田清風高等学校,岐阜県下呂市萩原326-1,35.876361399813,137.21214749053,1,0,0,1,0,0,5132人,,避難場所・避難所
岐阜県,関市,富野保育園,岐阜県関市西神野298-1,35.519139258545,136.96932298404,-,-,-,-,-,-,260人,,福祉避難所
岐阜県,下呂市,道の駅南ひだはなもも,岐阜県下呂市赤沼田810-1,35.931467848777,137.29441905057,1,0,0,1,0,0,1120人,,避難場所・避難所
岐阜県,関市,南部公民センター,岐阜県関市寿町2丁目2-15,35.47735642327,136.92465050853,1,0,0,-,-,-,79人,,臨時避難所
岐阜県,高山市,上神明町公民館,岐阜県高山市神明町2丁目1,36.136621154613,137.2585561528,1,0,0,-,-,-,,,一時避難所
岐阜県,下呂市,大垣内1組広場,岐阜県下呂市大垣内1388-4,35.95887939082,137.25900643561,-,-,-,1,0,0,45人,,避難場所・避難所
岐阜県,高山市,本町四丁目公民館,岐阜県高山市本町4丁目20,36.145905143821,137.25712272832,1,0,0,-,-,-,,,一時避難所
岐阜県,関市,板取田口集会場,岐阜県関市板取3345-1,35.727772398025,136.7678895954,1,0,0,-,-,-,53人,,臨時避難所
岐阜県,各務原市,各務原西高等学校,岐阜県各務原市那加東亜町24-1,35.40262365043,136.83735394531,-,-,-,-,-,-,,,２次避難所
岐阜県,高山市,花里会館,岐阜県高山市花里町4丁目10,36.139454774513,137.25321681918,1,0,0,-,-,-,,,一時避難所
岐阜県,関市,武儀西小学校,岐阜県関市下之保2719,35.547693499825,136.99085416788,1,0,0,-,-,-,883人,,指定避難所
岐阜県,多治見市,笠原保育園,岐阜県多治見市笠原町1974-1,35.298685281991,137.16152922298,-,-,-,-,-,-,60人,,一時避難場所
岐阜県,本巣市,小柿南栄公民館,岐阜県本巣市小柿,35.423322669243,136.67578487482,1,0,0,-,-,-,40人,,避難場所
岐阜県,羽島郡岐南町,東組公民館,岐阜県羽島郡岐南町八剣2丁目42番地,35.39271381555,136.78035407614,1,0,0,-,-,-,,,避難施設
岐阜県,各務原市,陵南福祉センター,岐阜県各務原市鵜沼朝日町2-384-1,35.389751942108,136.90337574862,-,-,-,-,-,-,,,災害時要援護者専用避難所
岐阜県,郡上市,美並くじ本転作技術研修センター,岐阜県郡上市山田1493-43,35.681227947953,136.96160922021,1,0,0,-,-,-,36人,,拠点避難所
岐阜県,関市,旭ヶ丘ふれあいセンター,岐阜県関市仲町8-15,35.486097338961,136.9276640208,-,-,-,-,-,-,186人,,予備避難所
岐阜県,郡上市,上沢公民館,岐阜県郡上市沢44-1,35.743036747513,137.07752641068,1,0,0,-,-,-,30人,,一時避難所
岐阜県,海津市,海津特別支援学校,岐阜県海津市平田町今尾3885-2,35.247016427547,136.62462958101,1,0,0,1,0,0,200人,,避難所
岐阜県,郡上市,下土京集会場,岐阜県郡上市土京534,35.763436126564,137.105349922,1,0,0,1,0,0,30人,,一時避難所
岐阜県,郡上市,美並勝原公民館,岐阜県郡上市大原2821-1,35.623400600246,136.9511005467,1,0,0,-,-,-,45人,,拠点避難所
岐阜県,安八郡安八町,大野集会所,岐阜県安八郡安八町大野196,35.326739584541,136.66040776844,-,-,-,-,-,-,,,第１次避難場所
岐阜県,加茂郡川辺町,川辺第2保育園,岐阜県加茂郡川辺町上川辺558,35.515119727963,137.08370927577,1,0,0,-,-,-,,,指定避難所
岐阜県,高山市,燦燦朝日館,岐阜県高山市朝日町七石800,36.088920213427,137.34697448556,1,0,0,1,0,0,,,避難所
岐阜県,関市,富岡公民センター,岐阜県関市肥田瀬1635-1,35.479937363872,136.95126691214,-,-,-,-,-,-,74人,,予備避難所
岐阜県,郡上市,口明方コミュニティ消防センター,岐阜県郡上市市島945-1,35.78438954756,137.01002195376,1,0,0,-,-,-,121人,,拠点避難所
岐阜県,高山市,上地ヶ根公民館,岐阜県高山市奥飛騨温泉郷一重ヶ根2022,36.2309202429,137.5330651643,1,0,0,-,-,-,,,一時避難所
岐阜県,下呂市,旧東保育園,岐阜県下呂市祖師野218-2,35.714443342167,137.13617025302,1,0,0,-,-,-,160人,,避難場所・避難所
岐阜県,飛騨市,丸山集会場,岐阜県飛騨市,36.301534626766,137.31176230108,1,0,0,-,-,-,,,避難所
岐阜県,関市,迫間台公民センター,岐阜県関市迫間台2丁目18-2,35.45025084023,136.9281087007,1,0,0,-,-,-,41人,,臨時避難所
岐阜県,本巣市,真正スポーツセンター,岐阜県本巣市小柿368-1,35.422927127677,136.67526494613,1,0,0,-,-,-,150人,,避難所
岐阜県,関市,板取白谷集会場,岐阜県関市板取281,35.655913022013,136.82304742416,1,0,0,-,-,-,78人,,臨時避難所
岐阜県,安八郡神戸町,旧南平野幼稚園,岐阜県安八郡神戸町,35.401821651926,136.59575991487,1,0,0,-,-,-,,,指定避難所
岐阜県,下呂市,菅田公民館,岐阜県下呂市菅田桐洞699-3,35.644852786955,137.12631713093,1,0,0,-,-,-,180人,,避難場所・避難所
岐阜県,高山市,あけぼの会館,岐阜県高山市曙町3丁目3561-18,36.148351265072,137.26779024584,1,0,0,-,-,-,,,一時避難所
岐阜県,郡上市,粥川中央公民館,岐阜県郡上市高砂739-1,35.66245807985,136.92771972511,1,0,0,-,-,-,51人,,拠点避難所
岐阜県,羽島市,願教寺,岐阜県羽島市,35.34815057572,136.7312387492,1,0,0,-,-,-,55人,,一時避難地・避難場所
岐阜県,多治見市,姫ヶ丘公園,岐阜県多治見市姫町2-20-12,35.384981050186,137.07399973631,-,-,-,-,-,-,,,一時避難場所
岐阜県,加茂郡坂祝町,一色公民館,岐阜県加茂郡坂祝町酒倉166-1,35.426521495286,137.00317440228,-,-,-,1,0,0,,,指定緊急避難場所
岐阜県,高山市,八光苑,岐阜県高山市久-野町久-野1202,36.059098193978,137.2747926925,1,0,0,-,-,-,,,一時避難所
岐阜県,郡上市,六ノ里地区防災拠点施設,岐阜県郡上市六ノ里1114-4,35.888182539582,136.94009375461,1,0,0,-,-,-,14人,,拠点避難所
岐阜県,高山市,七日町一丁目会館,岐阜県高山市七日町1丁目60-7,36.14665952061,137.25599142966,1,0,0,-,-,-,,,一時避難所
岐阜県,関市,倉知ふれあいセンター,岐阜県関市倉知927-1,35.48174145532,136.89790237906,-,-,-,-,-,-,72人,,予備避難所
岐阜県,加茂郡八百津町,潮見小学校体育館,岐阜県加茂郡八百津町潮見1125番地,35.499224187483,137.25583581992,1,0,0,-,-,-,2751人,,一時避難場所・避難所
岐阜県,高山市,奥公民館,岐阜県高山市一之宮町1563番地の5,36.077300278576,137.21971802918,1,0,0,-,-,-,,,一時避難所
岐阜県,揖斐郡揖斐川町,坂本コミュニティーセンター,岐阜県揖斐郡揖斐川町坂内坂本3040,35.594371068986,136.42332812581,1,0,0,-,-,-,,,避難場所
岐阜県,可児市,兼山小学校,岐阜県可児市兼山1444-1,35.453191095828,137.09595068713,1,0,0,-,-,-,500人,,指定避難所
岐阜県,山県市,西武芸公民館,岐阜県山県市岩佐213番地,35.551304938256,136.79731548793,1,0,0,-,-,-,,,指定避難所
岐阜県,揖斐郡池田町,八幡公民館,岐阜県揖斐郡池田町片山,35.420029691645,136.57719101626,1,0,0,-,-,-,,,指定避難所
岐阜県,高山市,煥章館,岐阜県高山市馬場町2丁目115,36.143487870513,137.26235475773,1,0,0,1,0,0,,,避難所
岐阜県,安八郡安八町,東安中学校,岐阜県安八郡安八町東結952-43,35.360192587931,136.67278581429,1,0,0,-,-,-,,,第２次避難場所
岐阜県,山県市,伊自良北小学校,岐阜県山県市掛217,35.553099940565,136.72049823967,1,0,0,-,-,-,,,指定避難所
岐阜県,関市,桜ヶ丘中学校,岐阜県関市桜台3丁目13-1,35.464788184655,136.92841680214,1,0,0,-,-,-,2886人,,指定避難所
岐阜県,不破郡垂井町,合原小学校,岐阜県不破郡垂井町栗原1102-1,35.339203755257,136.54792234437,1,0,0,1,0,0,,,避難所
岐阜県,郡上市,八幡小学校体育館,岐阜県郡上市島谷8,35.750272087109,136.96176309193,1,0,0,-,-,-,3305人,,拠点避難所・広域避難場所
岐阜県,下呂市,星雲会館,岐阜県下呂市萩原1166-8,35.879174613868,137.21012573707,1,0,0,1,0,0,581人,,避難場所・避難所
岐阜県,本巣市,早野研修センター,岐阜県本巣市早野450-1,35.451849800271,136.66137117863,1,0,0,-,-,-,50人,,避難場所
岐阜県,羽島郡笠松町,リバーサイド笠松園,岐阜県羽島郡笠松町田代621-1,35.359883510117,136.75246778444,-,-,-,-,-,-,99人,,第２次避難所
岐阜県,不破郡関ケ原町,関ケ原東保育園,岐阜県不破郡関ケ原町関ケ原3608-1,35.362736846957,136.47781395799,1,0,0,-,-,-,,,避難所・広域避難所
岐阜県,大野郡白川村,白川中学校体育館（白川中学校）,岐阜県大野郡白川村大字鳩谷575番地の1,36.27361449767,136.89745859051,1,0,0,-,-,-,400人,,避難所・広域避難場所
岐阜県,各務原市,陵南小学校,岐阜県各務原市鵜沼大伊木町4-425,35.383802329499,136.90484519169,1,0,0,-,-,-,,,一時避難所
岐阜県,美濃市,願念寺,岐阜県美濃市,35.545778201675,136.91018439178,-,-,-,-,-,-,,,避難場所
岐阜県,関市,上切公民センター,岐阜県関市下有知1231,35.515576174649,136.90547051447,1,0,0,-,-,-,84人,,臨時避難所
岐阜県,本巣市,平野集会所,岐阜県本巣市根尾平野113-2,35.593390249178,136.62855755836,1,0,0,-,-,-,50人,,避難場所
岐阜県,山県市,高富北部地区多目的研修集会センター,岐阜県山県市大桑2406-1,35.537686045912,136.76455235366,1,0,0,-,-,-,,,指定避難所
岐阜県,関市,金竜小学校,岐阜県関市上白金482-1,35.482198302933,136.85979122261,1,0,0,-,-,-,2232人,,指定避難所
岐阜県,本巣市,北野公民館,岐阜県本巣市北野223,35.458913943014,136.69614118807,1,0,0,-,-,-,50人,,避難場所
岐阜県,加茂郡白川町,白川保育園,岐阜県加茂郡白川町和泉575,35.591622651135,137.20966412088,1,0,0,-,-,-,,,避難場所・避難所
岐阜県,高山市,旭ヶ丘町公民館,岐阜県高山市旭ヶ丘町97-1,36.17820226853,137.24260085652,1,0,0,-,-,-,,,一時避難所
岐阜県,郡上市,白鳥ふれあい創造館,岐阜県郡上市白鳥359-26,35.887008466587,136.86138532908,1,0,0,-,-,-,1484人,,拠点避難所・広域避難場所
岐阜県,加茂郡東白川村,越原地域集会所,岐阜県加茂郡東白川村越原915-1,35.669691537631,137.36337772872,1,0,0,-,-,-,30人,,避難所
岐阜県,美濃市,御手洗センター,岐阜県美濃市御手洗561-11,35.580672479988,136.86696054467,1,0,0,-,-,-,,,避難所
岐阜県,飛騨市,吉田上組集会場,岐阜県飛騨市,36.305266584946,137.27972530788,1,0,0,-,-,-,,,避難所
岐阜県,各務原市,中央小学校,岐阜県各務原市各務西町4-302,35.408674407589,136.88263795834,1,0,0,-,-,-,,,一時避難所
岐阜県,海津市,海津市生涯学習センター,岐阜県海津市平田町仏師川488,35.257111473206,136.63595742216,1,0,0,1,0,0,847人,,避難所
岐阜県,加茂郡八百津町,白橋公民館,岐阜県加茂郡八百津町,35.512892323501,137.149223353,-,-,-,-,-,-,,,一時避難場所
岐阜県,可児市,久々利公民館,岐阜県可児市久-利1644-1,35.403513797058,137.11097913469,-,-,-,-,-,-,150人,,１次避難所
岐阜県,高山市,坂屋公民館,岐阜県高山市久々野町久々野3443,36.065327799875,137.28653032284,1,0,0,-,-,-,,,一時避難所
岐阜県,多治見市,脇之島公民館,岐阜県多治見市脇之島町6-31-3,35.317011449215,137.11395119888,-,-,-,-,-,-,120人,,一時避難場所
岐阜県,羽島郡笠松町,笠松幼稚園,岐阜県羽島郡笠松町長池377,35.358830969558,136.75031242909,-,-,-,-,-,-,710人,,第２次避難所
岐阜県,関市,武芸小学校,岐阜県関市武芸川町谷口1336-1,35.545014091183,136.82220808651,1,0,0,-,-,-,1080人,,指定避難所
岐阜県,安八郡輪之内町,仁木保育園,岐阜県安八郡輪之内町下大榑新田261-2,35.273086227007,136.63255567787,1,0,0,1,0,0,,,第２次避難場所
岐阜県,関市,武芸川温泉ゆとりの湯休憩所,岐阜県関市武芸川町八幡1558-7,35.537896028333,136.84373960236,1,0,0,-,-,-,130人,,臨時避難所
岐阜県,本巣市,中谷公民館,岐阜県本巣市文殊1309-1,35.485606743561,136.68020402264,1,0,0,-,-,-,,,避難場所
岐阜県,大野郡白川村,大白川温泉しらみずの湯（道の駅飛騨白山）,岐阜県大野郡白川村大字平瀬247番地の7,36.173090671739,136.90242853834,1,0,0,-,-,-,40人,,避難所
岐阜県,下呂市,山村開発センター,岐阜県下呂市小坂町815-1,35.951214362886,137.26064475522,1,0,0,1,0,0,804人,,避難場所・避難所
岐阜県,加茂郡川辺町,川辺北小学校,岐阜県加茂郡川辺町上川辺575,35.513636540782,137.0822427225,1,0,0,-,-,-,200人,,避難場所・指定避難所
岐阜県,飛騨市,吉田公民館,岐阜県飛騨市,36.307303188218,137.29318074148,1,0,0,-,-,-,,,避難所
岐阜県,関市,富野ふれあいセンター,岐阜県関市西神野144-1,35.519105896606,136.97374787707,-,-,-,-,-,-,311人,,予備避難所
岐阜県,美濃市,教泉寺,岐阜県美濃市,35.544054277699,136.91302944429,-,-,-,-,-,-,,,避難場所
岐阜県,美濃市,美濃中学校,岐阜県美濃市29587,35.53819090786,136.91222911157,1,0,0,-,-,-,,,避難場所・地震火災時避難所
岐阜県,高山市,初田町一丁目公民館,岐阜県高山市初田町1丁目52,36.143879216325,137.25308625755,1,0,0,-,-,-,,,一時避難所
岐阜県,高山市,留之原公民館,岐阜県高山市高根町留之原1742-116,35.9809560074,137.52628891392,1,0,0,-,-,-,,,一時避難所
岐阜県,高山市,岩井町公民館,岐阜県高山市岩井町1287-1,36.130824858759,137.34927376403,1,0,0,-,-,-,,,一時避難所
岐阜県,不破郡関ケ原町,藤下転作促進研修施設,岐阜県不破郡関ケ原町藤下317-1,35.358990166097,136.45616295183,1,0,0,-,-,-,,,避難所
岐阜県,飛騨市,桃源郷温泉すぱーふる,岐阜県飛騨市古川町黒内1407,36.242205488555,137.11486556861,1,0,0,-,-,-,,,避難所
岐阜県,下呂市,みのり保育園,岐阜県下呂市乗政1011-1,35.783946076549,137.28481280151,1,0,0,1,0,0,200人,,避難場所・避難所
岐阜県,本巣郡北方町,渕之上公園,岐阜県本巣郡北方町,35.431280688855,136.67955361196,-,-,-,-,-,-,,,避難場所
岐阜県,高山市,国府三川コミュニティセンター,岐阜県高山市国府町三川514-1,36.187898770857,137.25948499333,1,0,0,1,0,0,,,避難所
岐阜県,関市,桜台西公民センター,岐阜県関市桜台1丁目1-11,35.467279544979,136.92478665273,1,0,0,-,-,-,57人,,臨時避難所
岐阜県,郡上市,東安久田集会所,岐阜県郡上市安久田1582,35.736388093209,136.97518210477,1,0,0,-,-,-,40人,,一時避難所
岐阜県,関市,向山公民センター,岐阜県関市向山町2丁目7-1,35.456474500381,136.90268563109,1,0,0,-,-,-,60人,,臨時避難所
岐阜県,関市,中之保久須集会場,岐阜県関市中之保1151-1,35.569903178423,137.05657706817,1,0,0,-,-,-,29人,,臨時避難所
岐阜県,飛騨市,坂下生活改善センター,岐阜県飛騨市宮川町打保639番地1,36.384197142265,137.18057820888,1,0,0,-,-,-,,,避難所
岐阜県,多治見市,笠原幼稚園,岐阜県多治見市笠原町3387-9,35.292690594287,137.16049594153,-,-,-,-,-,-,80人,,一時避難場所
岐阜県,揖斐郡大野町,鴬地区農村集落多目的施設,岐阜県揖斐郡大野町公郷34,35.461517134125,136.59966587211,1,0,0,-,-,-,,,指定避難場所
岐阜県,下呂市,跡津公民館,岐阜県下呂市跡津499,35.857269335929,137.22015090791,1,0,0,1,0,0,41人,,避難場所・避難所
岐阜県,下呂市,高齢者生産活動センター,岐阜県下呂市坂下716-1,35.935010824796,137.25013421662,1,0,0,1,0,0,825人,,避難場所・避難所
岐阜県,羽島郡岐南町,得正寺,岐阜県羽島郡岐南町平島5丁目11番地,35.38739767068,136.81020722296,1,0,0,-,-,-,,,避難施設
岐阜県,多治見市,多治見市総合体育館,岐阜県多治見市,35.317827588638,137.12971816266,1,0,0,-,-,-,,,避難所
岐阜県,下呂市,花池区民広場,岐阜県下呂市花池386,35.865511598717,137.21857870834,-,-,-,1,0,0,40人,,避難場所・避難所
岐阜県,下呂市,共和橋袂資材置場,岐阜県下呂市湯屋1273-2,35.920775516457,137.30838550409,1,0,0,1,0,0,110人,,避難場所・避難所
岐阜県,関市,瀬尻公民センター,岐阜県関市小瀬2120,35.498581164013,136.89443263799,-,-,-,-,-,-,76人,,予備避難所
岐阜県,高山市,山口公民館,岐阜県高山市山口町1441-3,36.133959122307,137.2930409302,1,0,0,-,-,-,,,一時避難所
岐阜県,本巣郡北方町,幼稚園,岐阜県本巣郡北方町春来町1丁目81番地,35.434097945253,136.68850191219,-,-,-,-,-,-,,,避難場所
岐阜県,下呂市,市営駅前駐車場,岐阜県下呂市大船渡339-2,35.662543026845,137.16406703277,-,-,-,1,0,0,550人,,避難場所・避難所
岐阜県,不破郡垂井町,東公民館,岐阜県不破郡垂井町綾戸901-1,35.374258092085,136.54791596769,1,0,0,1,0,0,,,避難所
岐阜県,羽島市,市総合運動場,岐阜県羽島市,35.322869323674,136.72628593461,1,0,0,1,0,0,17853人,,一時避難地・避難場所
岐阜県,美濃市,牧谷保育園,岐阜県美濃市上野2-2,35.58576915628,136.86109967527,1,0,0,-,-,-,,,避難所
岐阜県,加茂郡白川町,クオーレの里,岐阜県加茂郡白川町和泉181-1,35.595469421223,137.21899684143,1,0,0,-,-,-,,,避難場所・避難所
岐阜県,羽島市,島公民館,岐阜県羽島市,35.331839942226,136.70634652064,1,0,0,-,-,-,6633人,,一時避難地・避難場所
岐阜県,山県市,伊自良中央公民館,岐阜県山県市大門912番地1,35.533943851466,136.72625955654,1,0,0,-,-,-,,,指定避難所
岐阜県,高山市,城山保育園,岐阜県高山市堀端町94,36.141313157742,137.2627936559,1,0,0,1,0,0,,,避難所
岐阜県,関市,洞戸基幹集落センター,岐阜県関市洞戸市場294-5,35.602180272227,136.8171028785,1,0,0,-,-,-,245人,,臨時避難所
岐阜県,関市,西本郷公民センター,岐阜県関市西本郷通4-1-17,35.4916019412,136.91804525834,1,0,0,-,-,-,63人,,臨時避難所
岐阜県,関市,関市稲口グラウンド,岐阜県関市神明町4丁目地内,35.474496586053,136.92096609641,-,-,-,-,-,-,,,広域避難場所
岐阜県,揖斐郡大野町,町民宿泊研修所,岐阜県揖斐郡大野町黒野2264-61,35.463797730703,136.64268612244,1,0,0,-,-,-,300人,,指定避難場所
岐阜県,美濃市,松森北コミュニティセンター,岐阜県美濃市松森698,35.53507622708,136.90726195658,-,-,-,-,-,-,,,避難場所
岐阜県,多治見市,西坂第4公園,岐阜県多治見市西坂町2-124,35.355620389393,137.11008660476,-,-,-,-,-,-,,,一時避難場所
岐阜県,各務原市,鵜沼西地区体育館,岐阜県各務原市鵜沼各務原町6-7,35.39956495399,136.9069613723,-,-,-,-,-,-,,,２次避難所
岐阜県,安八郡輪之内町,専徳寺,岐阜県安八郡輪之内町,35.307073854518,136.63481339208,-,-,-,1,0,0,,,第１次避難場所
岐阜県,下呂市,定清公民館,岐阜県下呂市西上田1096-1,35.827971263437,137.23185422078,1,0,0,1,0,0,60人,,避難場所・避難所
岐阜県,揖斐郡揖斐川町,揖斐川町「水と森の学習館」,岐阜県揖斐郡揖斐川町鶴見653-1,35.636558753788,136.48380299633,1,0,0,-,-,-,,,避難場所
岐阜県,関市,山田公民センター,岐阜県関市山田405-1,35.471052245166,136.85855220112,1,0,0,-,-,-,64人,,臨時避難所
岐阜県,不破郡関ケ原町,貝戸集落構造改善センター,岐阜県不破郡関ケ原町今須1045-1,35.338078510296,136.42083593759,1,0,0,-,-,-,,,避難所
岐阜県,多治見市,陶都中学校,岐阜県多治見市住吉町7-1,35.346991897754,137.11946342749,1,0,0,-,-,-,1000人,,一時避難場所・避難所
岐阜県,羽島市,足近コミュニティセンター,岐阜県羽島市足近町7丁目66-1,35.344643827897,136.72412785306,1,0,0,-,-,-,82人,,一時避難地・避難場所
岐阜県,山県市,美山構造改善センター,岐阜県山県市笹賀11,35.586672178775,136.75960596182,1,0,0,-,-,-,,,指定避難所
岐阜県,羽島郡岐南町,浄福寺,岐阜県羽島郡岐南町三宅5丁目183番地,35.390530317561,136.79287004819,1,0,0,-,-,-,,,避難施設
岐阜県,多治見市,かさはら福祉センター,岐阜県多治見市笠原町2900-6,35.30175122074,137.1543439112,1,0,0,-,-,-,150人,,一時避難場所・避難所
岐阜県,本巣市,数屋研修センター,岐阜県本巣市数屋524-2,35.467239276774,136.65665433093,1,0,0,-,-,-,50人,,避難場所
岐阜県,郡上市,八幡保健センター,岐阜県郡上市殿町46-1,35.754333489362,136.95682934218,1,0,0,-,-,-,317人,,拠点避難所・広域避難場所
岐阜県,飛騨市,末高総合研修センター,岐阜県飛騨市,36.270038020551,137.14400062591,1,0,0,-,-,-,,,第一時避難所
岐阜県,羽島郡岐南町,岐南中学校,岐阜県羽島郡岐南町徳田3丁目284番地,35.384277776687,136.77512817555,1,0,0,-,-,-,,,避難施設
岐阜県,加茂郡坂祝町,勝山稲葉公民館,岐阜県加茂郡坂祝町勝山480-1,35.431051787127,136.96769638126,-,-,-,1,0,0,,,指定緊急避難場所
岐阜県,多治見市,笠原中央公民館,岐阜県多治見市笠原町2081-1,35.299003481667,137.16031486218,1,0,0,-,-,-,800人,,一時避難場所・避難所
岐阜県,郡上市,高鷲鮎走老人憩いの家,岐阜県郡上市鮎立2769-1,35.942485860479,136.86094723522,1,0,0,1,0,0,44人,,一時避難所
岐阜県,飛騨市,増島保育園,岐阜県飛騨市貴船町15-20,36.224250863412,137.19909397442,1,0,0,-,-,-,,,避難所
岐阜県,羽島市,永照寺,岐阜県羽島市,35.315749542847,136.67619659281,1,0,0,-,-,-,38人,,一時避難地・避難場所
岐阜県,養老郡養老町,就業改善センター（笠郷自治会館）,岐阜県養老郡養老町船附1148,35.288365378436,136.59638504124,1,0,0,-,-,-,,,避難場所
岐阜県,瑞浪市,駅北分庁舎,岐阜県瑞浪市寺河戸町1149-1,35.36889751542,137.25385281063,1,0,0,-,-,-,110人,,１次避難所
岐阜県,関市,下有知南部公民センター,岐阜県関市下有知3663-1,35.501544887129,136.90648461834,1,0,0,-,-,-,64人,,臨時避難所
岐阜県,多治見市,土岐川河原,岐阜県多治見市大正町3,35.337088292354,137.13177152987,-,-,-,-,-,-,,,一時避難場所
岐阜県,飛騨市,光円寺,岐阜県飛騨市,36.346473020224,137.31385268782,1,0,0,-,-,-,,,避難所
岐阜県,加茂郡白川町,佐見デイサービスセンターせせらぎ園,岐阜県加茂郡白川町下佐見2510-2,35.662079921692,137.23833446667,1,0,0,-,-,-,,,避難場所・避難所
岐阜県,郡上市,郡上北高等学校体育館,岐阜県郡上市白鳥町為真1265-2,35.885093113214,136.86479570788,1,0,0,-,-,-,,,拠点避難所
岐阜県,関市,安桜小学校,岐阜県関市いろは町1,35.481569743758,136.91788441979,1,0,0,-,-,-,2452人,,指定避難所
岐阜県,多治見市,姫白山公園,岐阜県多治見市姫町5-1-303,35.394993464985,137.06676935023,-,-,-,-,-,-,,,一時避難場所
岐阜県,下呂市,石丸権四郎氏宅前駐車場,岐阜県下呂市大垣内1257,35.955089621311,137.25989667908,-,-,-,1,0,0,474人,,避難場所・避難所
岐阜県,高山市,丹生川老人いこいの家,岐阜県高山市丹生川町坊方2190-1,36.168147173929,137.31423523786,1,0,0,1,0,0,,,避難所
岐阜県,加茂郡坂祝町,中央公民館,岐阜県加茂郡坂祝町黒岩1260-1,35.439187808976,136.98259234613,1,0,0,-,-,-,,,避難所
岐阜県,飛騨市,桂本神社社務所,岐阜県飛騨市,36.311554663037,137.3175005373,1,0,0,-,-,-,,,避難所
岐阜県,瑞浪市,稲津小学校,岐阜県瑞浪市稲津町小里371-1,35.343296207892,137.27861406732,1,0,0,-,-,-,5100人,,避難地・２次避難所
岐阜県,養老郡養老町,養北保育園,岐阜県養老郡養老町飯田790,35.323358523477,136.57070070378,1,0,0,-,-,-,,,避難場所
岐阜県,高山市,ドライブイン御母衣湖,岐阜県高山市荘川町中野262,36.078885486516,136.94643379245,1,0,0,-,-,-,,,一時避難所
岐阜県,下呂市,旧山之口保育園,岐阜県下呂市山之口2518-1,35.982261255061,137.19367099092,1,0,0,1,0,0,550人,,避難場所・避難所
岐阜県,関市,上之保中学校,岐阜県関市上之保13502-1,35.6166487652,137.04332366109,1,0,0,-,-,-,1258人,,指定避難所
岐阜県,山県市,グル?プホ?ム虹の里伊自良,岐阜県山県市松尾344-5,35.544617560987,136.71948486537,-,-,-,-,-,-,,,福祉避難所
岐阜県,各務原市,各務原高等学校,岐阜県各務原市蘇原新生町2-63,35.419000816725,136.8830707618,-,-,-,-,-,-,,,２次避難所
岐阜県,加茂郡八百津町,第六公民分館,岐阜県加茂郡八百津町,35.529672236593,137.24037265412,-,-,-,-,-,-,,,一時避難場所
岐阜県,飛騨市,奥麻生野公民館,岐阜県飛騨市,36.318916295543,137.33975680392,1,0,0,-,-,-,,,避難所
岐阜県,飛騨市,黒内農業研修センター,岐阜県飛騨市,36.248738826954,137.12391312517,1,0,0,-,-,-,,,第一時避難所
