都道府県,市区町村,避難所名,住所,緯度,経度,避難所,一時避難所,広域避難所,地震,風水害,津波,収容人数,備蓄品,備考
鳥取県,米子市,前田児童館,鳥取県米子市尾高1424-1,35.421142531188,133.40395861154,1,0,0,-,-,-,70人,,避難所
鳥取県,西伯郡大山町,人権交流センター,鳥取県西伯郡大山町茶畑1077-3,35.480307624443,133.48269064147,1,0,0,-,-,-,,,避難場所・避難所
鳥取県,倉吉市,倉吉市立河北小学校,鳥取県倉吉市海田西町1丁目130番地,35.462794713398,133.84340322131,1,0,0,1,1,1,165人,,指定避難所
鳥取県,鳥取市,若葉台体育館,鳥取県鳥取市若葉台南2丁目16-1,35.448297294668,134.26394043088,1,0,0,1,1,1,320人,,避難所
鳥取県,鳥取市,八日市公民館,鳥取県鳥取市河原町八日市179-1,35.375490931047,134.20922452368,1,0,0,1,1,1,90人,,避難所
鳥取県,鳥取市,弓河内遊園地,鳥取県鳥取市河原町弓河内144,35.385798670497,134.13783334812,-,-,-,-,-,-,,,一時避難所
鳥取県,東伯郡湯梨浜町,道の駅はわい,鳥取県東伯郡湯梨浜町宇野2343,35.494297631823,133.89046978361,-,-,-,1,1,1,,,避難場所
鳥取県,境港市,渡公民館,鳥取県境港市渡町1356-1,35.51834844613,133.2138070506,1,0,0,0,0,1,100人,,収容避難所・津波一時避難所
鳥取県,岩美郡岩美町,岩美西小学校,鳥取県岩美郡岩美町大谷2343,35.578749453135,134.29925570714,1,0,0,-,-,-,3000人,,避難所・広域避難場所
鳥取県,八頭郡八頭町,中私都保育所・園庭,鳥取県八頭郡八頭町下津黒87-10,35.419187491366,134.30877623094,1,0,0,0,1,0,110人,,広域避難所
鳥取県,日野郡日野町,菅福公会堂,鳥取県日野郡日野町上菅734,35.194146682119,133.34180961539,1,0,0,-,-,-,50人,,避難所
鳥取県,岩美郡岩美町,岩美中学校,鳥取県岩美郡岩美町浦富707,35.574295160754,134.33025339829,1,0,0,-,-,-,3730人,,避難所・広域避難場所
鳥取県,東伯郡北栄町,国坂東区公民館,鳥取県東伯郡北栄町国坂,35.48148089223,133.82958952562,1,0,0,1,1,0,36人,,一時避難所
鳥取県,米子市,東山中学校,鳥取県米子市車尾617,35.427524353888,133.35389002432,1,0,0,-,-,-,1300人,,避難場所・避難所
鳥取県,西伯郡伯耆町,伯耆ニュータウン公民館,鳥取県西伯郡伯耆町岸本,35.389318003722,133.41321945454,1,0,0,-,-,-,,,一時避難所
鳥取県,鳥取市,水根公会堂,鳥取県鳥取市河原町水根224-7,35.371887601346,134.18362776698,1,0,0,1,1,1,60人,,一時避難所・避難所
鳥取県,鳥取市,あおば地区公民館,鳥取県鳥取市国府町新町2丁目246-4,35.48056522064,134.25804012765,1,0,0,1,1,1,90人,,避難所
鳥取県,倉吉市,倉吉市関金総合文化センター（青年婦人研修室）,鳥取県倉吉市関金町大鳥居193-1,35.369613495107,133.75390373897,1,0,0,1,1,1,265人,,指定一時避難所
鳥取県,東伯郡琴浦町,古布庄地域構造改善センター,鳥取県東伯郡琴浦町古長186-1,35.428795768636,133.6650963472,1,0,0,1,1,1,72人,,一時避難所
鳥取県,鳥取市,楠根生活改善センター,鳥取県鳥取市青谷町楠根247-4,35.460172852991,133.97062135599,1,0,0,1,1,1,50人,,避難所
鳥取県,鳥取市,八日市広場（河川敷）,鳥取県鳥取市河原町八日市,35.375850907832,134.21152991326,-,-,-,-,-,-,,,一時避難所
鳥取県,倉吉市,鳥取県立倉吉総合産業高等学校,鳥取県倉吉市小田204番地5,35.460511482656,133.8325208261,1,0,0,1,1,1,357人,,指定避難所
鳥取県,日野郡日南町,新屋公会堂,鳥取県日野郡日南町新屋424-1,35.103298322381,133.18991139839,1,0,0,-,-,-,30人,,避難所
鳥取県,東伯郡湯梨浜町,園公民館,鳥取県東伯郡湯梨浜町園,35.510746926299,133.93581833161,1,0,0,0,1,0,22人,,一時避難所
鳥取県,鳥取市,水谷集会所,鳥取県鳥取市鹿野町鹿野735-1,35.454833748418,134.06518595405,1,0,0,1,1,1,40人,,避難所
鳥取県,鳥取市,国府人権福祉センター,鳥取県鳥取市国府町麻生373-3,35.469905702993,134.2845686867,1,0,0,1,1,1,120人,,一時避難所・避難所
鳥取県,鳥取市,城北小学校,鳥取県鳥取市田園町4丁目324,35.514674375887,134.22082844167,1,0,0,1,1,1,1700人,,一時避難所・避難所
鳥取県,鳥取市,河原町総合体育館,鳥取県鳥取市河原町曳田20-1,35.394446319149,134.19966740541,1,0,0,1,0,1,900人,,避難所・広域避難場所
鳥取県,鳥取市,湖東中学校,鳥取県鳥取市湖山町北6丁目323,35.52039235593,134.18220113396,1,0,0,1,1,1,2890人,,一時避難所・避難所
鳥取県,鳥取市,釜口公民館,鳥取県鳥取市河原町釜口634,35.376326057096,134.21330774936,1,0,0,1,0,1,70人,,避難所
鳥取県,鳥取市,大正地区公民館,鳥取県鳥取市古海556,35.494021132803,134.20741369065,1,0,0,1,1,1,80人,,避難所
鳥取県,八頭郡八頭町,八東地域福祉センター,鳥取県八頭郡八頭町東593-1,35.359058793495,134.32771955736,1,0,0,1,1,0,585人,,広域避難所
鳥取県,鳥取市,福部町多目的研修集会施設,鳥取県鳥取市福部町湯山57-1,35.544246748111,134.25019418006,1,0,0,1,1,1,150人,,避難所
鳥取県,米子市,東山体育館,鳥取県米子市東山町92,35.430229620801,133.34659058196,1,0,0,-,-,-,450人,,避難所
鳥取県,鳥取市,鳥取湖陵高等学校,鳥取県鳥取市湖山町北3丁目250,35.521478220033,134.1763627393,1,0,0,1,1,1,11890人,,一時避難所・避難所
鳥取県,鳥取市,みたから保育園,鳥取県鳥取市寿町501,35.50437015923,134.2261088125,1,0,0,1,1,1,180人,,避難所
鳥取県,日野郡日野町,根妻橋横,鳥取県日野郡日野町下黒坂,35.220910863397,133.40186783991,-,-,-,-,-,-,,,一時避難所
鳥取県,倉吉市,倉吉市立社保育園,鳥取県倉吉市国分寺342番地11,35.432324993965,133.79168371653,1,0,0,1,1,1,77人,,指定避難所・福祉避難所
鳥取県,八頭郡八頭町,下私都保育所・園庭,鳥取県八頭郡八頭町大坪69-1,35.42897700114,134.28461643787,1,0,0,1,1,0,110人,,広域避難所
鳥取県,八頭郡智頭町,ひまわり会館,鳥取県八頭郡智頭町智頭,35.268004741425,134.22676715771,1,0,0,1,1,0,100人,,避難場所・一時避難所
鳥取県,鳥取市,西人権福祉センター,鳥取県鳥取市西品治674,35.509205468931,134.2183538585,1,0,0,1,1,1,90人,,避難所
鳥取県,西伯郡大山町,福祉センターなかやま,鳥取県西伯郡大山町赤坂766-1,35.515349767875,133.58006452943,1,0,0,-,-,-,,,避難場所・避難所
鳥取県,鳥取市,防災広場,鳥取県鳥取市青谷町青谷,35.521375710507,133.99727489427,-,-,-,-,-,-,,,一時避難所
鳥取県,西伯郡南部町,南部中学校,鳥取県西伯郡南部町天萬583,35.371894535554,133.36394949893,1,0,0,-,-,-,300人,,避難所
鳥取県,鳥取市,田原谷公民館,鳥取県鳥取市青谷町田原谷110-2,35.471840882899,133.97672619896,1,0,0,1,1,1,20人,,避難所
鳥取県,東伯郡北栄町,青木多目的集会所,鳥取県東伯郡北栄町青木,35.476207997679,133.73074492392,1,0,0,1,1,0,20人,,一時避難所
鳥取県,鳥取市,美萩野公園,鳥取県鳥取市美萩野2丁目220,35.520148661684,134.14061176551,-,-,-,-,-,-,,,一時避難所
鳥取県,境港市,上道保育所遊戯室,鳥取県境港市中野町168,35.535297254318,133.24001307453,1,0,0,-,-,-,960人,,収容避難所
鳥取県,鳥取市,城北地区公民館,鳥取県鳥取市田園町4丁目223-1,35.514452202795,134.22085614691,1,0,0,1,1,1,120人,,避難所
鳥取県,八頭郡智頭町,山田公民館,鳥取県八頭郡智頭町三吉,35.228202014853,134.22553247406,1,0,0,1,1,0,,,避難場所
鳥取県,境港市,余子駅前公園,鳥取県境港市竹内町1513-1,35.520201179404,133.23762471739,-,-,-,-,-,-,1160人,,収容避難所
鳥取県,鳥取市,稲常公民館,鳥取県鳥取市河原町稲常334,35.421940949047,134.21268727006,1,0,0,1,0,1,20人,,避難所
鳥取県,米子市,彦名公民館,鳥取県米子市彦名町2850-2,35.452085305998,133.28721579676,1,0,0,-,-,-,155人,,避難所
鳥取県,境港市,第二中学校教室等,鳥取県境港市竹内町2438,35.520695630008,133.23103065003,1,0,0,0,0,1,5510人,,収容避難所・津波一時避難所
鳥取県,日野郡江府町,上の段広場,鳥取県日野郡江府町江尾,35.283340461446,133.48636738398,1,0,0,-,-,-,800人,,避難所
鳥取県,境港市,弥生地区緑地,鳥取県境港市弥生町21-1外,35.543422922528,133.21891364181,1,0,0,-,-,-,6130人,,収容避難所
鳥取県,境港市,市民スポーツ広場,鳥取県境港市夕日ヶ丘1丁目4133-9,35.503461490609,133.22179051097,-,-,-,-,-,-,9160人,,収容避難所
鳥取県,鳥取市,永楽公園,鳥取県鳥取市永楽温泉町568,35.493066980264,134.2307376462,-,-,-,-,-,-,,,一時避難所
鳥取県,鳥取市,福部町グラウンド,鳥取県鳥取市福部町海士340,35.545175183254,134.27845894099,-,-,-,-,-,-,,,一時避難所
鳥取県,鳥取市,三津生活改善センター,鳥取県鳥取市三津278-1,35.513136777669,134.13581960602,1,0,0,1,1,1,90人,,避難所
鳥取県,倉吉市,倉吉市営武道館,鳥取県倉吉市葵町593番地,35.428137496688,133.82816625965,1,0,0,1,1,1,242人,,指定避難所
鳥取県,鳥取市,気高人権福祉センター,鳥取県鳥取市気高町下光元478-3,35.493246415399,134.08201395147,1,0,0,1,1,1,150人,,避難所
鳥取県,東伯郡湯梨浜町,新川キャンピングセンター,鳥取県東伯郡湯梨浜町はわい長瀬2293-2,35.503057086061,133.86225130745,1,0,0,1,1,0,80人,,避難場所・避難所
鳥取県,鳥取市,小河内公民館,鳥取県鳥取市河原町小河内204-1,35.370524427904,134.14748747696,1,0,0,1,1,1,110人,,避難所
鳥取県,鳥取市,逢坂小学校,鳥取県鳥取市気高町山宮369-2,35.48046627752,134.03870701102,1,0,0,1,1,1,1090人,,一時避難所・避難所
鳥取県,米子市,福米西公民館,鳥取県米子市西福原8-17-15,35.454430058252,133.34223466256,1,0,0,-,-,-,155人,,避難所
鳥取県,八頭郡若桜町,若桜ゆはら温泉ふれあいの湯,鳥取県八頭郡若桜町湯原627,35.342227865112,134.43477444127,1,0,0,-,-,-,130人,,一時避難所
鳥取県,鳥取市,新通り2公共空地,鳥取県鳥取市国府町新通り2丁目367,35.480383519404,134.25191174172,-,-,-,-,-,-,,,一時避難所
鳥取県,八頭郡智頭町,土師駅前公民館,鳥取県八頭郡智頭町埴師,35.233460981024,134.22578586545,1,0,0,1,1,0,,,避難場所
鳥取県,八頭郡智頭町,（旧）山形小学校,鳥取県八頭郡智頭町郷原238,35.264192359234,134.27608526367,1,0,0,1,1,0,740人,,避難場所・一時避難所
鳥取県,鳥取市,世紀小学校,鳥取県鳥取市徳尾407,35.502000531153,134.19782818017,1,0,0,1,1,1,2040人,,一時避難所・避難所
鳥取県,東伯郡琴浦町,大山町公民館,鳥取県東伯郡琴浦町赤碕,35.511700712203,133.63681242173,1,0,0,1,1,1,30人,,一時避難所
鳥取県,東伯郡北栄町,大栄体育館,鳥取県東伯郡北栄町由良宿800,35.491272413689,133.75411651367,1,0,0,0,1,0,200人,,町内避難所
鳥取県,米子市,米子市営武道館,鳥取県米子市糀町1-202,35.428549110971,133.3390356059,1,0,0,-,-,-,300人,,避難所
鳥取県,八頭郡智頭町,湯屋公民館,鳥取県八頭郡智頭町市瀬,35.279954357238,134.2306614914,1,0,0,1,1,0,,,避難場所
鳥取県,倉吉市,鳥取短期大学,鳥取県倉吉市福庭854番地,35.456034721638,133.85814354867,1,0,0,1,1,1,168人,,指定避難所
鳥取県,西伯郡伯耆町,岸本中学校,鳥取県西伯郡伯耆町吉長90-1,35.388879262811,133.40387844297,1,0,0,-,-,-,,,一時避難所
鳥取県,米子市,淀江保育園,鳥取県米子市淀江町淀江480-3,35.459038723721,133.43094590129,1,0,0,-,-,-,77人,,避難施設・避難所
鳥取県,鳥取市,木梨集会所,鳥取県鳥取市鹿野町岡木496-5,35.489857051299,134.05336932709,1,0,0,1,1,1,60人,,避難所
鳥取県,東伯郡琴浦町,赤碕金屋公民館,鳥取県東伯郡琴浦町竹内,35.470769835437,133.63278765019,1,0,0,1,1,1,30人,,一時避難所
鳥取県,鳥取市,美萩野3公共空地,鳥取県鳥取市美萩野3丁目,35.521129343281,134.13674260401,-,-,-,-,-,-,,,一時避難所
鳥取県,鳥取市,国府地区保健センター,鳥取県鳥取市国府町糸谷15-1,35.464459371788,134.2959372683,1,0,0,1,1,1,400人,,一時避難所・避難所
鳥取県,鳥取市,いなば公園,鳥取県鳥取市国府町宮下1226,35.479911123045,134.2618181387,-,-,-,-,-,-,,,一時避難所
鳥取県,西伯郡伯耆町,教育文化会館,鳥取県西伯郡伯耆町吉長,35.384810365597,133.40758327262,1,0,0,-,-,-,,,一時避難所
鳥取県,西伯郡大山町,大山農業者トレーニングセンター,鳥取県西伯郡大山町今在家611,35.440261528691,133.50013506485,1,0,0,-,-,-,,,避難場所・避難所
鳥取県,西伯郡伯耆町,小林バス回し場,鳥取県西伯郡伯耆町小林,35.37970355822,133.4783614378,-,-,-,-,-,-,,,一時避難所
鳥取県,日野郡日野町,金持公民館,鳥取県日野郡日野町金持,35.215465539963,133.45936539548,-,-,-,-,-,-,30人,,一時避難所
鳥取県,西伯郡伯耆町,溝口中学校,鳥取県西伯郡伯耆町長山481,35.345906519728,133.43889277594,1,0,0,-,-,-,9385人,,一時避難所
鳥取県,東伯郡湯梨浜町,湯梨浜学園,鳥取県東伯郡湯梨浜町田畑32-1,35.45978301435,133.90787742388,1,0,0,0,1,1,280人,,避難場所・避難所
鳥取県,米子市,崎津1区集会所,鳥取県米子市大崎2033-1,35.468191844946,133.26749274861,1,0,0,-,-,-,50人,,避難所
鳥取県,米子市,さくら保育園,鳥取県米子市兼久606-3,35.409648591974,133.36277593231,1,0,0,-,-,-,200人,,避難所
鳥取県,鳥取市,散岐小学校,鳥取県鳥取市河原町佐貫761-5,35.376226428824,134.19841800134,1,0,0,1,1,1,540人,,一時避難所・避難所
鳥取県,米子市,崎津保育園,鳥取県米子市大崎1444,35.475321592211,133.25634670842,1,0,0,-,-,-,110人,,避難所
鳥取県,西伯郡南部町,農業者トレーニングセンター,鳥取県西伯郡南部町天萬526,35.370358603126,133.36249971782,1,0,0,-,-,-,400人,,避難所
鳥取県,鳥取市,姉泊公民館,鳥取県鳥取市気高町八束水448-3,35.51698648905,134.03184264046,1,0,0,1,1,1,70人,,避難所
鳥取県,境港市,老人福祉センター,鳥取県境港市竹内町40,35.51973185071,133.24525754882,1,0,0,-,-,-,70人,,収容避難所
鳥取県,日野郡日野町,中菅農構センター,鳥取県日野郡日野町中菅,35.198656888804,133.38463744053,-,-,-,-,-,-,,,一時避難所
鳥取県,境港市,渡小学校教室等,鳥取県境港市渡町901,35.516421068596,133.2190317523,1,0,0,0,0,1,4350人,,収容避難所・津波一時避難所
鳥取県,鳥取市,湖南児童館中央人権福祉センター湖南分館,鳥取県鳥取市松原427-14,35.486290164105,134.13277888634,1,0,0,1,1,1,60人,,避難所
鳥取県,西伯郡伯耆町,久古公民館,鳥取県西伯郡伯耆町久古,35.38061195303,133.42770356597,1,0,0,-,-,-,,,一時避難所
鳥取県,東伯郡琴浦町,漁村環境改善センター,鳥取県東伯郡琴浦町赤碕,35.51108022474,133.65524779326,1,0,0,0,1,0,100人,,一時避難所
鳥取県,東伯郡琴浦町,ポート赤碕,鳥取県東伯郡琴浦町別所,35.506803286643,133.66224652379,1,0,0,1,1,1,1300人,,一時避難所
鳥取県,東伯郡北栄町,亀谷農村公園,鳥取県東伯郡北栄町亀谷674-3,35.468522200575,133.74990447249,-,-,-,1,0,0,600人,,一時避難所
鳥取県,東伯郡三朝町,竹田保育園,鳥取県東伯郡三朝町穴鴨201-4,35.326196963143,133.83704850913,1,0,0,-,-,-,,,避難場所
鳥取県,鳥取市,三谷子ども広場,鳥取県鳥取市河原町三谷350-1,35.390374165228,134.2236699412,-,-,-,-,-,-,,,一時避難所
鳥取県,東伯郡琴浦町,田越公民館,鳥取県東伯郡琴浦町田越,35.493024666631,133.68497581069,1,0,0,1,1,1,56人,,一時避難所
鳥取県,米子市,米子工業品等学校野球グラウンド,鳥取県米子市錦海町3丁目1-1,35.420022013219,133.3214706805,-,-,-,-,-,-,,,避難場所
鳥取県,米子市,旧日新小学校,鳥取県米子市福市281,35.40070653919,133.36822217178,1,0,0,-,-,-,600人,,避難施設・避難所
鳥取県,鳥取市,行徳苑,鳥取県鳥取市行徳3丁目327,35.500390096839,134.22278424644,1,0,0,1,0,1,60人,,避難所
鳥取県,鳥取市,湖山西小学校,鳥取県鳥取市湖山町西1丁目541,35.522289092318,134.16963554007,1,0,0,1,1,1,1890人,,一時避難所・避難所
鳥取県,米子市,福生東公民館,鳥取県米子市皆生4-8-35,35.448544642698,133.36190599776,1,0,0,-,-,-,85人,,避難所
鳥取県,東伯郡琴浦町,徳万地区公民館,鳥取県東伯郡琴浦町徳万,35.501171743972,133.69384478517,1,0,0,1,1,0,60人,,一時避難所
鳥取県,鳥取市,用瀬保育園,鳥取県鳥取市用瀬町用瀬831-2,35.342178476656,134.2078952634,1,0,0,1,1,1,260人,,避難所
鳥取県,米子市,米子自動車学校避難所,鳥取県米子市旗ヶ崎2丁目15-1,35.437509170836,133.31697563852,-,-,-,-,-,-,,,避難場所
鳥取県,鳥取市,JR西日本国英駅,鳥取県鳥取市河原町釜口807-2,35.373032943443,134.21771574355,-,-,-,-,-,-,,,一時避難所
鳥取県,米子市,福生東小学校,鳥取県米子市皆生5-18-32,35.44758632495,133.36027003212,1,0,0,-,-,-,700人,,避難場所・避難所
鳥取県,東伯郡琴浦町,八橋7区公民館,鳥取県東伯郡琴浦町八橋,35.505727027134,133.66849563039,1,0,0,1,1,0,29人,,一時避難所
鳥取県,東伯郡北栄町,JA鳥取中央北条支所,鳥取県東伯郡北栄町江北,35.481686852613,133.8408752416,1,0,0,1,1,0,370人,,一時避難所
鳥取県,米子市,淀江体育館,鳥取県米子市淀江町西原805,35.450320158997,133.41706176233,1,0,0,-,-,-,1613人,,避難施設・避難所
鳥取県,東伯郡北栄町,緑ヶ丘団地公民館,鳥取県東伯郡北栄町由良宿660-15,35.487976215867,133.75135833201,1,0,0,1,1,0,,,一時避難所
鳥取県,鳥取市,西品治児童館,鳥取県鳥取市西品治533-3,35.509974815856,134.21641511028,1,0,0,1,0,1,80人,,避難所
鳥取県,西伯郡南部町,法勝寺中学校,鳥取県西伯郡南部町馬場630-1,35.336627216051,133.32311308969,1,0,0,-,-,-,300人,,避難所
鳥取県,東伯郡北栄町,西園集落センター,鳥取県東伯郡北栄町西園,35.490019895864,133.76729371525,1,0,0,-,-,-,50人,,一時避難所
鳥取県,西伯郡大山町,名和小学校西校舎,鳥取県西伯郡大山町古御堂177,35.493384243463,133.47801018532,1,0,0,-,-,-,,,避難場所・避難所
鳥取県,日野郡日南町,豊栄天体館,鳥取県日野郡日南町豊栄647,35.089434316536,133.26881108951,1,0,0,-,-,-,30人,,避難所
鳥取県,日野郡日南町,日南町人権センター,鳥取県日野郡日南町三栄1715-8,35.155213479676,133.26931166259,1,0,0,-,-,-,100人,,避難所
鳥取県,鳥取市,米里小学校,鳥取県鳥取市古郡家75-1,35.460303691943,134.23846731302,1,0,0,1,1,1,720人,,一時避難所・避難所
鳥取県,米子市,和田荒神集会所,鳥取県米子市和田町3279-5,35.487794926589,133.27213100129,1,0,0,-,-,-,50人,,避難所
鳥取県,日野郡日南町,阿毘縁会館,鳥取県日野郡日南町阿毘縁1238-1,35.211091468637,133.2010479742,1,0,0,-,-,-,30人,,避難所
鳥取県,鳥取市,神戸地区公民館,鳥取県鳥取市下砂見751,35.416706742069,134.16770059,1,0,0,1,1,1,80人,,避難所
鳥取県,東伯郡琴浦町,以西小学校体育館,鳥取県東伯郡琴浦町宮木239,35.466409134841,133.63105697991,1,0,0,1,1,1,1100人,,避難所
鳥取県,鳥取市,美萩野深沢公園,鳥取県鳥取市美萩野3丁目295,35.523053154977,134.13416778866,-,-,-,-,-,-,,,一時避難所
鳥取県,鳥取市,長和瀬漁村センター,鳥取県鳥取市青谷町長和瀬1072-9,35.521215417985,133.97255016992,1,0,0,1,1,0,90人,,避難所
鳥取県,東伯郡湯梨浜町,舎人会館,鳥取県東伯郡湯梨浜町方地1208,35.481082076131,133.91934365512,1,0,0,1,1,1,80人,,避難場所・避難所
鳥取県,八頭郡智頭町,大坪公民館,鳥取県八頭郡智頭町三吉,35.226147974392,134.2277876248,1,0,0,1,1,0,15人,,避難場所・一時避難所
鳥取県,米子市,湊山体育館,鳥取県米子市大谷町13,35.418938853877,133.33264201425,1,0,0,-,-,-,450人,,避難所
鳥取県,西伯郡伯耆町,駅前公民館,鳥取県西伯郡伯耆町吉長,35.386093041164,133.40814551712,1,0,0,-,-,-,,,一時避難所
鳥取県,東伯郡北栄町,北条島集落センター,鳥取県東伯郡北栄町北条島,35.475341568184,133.81235851855,1,0,0,1,1,0,95人,,一時避難所
鳥取県,東伯郡北栄町,東園浜コミュニティーセンター,鳥取県東伯郡北栄町東園,35.490404579244,133.7769637969,1,0,0,1,1,1,30人,,一時避難所
鳥取県,日野郡日野町,徳本氏駐車場,鳥取県日野郡日野町根雨,35.237872121085,133.44132880074,-,-,-,-,-,-,,,一時避難所
鳥取県,鳥取市,西中学校,鳥取県鳥取市寿町907,35.506586578857,134.22569217575,1,0,0,1,1,1,1580人,,一時避難所・避難所
鳥取県,日野郡日南町,にちなん保育園,鳥取県日野郡日南町霞740-1,35.165569138276,133.30857113711,1,0,0,-,-,-,250人,,一時避難所・避難所
鳥取県,米子市,前田燐保館,鳥取県米子市尾高1424-11,35.421300811677,133.40383641792,1,0,0,-,-,-,45人,,避難所
鳥取県,鳥取市,小倉作業場,鳥取県鳥取市河原町小倉372-2,35.356128063089,134.17826012115,1,0,0,1,1,1,80人,,避難所
鳥取県,西伯郡伯耆町,西伯広域農道待避所,鳥取県西伯郡伯耆町小野,35.360870815147,133.42191471623,-,-,-,-,-,-,,,一時避難所
鳥取県,米子市,就将公民館,鳥取県米子市大谷町1-1,35.420922051164,133.33161703113,1,0,0,-,-,-,95人,,避難所
鳥取県,鳥取市,国府町運動場,鳥取県鳥取市国府町町屋723,35.474154761352,134.27613102841,-,-,-,-,-,-,,,一時避難所
鳥取県,東伯郡湯梨浜町,ハワイアロハホール,鳥取県東伯郡湯梨浜町はわい長瀬584,35.487270124766,133.8657588399,1,0,0,1,1,1,1110人,,避難場所・避難所
鳥取県,西伯郡伯耆町,B＆G海洋センター,鳥取県西伯郡伯耆町大原,35.382992873168,133.45870847234,1,0,0,-,-,-,,,一時避難所・指定避難場所
鳥取県,鳥取市,空浜公園,鳥取県鳥取市青谷町青谷3008,35.521522681206,134.00201542324,-,-,-,-,-,-,,,一時避難所
鳥取県,米子市,富益中集会所,鳥取県米子市富益町2388-1,35.475616138709,133.28067737557,1,0,0,-,-,-,50人,,避難所
鳥取県,日野郡日野町,日野町老人福祉センター,鳥取県日野郡日野町黒坂1247-1,35.208951588792,133.38567298106,1,0,0,-,-,-,150人,,避難所
鳥取県,鳥取市,明徳小学校,鳥取県鳥取市行徳1丁目201-3,35.496746036982,134.22120401106,1,0,0,1,1,1,1100人,,一時避難所・避難所
鳥取県,日野郡日野町,黒坂7区集会所,鳥取県日野郡日野町黒坂,35.214257399332,133.38578942779,-,-,-,-,-,-,,,一時避難所
鳥取県,西伯郡大山町,保健福祉センターだいせん,鳥取県西伯郡大山町末長503,35.481114908864,133.4593673353,1,0,0,-,-,-,,,避難場所・避難所
鳥取県,東伯郡湯梨浜町,浅津保育所,鳥取県東伯郡湯梨浜町下浅津235-1,35.487414850082,133.87923783733,1,0,0,0,1,0,,,一時避難所
鳥取県,米子市,心身障害者福祉センター,鳥取県米子市皆生新田2-10-1,35.45119163197,133.3681831586,1,0,0,-,-,-,100人,,避難所
鳥取県,西伯郡伯耆町,みどり公民館,鳥取県西伯郡伯耆町大殿,35.392145893612,133.38859029682,1,0,0,-,-,-,,,一時避難所
鳥取県,日野郡日南町,まなび宿ひのかみ（旧日野上小学校）,鳥取県日野郡日南町三栄1091,35.159007634098,133.27991613525,1,0,0,-,-,-,800人,,一時避難所・避難所
鳥取県,鳥取市,松保地区公民館,鳥取県鳥取市布勢543-3,35.50290561333,134.17700216627,1,0,0,1,1,1,110人,,避難所
鳥取県,倉吉市,倉吉市高城公民館,鳥取県倉吉市上福田479,35.427590059495,133.74964402035,1,0,0,1,0,1,52人,,指定一時避難所
鳥取県,鳥取市,松原公民館,鳥取県鳥取市用瀬町安蔵312-4,35.308301353034,134.18363997402,1,0,0,1,1,1,20人,,一時避難所・避難所
鳥取県,鳥取市,清内谷集会所,鳥取県鳥取市福部町左近687-1,35.495390502539,134.31770110569,1,0,0,1,1,1,10人,,避難所
鳥取県,西伯郡南部町,つくし保育園,鳥取県西伯郡南部町阿賀938,35.361566678089,133.33089518123,1,0,0,-,-,-,100人,,避難所
鳥取県,米子市,すみれ保育園,鳥取県米子市愛宕町15-1,35.422221896885,133.32930607488,1,0,0,-,-,-,80人,,避難所
鳥取県,鳥取市,西谷農村集会所,鳥取県鳥取市佐治町高山227-11,35.333557209861,134.11885043173,1,0,0,1,1,1,70人,,避難所
鳥取県,東伯郡琴浦町,上伊勢公民館,鳥取県東伯郡琴浦町上伊勢,35.489125228014,133.70111160349,1,0,0,1,1,1,24人,,一時避難所
鳥取県,米子市,夜見公民館,鳥取県米子市夜見町1679-11,35.465420289142,133.29652852957,1,0,0,-,-,-,155人,,避難所
鳥取県,倉吉市,倉吉市小鴨公民館やまびこ人権文化センター,鳥取県倉吉市中河原772-6,35.415163313579,133.80305212752,1,0,0,1,1,1,69人,,指定一時避難所
鳥取県,東伯郡湯梨浜町,花見コミュニティー施設,鳥取県東伯郡湯梨浜町はわい温泉833,35.465711797787,133.87895908061,1,0,0,1,1,1,230人,,避難場所・避難所
鳥取県,鳥取市,紺屋町集会所,鳥取県鳥取市鹿野町鹿野589-4,35.46226635516,134.06849386682,1,0,0,1,1,1,70人,,避難所
鳥取県,鳥取市,田島第一公園,鳥取県鳥取市田島771,35.512293245967,134.22049355557,-,-,-,-,-,-,,,一時避難所
鳥取県,倉吉市,倉吉市立上井保育園,鳥取県倉吉市福庭町2丁目152番地,35.468785787427,133.84825270503,1,0,0,1,1,1,64人,,指定避難所・福祉避難所
鳥取県,鳥取市,城北体育館,鳥取県鳥取市丸山町310-1,35.51959055285,134.22648885721,1,0,0,1,1,1,340人,,避難所
鳥取県,東伯郡琴浦町,浦安小学校体育館,鳥取県東伯郡琴浦町下伊勢504,35.491503245359,133.69851949146,1,0,0,1,1,1,2174人,,避難所
鳥取県,鳥取市,鳥取商業高等学校,鳥取県鳥取市湖山町北2丁目410,35.519557938427,134.17508071726,1,0,0,1,1,1,7990人,,一時避難所・避難所
鳥取県,東伯郡三朝町,三朝町総合スポーツセンター,鳥取県東伯郡三朝町山田214-1,35.413759779099,133.88709574668,1,0,0,-,-,-,,,避難場所
鳥取県,八頭郡若桜町,若桜中学校,鳥取県八頭郡若桜町浅井289,35.335539648408,134.40511314047,1,0,0,-,-,-,790人,,避難所
鳥取県,日野郡江府町,江府中学校,鳥取県日野郡江府町江尾714,35.276159832185,133.47926222188,1,0,0,-,-,-,1000人,,避難所
鳥取県,鳥取市,浜村小学校,鳥取県鳥取市気高町八幡382-3,35.510340376,134.04413339374,1,0,0,1,1,1,1650人,,一時避難所・避難所
鳥取県,鳥取市,若葉台小学校,鳥取県鳥取市若葉台南2丁目17-1,35.447360770556,134.26191810952,1,0,0,1,1,1,1790人,,一時避難所・避難所
鳥取県,米子市,米子市公会堂,鳥取県米子市角盤町2丁目61,35.433240325642,133.33284152014,-,-,-,-,-,-,300人,,避難場所
鳥取県,鳥取市,社保育園,鳥取県鳥取市用瀬町安蔵887-1,35.315109240602,134.1942415245,1,0,0,1,1,1,330人,,避難所
鳥取県,鳥取市,家奥林業広場,鳥取県鳥取市用瀬町家奥466-1,35.326533782525,134.1887951218,-,-,-,-,-,-,,,一時避難所
鳥取県,西伯郡伯耆町,大山望,鳥取県西伯郡伯耆町,35.358235815858,133.45055409816,1,0,0,-,-,-,,,指定避難場所
鳥取県,日野郡江府町,柿原活性化施設,鳥取県日野郡江府町柿原1351番地,35.315132679325,133.48728101984,1,0,0,-,-,-,160人,,避難所
鳥取県,鳥取市,美保小学校,鳥取県鳥取市吉成1丁目10-25,35.483633908948,134.22371527405,1,0,0,1,1,1,1690人,,一時避難所・避難所
鳥取県,西伯郡伯耆町,岸本老人福祉センター先ゲートボール場,鳥取県西伯郡伯耆町大殿,35.387285199733,133.39698911631,-,-,-,-,-,-,,,一時避難所
鳥取県,鳥取市,大茅スポーツ広場,鳥取県鳥取市国府町栃本463,35.469485050613,134.36357589567,-,-,-,-,-,-,,,一時避難所
鳥取県,倉吉市,倉吉市立社小学校,鳥取県倉吉市国分寺88番地,35.431605606185,133.7929612887,1,0,0,1,1,1,165人,,指定避難所
鳥取県,八頭郡八頭町,郡家西地区公民館,鳥取県八頭郡八頭町郡家559,35.407087333285,134.24882629956,1,0,0,1,0,0,110人,,広域避難所
鳥取県,西伯郡南部町,おおくに田園スクエア,鳥取県西伯郡南部町原868-4,35.349972968226,133.32157647435,1,0,0,-,-,-,200人,,避難所
鳥取県,西伯郡南部町,西伯小学校,鳥取県西伯郡南部町法勝寺336,35.342818224452,133.32777900446,1,0,0,-,-,-,300人,,避難所
鳥取県,鳥取市,円護寺吉川公園,鳥取県鳥取市円護寺1159,35.515123995019,134.24589089787,-,-,-,-,-,-,,,一時避難所
鳥取県,東伯郡琴浦町,赤碕地区公民館,鳥取県東伯郡琴浦町赤碕1547-5,35.513453113125,133.64955159417,1,0,0,0,1,0,100人,,一時避難所
鳥取県,鳥取市,末恒小学校,鳥取県鳥取市伏野2256-61,35.526140625966,134.13601361827,1,0,0,1,1,1,1840人,,一時避難所・避難所
鳥取県,鳥取市,引地公民館,鳥取県鳥取市青谷町絹見394-3,35.499606784231,133.96084912507,1,0,0,1,1,1,20人,,避難所
鳥取県,鳥取市,中郷グラウンド,鳥取県鳥取市青谷町亀尻257-2,35.503348317004,133.98613353158,-,-,-,-,-,-,,,一時避難所
鳥取県,米子市,淀江町児童遊園,鳥取県米子市淀江町淀江681-2,35.458919305756,133.42550203458,-,-,-,-,-,-,,,避難場所
鳥取県,鳥取市,（旧）河内保育所（園庭）,鳥取県鳥取市鹿野町河内827,35.41717074135,134.01949357085,-,-,-,-,-,-,,,一時避難所
鳥取県,米子市,鳥取県西部総合事務所前庭及び駐車場,鳥取県米子市糀町1丁目160,35.427699191127,133.33916342019,-,-,-,-,-,-,,,避難場所
鳥取県,東伯郡琴浦町,農業者トレーニングセンター,鳥取県東伯郡琴浦町赤碕1938-1,35.516561507353,133.63229365246,1,0,0,1,1,1,300人,,避難所
鳥取県,西伯郡伯耆町,坂長農村公園,鳥取県西伯郡伯耆町坂長,35.383208007562,133.38849691691,-,-,-,-,-,-,,,一時避難所
鳥取県,東伯郡北栄町,北条農村環境改善センター,鳥取県東伯郡北栄町田井7-1,35.480506187798,133.82250794734,1,0,0,1,0,1,140人,,町内避難所
鳥取県,西伯郡大山町,セミナーハウス,鳥取県西伯郡大山町,35.514526262478,133.58015764922,1,0,0,-,-,-,,,避難場所
鳥取県,東伯郡北栄町,栄保育所,鳥取県東伯郡北栄町下種372,35.455002010133,133.74013267209,1,0,0,-,-,-,700人,,避難所
鳥取県,鳥取市,（旧）湖南中学校,鳥取県鳥取市吉岡温泉町789-1,35.484856849641,134.12837663476,1,0,0,1,1,1,1050人,,一時避難所・避難所
鳥取県,境港市,竜ケ山公園,鳥取県境港市三軒屋町4043-5,35.506166640692,133.22549562372,1,0,0,0,0,1,39730人,,収容避難所・津波一時避難所
鳥取県,鳥取市,梨原多目的集会所,鳥取県鳥取市佐治町高山452-11,35.339956370545,134.11659475715,1,0,0,1,1,1,40人,,避難所
鳥取県,日野郡日南町,まなび宿あびれ（旧小学校）,鳥取県日野郡日南町阿毘縁1248,35.211866368961,133.20027850964,1,0,0,-,-,-,300人,,避難所
鳥取県,米子市,御崎集会所,鳥取県米子市大篠津1846-1,35.490549784918,133.25893510051,1,0,0,-,-,-,50人,,避難所
鳥取県,倉吉市,倉吉市立関金小学校,鳥取県倉吉市関金町関金宿666番地,35.365511374225,133.75009296941,1,0,0,1,1,1,200人,,指定避難所
鳥取県,鳥取市,東郷体育館,鳥取県鳥取市北村32-1,35.478836656928,134.19313220455,1,0,0,1,1,1,410人,,避難所
鳥取県,倉吉市,倉吉市立鴨川中学校,鳥取県倉吉市関金町大鳥居25番地1,35.371621598162,133.75564809556,1,0,0,1,1,1,189人,,指定避難所
鳥取県,八頭郡若桜町,わかさ生涯学習情報館,鳥取県八頭郡若桜町若桜751,35.342247410745,134.3968830865,1,0,0,-,-,-,580人,,一時避難所
鳥取県,鳥取市,立川公園,鳥取県鳥取市立川町3丁目455,35.491024860689,134.24475477318,-,-,-,-,-,-,,,一時避難所
鳥取県,鳥取市,徳吉公民館,鳥取県鳥取市河原町徳吉240-1,35.39827604057,134.20805927034,1,0,0,1,0,1,20人,,避難所
鳥取県,日野郡日南町,つるぎ会館,鳥取県日野郡日南町上萩山1103-3,35.134511428063,133.18023845032,1,0,0,-,-,-,50人,,避難所
鳥取県,日野郡日野町,上菅駅前広場,鳥取県日野郡日野町上菅,35.194151085155,133.34197100312,-,-,-,-,-,-,,,一時避難所
鳥取県,鳥取市,田島公共空地,鳥取県鳥取市田島650,35.511623095765,134.22301524844,-,-,-,-,-,-,,,一時避難所
鳥取県,東伯郡北栄町,みどり西公民館,鳥取県東伯郡北栄町江北,35.481027735208,133.83528503763,1,0,0,1,1,0,85人,,一時避難所
鳥取県,米子市,上部集会所,鳥取県米子市富益町1029-2,35.473660890215,133.2880877157,1,0,0,-,-,-,50人,,避難所
鳥取県,鳥取市,みはぎの台公園,鳥取県鳥取市美萩野5丁目494-74,35.516969488733,134.13145321783,-,-,-,-,-,-,,,一時避難所
鳥取県,鳥取市,みやこ保育園,鳥取県鳥取市国府町中郷895,35.472735644449,134.26755067775,1,0,0,1,1,1,230人,,一時避難所・避難所
鳥取県,日野郡日野町,井ノ原集会所,鳥取県日野郡日野町福長,35.194659330649,133.31439516757,-,-,-,-,-,-,30人,,一時避難所
鳥取県,鳥取市,倉田体育館,鳥取県鳥取市八坂49-1,35.451501389922,134.21638355421,1,0,0,1,0,1,320人,,避難所
鳥取県,鳥取市,漁村公園,鳥取県鳥取市青谷町青谷1959,35.531893197664,134.00450268355,-,-,-,-,-,-,,,一時避難所
鳥取県,東伯郡琴浦町,平岩記念会館,鳥取県東伯郡琴浦町田越,35.495486350656,133.68154289047,1,0,0,1,1,1,120人,,避難所
鳥取県,鳥取市,尾際生活改善センター,鳥取県鳥取市佐治町尾際352-4,35.330228011321,134.05268378622,1,0,0,1,1,1,120人,,避難所
鳥取県,鳥取市,用瀬中学校,鳥取県鳥取市用瀬町別府65,35.342219772092,134.19680708547,1,0,0,1,1,1,950人,,一時避難所・避難所
鳥取県,東伯郡湯梨浜町,桜コミュニティー施設,鳥取県東伯郡湯梨浜町松崎619,35.476589003659,133.90405221749,1,0,0,1,1,1,270人,,避難場所・避難所
鳥取県,鳥取市,高草公園,鳥取県鳥取市古海1056,35.498382563249,134.20804208152,-,-,-,-,-,-,,,一時避難所
鳥取県,東伯郡北栄町,由良宿6区集会所,鳥取県東伯郡北栄町妻波96-2,35.496087624383,133.75000442196,1,0,0,0,1,0,,,一時避難所
鳥取県,鳥取市,山上バス停留所,鳥取県鳥取市河原町山上88-1,35.365668117291,134.16650415481,-,-,-,-,-,-,,,一時避難所
鳥取県,東伯郡北栄町,向山団地公民館,鳥取県東伯郡北栄町北条島438-10,35.470271411707,133.81685643132,1,0,0,-,-,-,,,一時避難所
鳥取県,鳥取市,昌福寺,鳥取県鳥取市佐治町大井278,35.333827631673,134.15041458224,1,0,0,1,1,1,150人,,避難所
鳥取県,東伯郡湯梨浜町,田後地区公民館,鳥取県東伯郡湯梨浜町田後576,35.481239948377,133.85409914662,1,0,0,0,1,0,,,一時避難所
鳥取県,倉吉市,まちかどステーション,鳥取県倉吉市大正町1067-29,35.434628295296,133.82180278151,1,0,0,-,-,-,71人,,指定避難所
鳥取県,西伯郡大山町,中山小学校,鳥取県西伯郡大山町下甲1022,35.519320078086,133.57315885223,1,0,0,-,-,-,,,避難場所・避難所
鳥取県,鳥取市,美保地区公民館,鳥取県鳥取市吉成2丁目5-22,35.485636465208,134.22486230986,1,0,0,1,1,1,120人,,避難所
鳥取県,東伯郡湯梨浜町,長瀬地区公民館,鳥取県東伯郡湯梨浜町はわい長瀬1135,35.491025124724,133.86366178223,1,0,0,0,1,0,,,一時避難所
鳥取県,境港市,旧水産高等学校教室等,鳥取県境港市中野町2000,35.530733626509,133.22741109397,1,0,0,-,-,-,9530人,,収容避難所
鳥取県,東伯郡琴浦町,向原公民館,鳥取県東伯郡琴浦町八幡,35.509484277959,133.62086187136,1,0,0,1,1,1,30人,,一時避難所
鳥取県,米子市,小波上農村公園,鳥取県米子市淀江町小波634-3,35.440382229544,133.40844202974,-,-,-,-,-,-,,,避難場所
鳥取県,東伯郡琴浦町,扇町公民館,鳥取県東伯郡琴浦町赤碕,35.507359864156,133.63554785666,1,0,0,1,1,1,50人,,一時避難所
鳥取県,鳥取市,河原地区スポーツ広場,鳥取県鳥取市河原町長瀬48-1,35.408388279634,134.20002591615,-,-,-,-,-,-,,,一時避難所
鳥取県,西伯郡伯耆町,二部遊学館,鳥取県西伯郡伯耆町二部,35.299911421538,133.4161904374,1,0,0,-,-,-,,,一時避難所
鳥取県,西伯郡伯耆町,瑞応寺,鳥取県西伯郡伯耆町吉定,35.376017799111,133.41532327216,1,0,0,-,-,-,,,一時避難所
鳥取県,米子市,県公民館,鳥取県米子市河岡5,35.403161258324,133.40943632932,1,0,0,-,-,-,85人,,避難所
鳥取県,日野郡日野町,村上氏宅前県道,鳥取県日野郡日野町黒坂,35.215504829245,133.37786255187,-,-,-,-,-,-,,,一時避難所
鳥取県,東伯郡湯梨浜町,長瀬中央公民館,鳥取県東伯郡湯梨浜町はわい長瀬,35.491004955833,133.86484165032,1,0,0,0,1,0,,,一時避難所
鳥取県,米子市,御台場公園,鳥取県米子市淀江町今津267-1,35.463738203648,133.42865987908,-,-,-,-,-,-,,,避難場所
鳥取県,八頭郡智頭町,市瀬公民館,鳥取県八頭郡智頭町市瀬,35.288639100638,134.22104955943,1,0,0,1,1,0,,,避難場所
鳥取県,倉吉市,鳥取県立農業大学校,鳥取県倉吉市関金町大鳥居1238番地,35.38146454156,133.75723405117,1,0,0,1,1,1,76人,,指定避難所
鳥取県,日野郡日南町,（分園）福栄保育園,鳥取県日野郡日南町福塚1002-1,35.116045919321,133.30150184156,1,0,0,-,-,-,100人,,一時避難所
鳥取県,鳥取市,神戸児童館,鳥取県鳥取市下砂見751-1,35.416906727697,134.16796435879,1,0,0,1,1,1,100人,,一時避難所・避難所
鳥取県,鳥取市,西佐治会館,鳥取県鳥取市佐治町加茂1547,35.329559817766,134.09944386092,1,0,0,1,1,1,150人,,避難所
鳥取県,日野郡日南町,井原部落公民館,鳥取県日野郡日南町神福,35.111343660635,133.30610299491,1,0,0,-,-,-,30人,,避難所
鳥取県,倉吉市,倉吉市上小鴨公民館,鳥取県倉吉市上古川216-3,35.398528973279,133.78896180102,1,0,0,1,1,1,113人,,指定一時避難所
鳥取県,日野郡日南町,下阿毘縁集会所,鳥取県日野郡日南町下阿毘縁1085-1,35.216382874224,133.2129008301,1,0,0,-,-,-,30人,,避難所
鳥取県,鳥取市,倉田小学校,鳥取県鳥取市八坂54-1,35.450776452162,134.215833633,1,0,0,1,1,1,980人,,一時避難所・避難所
鳥取県,東伯郡琴浦町,杉下公民館,鳥取県東伯郡琴浦町杉下,35.470747388779,133.7030119102,1,0,0,1,1,1,25人,,一時避難所
鳥取県,鳥取市,大樋井公園,鳥取県鳥取市新78,35.481914951507,134.2369806899,-,-,-,-,-,-,,,一時避難所
鳥取県,鳥取市,西町緑地,鳥取県鳥取市西町4丁目105,35.503700985636,134.23307769882,-,-,-,-,-,-,,,一時避難所
鳥取県,鳥取市,逢坂地区公民館,鳥取県鳥取市気高町山宮637-4,35.48032748125,134.03788488958,1,0,0,1,1,1,100人,,避難所
鳥取県,岩美郡岩美町,旧田後小学校,鳥取県岩美郡岩美町田後159,35.590545690326,134.31197921588,1,0,0,-,-,-,1210人,,避難所・広域避難場所
鳥取県,日野郡日野町,光明寺前,鳥取県日野郡日野町黒坂1810,35.20426033679,133.38283447645,-,-,-,-,-,-,,,一時避難所
鳥取県,日野郡日野町,井沢氏車庫前,鳥取県日野郡日野町高尾,35.220291728614,133.43911409779,-,-,-,-,-,-,,,一時避難所
鳥取県,鳥取市,日進地区公民館,鳥取県鳥取市吉方温泉1丁目131,35.495962245446,134.23307294377,1,0,0,1,1,1,90人,,避難所
鳥取県,米子市,巌公民館,鳥取県米子市蚊屋291-1,35.427077622211,133.38377967221,1,0,0,-,-,-,115人,,避難所
鳥取県,米子市,福米東小学校,鳥取県米子市東福原5-7-1,35.444944923981,133.34417373953,1,0,0,-,-,-,1000人,,避難場所・避難所
鳥取県,鳥取市,美萩野5公共空地,鳥取県鳥取市美萩野5丁目510,35.517788773272,134.13107273197,-,-,-,-,-,-,,,一時避難所
鳥取県,西伯郡日吉津村,海川公民館新田分館,鳥取県西伯郡日吉津村日吉津1695-4,35.449539245301,133.38897873969,1,0,0,-,-,-,40人,,避難場所
鳥取県,西伯郡伯耆町,岸本老人福祉センター,鳥取県西伯郡伯耆町大殿1030,35.386429382804,133.39640968074,1,0,0,-,-,-,300人,,一時避難所
鳥取県,東伯郡琴浦町,立石区公民館,鳥取県東伯郡琴浦町八橋,35.499157217832,133.6712504047,1,0,0,1,1,1,20人,,一時避難所
鳥取県,西伯郡大山町,光徳地区多目的研修施設,鳥取県西伯郡大山町東坪532,35.517569979787,133.52152936945,1,0,0,-,-,-,,,避難所
鳥取県,鳥取市,湖山北公園,鳥取県鳥取市湖山町北4丁目129,35.523859047082,134.17773283785,-,-,-,-,-,-,,,一時避難所
鳥取県,八頭郡智頭町,米井公民館,鳥取県八頭郡智頭町南方,35.254005434709,134.24448449893,1,0,0,1,1,0,,,避難場所
鳥取県,鳥取市,中ノ郷地区公民館,鳥取県鳥取市覚寺118,35.518890872727,134.23534088085,1,0,0,1,1,1,110人,,避難所
鳥取県,鳥取市,山の手体育館,鳥取県鳥取市吉方町1丁目201,35.495108492644,134.23927103409,1,0,0,1,1,1,300人,,避難所
鳥取県,鳥取市,北野神社,鳥取県鳥取市河原町天神原246-1,35.388329986826,134.18513561834,-,-,-,-,-,-,,,一時避難所
鳥取県,米子市,淀江小学校,鳥取県米子市淀江町西原244-2,35.451267323099,133.42232222821,1,0,0,-,-,-,440人,,避難施設・避難所
鳥取県,鳥取市,気高町勤労者体育センター,鳥取県鳥取市気高町宝木904,35.515277566643,134.08172313864,1,0,0,1,1,1,560人,,避難所
鳥取県,日野郡日野町,旧日野町青年の家,鳥取県日野郡日野町濁谷1149-1,35.20107430222,133.44606985353,-,-,-,-,-,-,200人,,一時避難所
鳥取県,八頭郡智頭町,河一集会所,鳥取県八頭郡智頭町智頭,35.268295316463,134.22853117253,1,0,0,1,1,0,,,避難場所
鳥取県,鳥取市,鳥取東高等学校,鳥取県鳥取市立川町5丁目210,35.489622257189,134.24559093494,1,0,0,1,1,1,3840人,,一時避難所・避難所
鳥取県,鳥取市,中井二児童遊園地,鳥取県鳥取市河原町中井53-9,35.381738719751,134.17475885974,-,-,-,-,-,-,,,一時避難所
鳥取県,境港市,外江公民館,鳥取県境港市外江町2062-1,35.535971607367,133.21016742872,1,0,0,0,0,1,90人,,収容避難所・津波一時避難所
鳥取県,東伯郡北栄町,江北浜多目的研修集会施設,鳥取県東伯郡北栄町江北,35.491303620302,133.84632532197,1,0,0,1,1,1,51人,,一時避難所
鳥取県,鳥取市,日置谷体育館,鳥取県鳥取市青谷町奥崎388,35.49872440044,134.00967554499,1,0,0,1,1,1,340人,,一時避難所・避難所
鳥取県,境港市,中浜東保育所遊戯室,鳥取県境港市小篠津町820,35.50795770289,133.24480253222,1,0,0,-,-,-,1030人,,収容避難所
鳥取県,境港市,幸神一号公園,鳥取県境港市幸神町347,35.509594577765,133.24000801023,-,-,-,-,-,-,1130人,,収容避難所
鳥取県,岩美郡岩美町,旧東小学校,鳥取県岩美郡岩美町陸上33,35.60000687767,134.36056654905,1,0,0,-,-,-,2299人,,避難所・広域避難場所
鳥取県,八頭郡智頭町,（旧）富沢小学校,鳥取県八頭郡智頭町新見382,35.256306195575,134.20107897672,1,0,0,1,1,0,660人,,避難場所・一時避難所
鳥取県,東伯郡湯梨浜町,とまりグラウンドゴルフのふる里公園クラブハウス,鳥取県東伯郡湯梨浜町泊1313,35.516229596675,133.94545571338,1,0,0,1,1,1,2140人,,避難場所・避難所
鳥取県,西伯郡伯耆町,宇代公会堂,鳥取県西伯郡伯耆町宇代,35.342025985632,133.43329449241,1,0,0,-,-,-,28人,,一時避難所
鳥取県,八頭郡智頭町,鳥巣公民館,鳥取県八頭郡智頭町市瀬,35.282104691644,134.22818537507,1,0,0,1,1,0,,,避難場所
鳥取県,鳥取市,河内上条集会所,鳥取県鳥取市鹿野町河内2585-3,35.412013010077,134.0232713845,1,0,0,1,1,1,80人,,避難所
鳥取県,鳥取市,佐治人権福祉センター,鳥取県鳥取市佐治町古市71-3,35.341496377402,134.15853862362,1,0,0,1,1,1,170人,,避難所
鳥取県,鳥取市,小鷲河地区公民館,鳥取県鳥取市鹿野町鷲峯741-1,35.446456418929,134.02943649688,1,0,0,1,1,1,180人,,避難所
鳥取県,東伯郡琴浦町,家畜改良センター（鳥取牧場事務所）,鳥取県東伯郡琴浦町出上,35.505164348133,133.63741924052,1,0,0,1,1,1,30人,,一時避難所
鳥取県,鳥取市,千代テニス場,鳥取県鳥取市古海838,35.501440549011,134.21293152549,-,-,-,-,-,-,,,一時避難所
鳥取県,日野郡日野町,下榎集会所,鳥取県日野郡日野町下榎156-3,35.230896937741,133.41553297138,1,0,0,-,-,-,80人,,避難所
鳥取県,鳥取市,湖山地区公民館,鳥取県鳥取市湖山町北6丁目334,35.520997874401,134.18182894888,1,0,0,1,1,1,120人,,避難所
鳥取県,東伯郡湯梨浜町,羽衣会館,鳥取県東伯郡湯梨浜町長和田506,35.465212204794,133.88007458263,1,0,0,1,1,1,90人,,避難場所・避難所
鳥取県,東伯郡湯梨浜町,泊2区公民館,鳥取県東伯郡湯梨浜町泊,35.513825274047,133.94095923244,1,0,0,0,1,0,19人,,一時避難所
鳥取県,鳥取市,今西広場,鳥取県鳥取市河原町小倉1-3,35.36518549743,134.17924056485,-,-,-,-,-,-,,,一時避難所
鳥取県,鳥取市,大村地区公民館,鳥取県鳥取市用瀬町鷹狩3-2,35.353296474313,134.20711467714,1,0,0,1,1,1,80人,,避難所
鳥取県,西伯郡伯耆町,小野構造改善センター,鳥取県西伯郡伯耆町小野325番地,35.361030990136,133.42138927222,1,0,0,-,-,-,,,一時避難所
鳥取県,西伯郡大山町,御来屋保育所,鳥取県西伯郡大山町御来屋116-9,35.513028032248,133.49849465468,1,0,0,-,-,-,,,避難場所
鳥取県,西伯郡南部町,さくら保育園,鳥取県西伯郡南部町天萬1445,35.373627630661,133.35789451146,1,0,0,-,-,-,50人,,避難所
鳥取県,倉吉市,倉吉市灘手公民館,鳥取県倉吉市尾原500-1,35.461565891602,133.77678719899,1,0,0,1,1,1,82人,,指定一時避難所
鳥取県,鳥取市,富桑体育館,鳥取県鳥取市西品治283-1,35.50615313515,134.21739295187,1,0,0,1,0,1,320人,,避難所
鳥取県,日野郡日野町,高尾公会堂前,鳥取県日野郡日野町高尾,35.224290425225,133.44106930007,-,-,-,-,-,-,,,一時避難所
鳥取県,西伯郡大山町,大山農村運動広場,鳥取県西伯郡大山町今在家631-1,35.440176880775,133.50136346219,1,0,0,-,-,-,,,避難場所
鳥取県,西伯郡伯耆町,大山帝京すこやか村,鳥取県西伯郡伯耆町須村,35.388373878539,133.43469580049,1,0,0,-,-,-,,,一時避難所・指定避難場所
鳥取県,米子市,南部体育館,鳥取県米子市榎原1449-4,35.400168993586,133.36147354228,1,0,0,-,-,-,450人,,避難所
鳥取県,鳥取市,片山集会所,鳥取県鳥取市河原町片山1033-1,35.407219964086,134.20744131855,1,0,0,1,1,1,20人,,避難所
鳥取県,鳥取市,細川コミュニティセンター,鳥取県鳥取市福部町細川302-1,35.557626624934,134.2789391499,1,0,0,1,1,1,160人,,避難所
鳥取県,岩美郡岩美町,岩美北小学校,鳥取県岩美郡岩美町浦富2128,35.587605300381,134.33173800116,1,0,0,-,-,-,4300人,,避難所・広域避難場所
鳥取県,東伯郡北栄町,由良保育所,鳥取県東伯郡北栄町由良宿1802-1,35.496133747933,133.75089684638,1,0,0,-,-,-,100人,,避難所
鳥取県,鳥取市,岩倉体育館,鳥取県鳥取市立川町6丁目164,35.485671429073,134.2505358104,1,0,0,1,1,1,270人,,避難所
鳥取県,日野郡日野町,黒坂小学校久住分校,鳥取県日野郡日野町黒坂576,35.238151656637,133.36355569553,1,0,0,-,-,-,80人,,避難所
鳥取県,鳥取市,東中学校,鳥取県鳥取市立川町6丁目164,35.486642403768,134.25069167089,1,0,0,1,1,1,2150人,,一時避難所・避難所
鳥取県,鳥取市,六日市公民館,鳥取県鳥取市河原町釜口249-2,35.368799104324,134.21569021024,1,0,0,1,1,1,30人,,避難所
鳥取県,倉吉市,倉吉市明倫公民館,鳥取県倉吉市福吉町2丁目1674,35.43261986534,133.8116788241,1,0,0,1,1,1,108人,,指定一時避難所
鳥取県,鳥取市,気高町中央公民館（浜村地区公民館）,鳥取県鳥取市気高町浜村11-1,35.510534769848,134.05537005818,1,0,0,1,1,1,480人,,避難所
鳥取県,東伯郡北栄町,ル・サンテリオン北条,鳥取県東伯郡北栄町土下,35.478861626905,133.82010342028,1,0,0,1,1,0,370人,,一時避難所
鳥取県,東伯郡北栄町,勤労者体育センター,鳥取県東伯郡北栄町由良宿223-2,35.48770959929,133.7527471144,1,0,0,0,1,0,160人,,町内避難所
鳥取県,東伯郡北栄町,亀谷運動場,鳥取県東伯郡北栄町亀谷,35.468528000467,133.74992057069,1,0,0,-,-,-,600人,,一時避難所
鳥取県,東伯郡北栄町,大誠体育館,鳥取県東伯郡北栄町瀬戸37-1,35.481666660947,133.77534792537,1,0,0,0,1,0,150人,,町内避難所
鳥取県,米子市,加茂体育館,鳥取県米子市河崎3270-2,35.46714253458,133.30967487735,1,0,0,-,-,-,450人,,避難所
鳥取県,鳥取市,鳥取緑風高等学校,鳥取県鳥取市湖山町南3丁目848,35.508824350083,134.17733804932,1,0,0,1,1,1,6470人,,一時避難所・避難所
鳥取県,鳥取市,修立小学校,鳥取県鳥取市立川町5丁目339,35.488630781344,134.2434105491,1,0,0,1,1,1,1120人,,一時避難所・避難所・広域避難場所
鳥取県,東伯郡北栄町,小河原団地公民館,鳥取県東伯郡北栄町江北200-14,35.487133605332,133.84605542294,1,0,0,0,1,0,,,一時避難所
鳥取県,八頭郡智頭町,杉の香団地集会所,鳥取県八頭郡智頭町智頭,35.265198874187,134.22205890164,1,0,0,1,1,0,,,避難場所
鳥取県,八頭郡八頭町,隼国民体育館,鳥取県八頭郡八頭町見槻中76,35.384170834468,134.26572710458,1,0,0,-,-,-,186人,,避難所・広域避難場所
鳥取県,鳥取市,鳥取県林業試験場（駐車場）,鳥取県鳥取市河原町稲常113,35.416974474965,134.20745214628,-,-,-,-,-,-,,,一時避難所
鳥取県,西伯郡南部町,ふるさと交流センター,鳥取県西伯郡南部町福成1455,35.370507425066,133.33302264001,1,0,0,-,-,-,300人,,避難所
鳥取県,八頭郡智頭町,栃本公民館,鳥取県八頭郡智頭町奥本,35.210093787797,134.20366916604,1,0,0,1,1,0,,,避難場所
鳥取県,鳥取市,酒津漁村センター（酒津地区公民館）,鳥取県鳥取市気高町酒津359-1,35.523881683077,134.08846542917,1,0,0,1,1,1,190人,,避難所
鳥取県,鳥取市,日置谷地区公民館,鳥取県鳥取市青谷町奥崎292,35.498032767568,134.00898951966,1,0,0,1,1,1,80人,,避難所
鳥取県,鳥取市,旭河集会所,鳥取県鳥取市河原町長瀬92-1,35.408222481655,134.19914770589,1,0,0,1,0,1,20人,,避難所
鳥取県,東伯郡北栄町,中央公民館,鳥取県東伯郡北栄町土下112,35.479068233407,133.82171409583,1,0,0,0,1,0,220人,,一時避難所・町内避難所
鳥取県,米子市,福生体育館,鳥取県米子市上福原2-1-10,35.443975570049,133.3563980019,1,0,0,-,-,-,450人,,避難所
鳥取県,東伯郡琴浦町,東伯文化センター,鳥取県東伯郡琴浦町下伊勢355-5,35.497596781393,133.6972581853,1,0,0,1,1,1,156人,,避難所
鳥取県,西伯郡伯耆町,こしき保育所,鳥取県西伯郡伯耆町坂長1830-1,35.383407729738,133.39121524307,1,0,0,-,-,-,100人,,一時避難所・指定避難場所
鳥取県,日野郡日野町,祇園遊園地,鳥取県日野郡日野町根雨,35.237445457225,133.44021671564,-,-,-,-,-,-,,,一時避難所
鳥取県,八頭郡八頭町,安部小学校体育館,鳥取県八頭郡八頭町安井宿1346,35.375528282583,134.30400216866,1,0,0,1,0,0,252人,,広域避難所
鳥取県,西伯郡伯耆町,大山ペンション展望駐車場,鳥取県西伯郡伯耆町小林,35.380559737243,133.46751431394,1,0,0,-,-,-,,,一時避難所
鳥取県,倉吉市,倉吉市立上灘小学校,鳥取県倉吉市上灘町136番地,35.428915468126,133.84089561833,1,0,0,1,1,1,114人,,指定避難所
鳥取県,倉吉市,倉吉市社公民館,鳥取県倉吉市国分寺74-1,35.43006682895,133.7903504628,1,0,0,1,1,1,134人,,指定一時避難所
鳥取県,日野郡日野町,日野中学校（校舎）,鳥取県日野郡日野町野田210,35.239129718151,133.43618056153,1,0,0,-,-,-,621人,,一時避難所・避難所
鳥取県,東伯郡琴浦町,桜ケ丘公民館,鳥取県東伯郡琴浦町出上,35.503784453012,133.63570654236,1,0,0,1,1,1,30人,,一時避難所
鳥取県,鳥取市,鹿野町温泉公園,鳥取県鳥取市鹿野町今市51,35.461072357196,134.04978353505,-,-,-,-,-,-,,,一時避難所
鳥取県,倉吉市,勤労青少年ホーム（リフレプラザ）,鳥取県倉吉市住吉町77-1,35.431603854611,133.83132139051,1,0,0,1,1,1,207人,,指定一時避難所
鳥取県,東伯郡北栄町,大島公民館,鳥取県東伯郡北栄町大島,35.469199172609,133.76815200041,1,0,0,1,1,0,50人,,一時避難所
鳥取県,日野郡日野町,日野町農業構造改善センター,鳥取県日野郡日野町根雨380,35.238910294686,133.4403385268,1,0,0,-,-,-,150人,,避難所
鳥取県,鳥取市,桜馬場集会所,鳥取県鳥取市鹿野町今市71-4,35.461016267203,134.05008990834,1,0,0,1,1,1,40人,,避難所
鳥取県,東伯郡北栄町,由良宿4区集会所,鳥取県東伯郡北栄町由良宿1553-2,35.495589511071,133.7544937764,1,0,0,1,1,0,,,一時避難所
鳥取県,東伯郡北栄町,国坂ふれあい会館,鳥取県東伯郡北栄町国坂,35.486366458937,133.83093488304,1,0,0,1,1,0,27人,,一時避難所
鳥取県,東伯郡北栄町,みどり南公民館,鳥取県東伯郡北栄町江北,35.478907983171,133.83556362318,1,0,0,1,1,0,89人,,一時避難所
鳥取県,鳥取市,倉田保育園,鳥取県鳥取市八坂169-1,35.451854206038,134.21866952127,1,0,0,1,1,1,200人,,一時避難所・避難所
鳥取県,日野郡日野町,畑集会所,鳥取県日野郡日野町中菅,35.198751885401,133.38492831124,-,-,-,-,-,-,,,一時避難所
鳥取県,西伯郡伯耆町,大原公民館,鳥取県西伯郡伯耆町大原,35.382483766022,133.45078358604,1,0,0,-,-,-,20人,,一時避難所
鳥取県,東伯郡北栄町,東亀谷公民館,鳥取県東伯郡北栄町東亀谷,35.469610425529,133.75622287575,1,0,0,1,1,0,50人,,一時避難所
鳥取県,鳥取市,桑原生活改善センター,鳥取県鳥取市青谷町桑原71,35.449887915229,133.96813012509,1,0,0,1,1,1,30人,,避難所
鳥取県,東伯郡湯梨浜町,はわいこども園,鳥取県東伯郡湯梨浜町光吉107-1,35.49189487735,133.87865727852,-,-,-,1,1,1,470人,,避難場所
鳥取県,鳥取市,絹見集会所,鳥取県鳥取市青谷町絹見136-1,35.501156662345,133.96658466979,1,0,0,1,1,1,50人,,避難所
鳥取県,西伯郡大山町,保健福祉センターなわ,鳥取県西伯郡大山町御来屋467,35.507003378687,133.49340346925,1,0,0,-,-,-,,,避難場所・避難所
鳥取県,米子市,淀江中学校,鳥取県米子市淀江町西原660,35.453247581484,133.42074730844,1,0,0,-,-,-,600人,,避難施設・避難所
鳥取県,西伯郡大山町,下中山保育所,鳥取県西伯郡大山町下甲874-1,35.525582304114,133.5874966888,1,0,0,-,-,-,,,避難場所
鳥取県,西伯郡日吉津村,日吉津村社会福祉センター,鳥取県西伯郡日吉津村日吉津973-9,35.441195597186,133.37999367976,1,0,0,-,-,-,500人,,避難場所
鳥取県,鳥取市,鳥取聾学校,鳥取県鳥取市国府町宮下1261,35.479532050151,134.25804845664,1,0,0,1,1,1,960人,,一時避難所・避難所
鳥取県,岩美郡岩美町,岩美南小学校,鳥取県岩美郡岩美町新井419-2,35.563001938432,134.33535627299,1,0,0,-,-,-,3410人,,避難所・広域避難場所
鳥取県,米子市,夜見保育園,鳥取県米子市夜見町1679-8,35.465103717189,133.29615636437,1,0,0,-,-,-,110人,,避難所
鳥取県,鳥取市,南雲山第二公園,鳥取県鳥取市雲山149-11,35.479495777739,134.23639250481,-,-,-,-,-,-,,,一時避難所
鳥取県,西伯郡伯耆町,岩屋谷農村公園,鳥取県西伯郡伯耆町岩屋谷,35.381168950905,133.38194122776,-,-,-,-,-,-,,,一時避難所
鳥取県,東伯郡琴浦町,一畑公園,鳥取県東伯郡琴浦町八橋,35.50061110134,133.67357062997,1,0,0,0,0,1,1164人,,一時避難所
鳥取県,境港市,市民体育館体育館,鳥取県境港市中野町1900,35.53165855014,133.22733607447,1,0,0,0,0,1,870人,,収容避難所・津波一時避難所
鳥取県,鳥取市,鹿野往来交流館「童里夢」,鳥取県鳥取市鹿野町鹿野1353,35.461763548952,134.06376367249,1,0,0,1,1,1,80人,,避難所
鳥取県,鳥取市,浜町公民館,鳥取県鳥取市青谷町青谷3853-8,35.521715656955,133.99628996066,1,0,0,1,1,1,50人,,避難所
鳥取県,八頭郡八頭町,郡家公民館,鳥取県八頭郡八頭町宮谷80,35.415941968266,134.25999976189,1,0,0,-,-,-,721人,,避難所・広域避難場所
鳥取県,鳥取市,小畑集会所,鳥取県鳥取市鹿野町水谷652,35.445382096735,134.06008936737,1,0,0,1,1,1,70人,,避難所
鳥取県,倉吉市,倉吉市上北条公民館,鳥取県倉吉市新田422-1,35.465491454717,133.83555943917,1,0,0,1,1,1,122人,,指定一時避難所
鳥取県,東伯郡三朝町,高勢地区公民館,鳥取県東伯郡三朝町小河内978-2,35.370993082985,133.88112176143,1,0,0,-,-,-,,,避難場所
鳥取県,西伯郡伯耆町,田園町公民館,鳥取県西伯郡伯耆町大殿,35.385213078816,133.39422831173,1,0,0,-,-,-,,,一時避難所
鳥取県,倉吉市,倉吉市立山守小学校,鳥取県倉吉市関金町堀2163番地,35.362644431026,133.69634905564,1,0,0,1,1,1,190人,,指定避難所
鳥取県,境港市,日ノ出広場,鳥取県境港市日ノ出町58-1,35.545333365133,133.23143925157,1,0,0,-,-,-,760人,,収容避難所
鳥取県,東伯郡琴浦町,古布庄小学校体育館,鳥取県東伯郡琴浦町古長217,35.427604184588,133.66591567761,1,0,0,1,1,1,171人,,避難所
鳥取県,東伯郡北栄町,妻波公民館,鳥取県東伯郡北栄町妻波,35.495118632192,133.74298144179,1,0,0,1,1,1,500人,,一時避難所
鳥取県,鳥取市,青谷町農林漁業者トレーニングセンター,鳥取県鳥取市青谷町露谷50,35.510647556163,133.99611525451,1,0,0,1,1,1,650人,,避難所
鳥取県,鳥取市,屋住町民運動場,鳥取県鳥取市用瀬町屋住873,35.312892479947,134.16719966529,-,-,-,-,-,-,,,一時避難所
鳥取県,鳥取市,国安児童館,鳥取県鳥取市国安118-2,35.460986484372,134.2169026964,1,0,0,1,1,1,80人,,一時避難所・避難所
鳥取県,東伯郡北栄町,北条中学校,鳥取県東伯郡北栄町土下100-1,35.478684220925,133.8243466422,1,0,0,1,1,0,6560人,,町内避難所
鳥取県,八頭郡八頭町,郡家東小学校体育館,鳥取県八頭郡八頭町稲荷310,35.429923825365,134.26318497067,1,0,0,1,1,0,353人,,広域避難所
鳥取県,日野郡日野町,木山氏広場,鳥取県日野郡日野町濁谷,35.20568043785,133.43989471822,-,-,-,-,-,-,,,一時避難所
鳥取県,鳥取市,弓河内多目的集会所,鳥取県鳥取市河原町弓河内102,35.385887860549,134.13782554705,1,0,0,1,1,1,70人,,避難所
鳥取県,鳥取市,神戸小学校,鳥取県鳥取市中砂見936,35.416545627467,134.1663618201,1,0,0,1,1,1,880人,,一時避難所・避難所
鳥取県,鳥取市,秋里1号公園,鳥取県鳥取市秋里1198,35.518084118506,134.21512383908,-,-,-,-,-,-,,,一時避難所
鳥取県,東伯郡北栄町,大栄小学校,鳥取県東伯郡北栄町由良宿213,35.486315349624,133.75313874527,1,0,0,1,1,0,4100人,,町内避難所
鳥取県,東伯郡琴浦町,上郷地区コミュニティー施設,鳥取県東伯郡琴浦町大杉547,35.457112337683,133.67712501845,1,0,0,1,1,1,85人,,一時避難所
鳥取県,東伯郡三朝町,ブランナールみささ,鳥取県東伯郡三朝町三朝696-3,35.405888739029,133.8954637761,1,0,0,-,-,-,,,避難場所
鳥取県,八頭郡智頭町,智頭中学校,鳥取県八頭郡智頭町智頭688,35.265769599235,134.23646964207,1,0,0,1,1,0,980人,,避難場所・一時避難所
鳥取県,鳥取市,新雲山ふれあい公園,鳥取県鳥取市雲山160-4,35.477071113503,134.23829189852,-,-,-,-,-,-,,,一時避難所
鳥取県,境港市,境西地区学習等供用施設（しおさい会館）,鳥取県境港市大正町97-1,35.545212940625,133.22547195699,1,0,0,-,-,-,80人,,収容避難所
鳥取県,日野郡江府町,江府町運動公園,鳥取県日野郡江府町洲河崎62番地,35.279370002531,133.48169248994,-,-,-,-,-,-,4000人,,避難所
鳥取県,倉吉市,倉吉市立上小鴨小学校広瀬分校,鳥取県倉吉市広瀬567番地2,35.375684826844,133.79662530071,1,0,0,1,1,1,16人,,指定避難所
鳥取県,鳥取市,末恒地区公民館,鳥取県鳥取市伏野1986-32,35.525479547983,134.133050118,1,0,0,1,1,1,110人,,避難所
鳥取県,東伯郡湯梨浜町,湯梨浜町役場講堂,鳥取県東伯郡湯梨浜町久留19-1,35.489289250143,133.86442563894,1,0,0,1,0,1,90人,,避難場所・避難所
鳥取県,日野郡江府町,貝田集落センター施設,鳥取県日野郡江府町貝田247番地1,35.300684726879,133.50455141058,1,0,0,-,-,-,220人,,避難所
鳥取県,東伯郡三朝町,東小学校・体育館,鳥取県東伯郡三朝町余戸32-1,35.405036699934,133.91384815789,1,0,0,-,-,-,,,避難場所
鳥取県,鳥取市,河原町勤労者体育館,鳥取県鳥取市河原町曳田17-1,35.395091250894,134.20020843485,1,0,0,1,0,1,400人,,避難所
鳥取県,鳥取市,上野東集会所,鳥取県鳥取市福部町左近1493,35.501415721847,134.29765464811,1,0,0,1,1,1,100人,,避難所
鳥取県,鳥取市,河内下条集会所,鳥取県鳥取市鹿野町河内695-2,35.419986999888,134.01864349522,1,0,0,1,1,1,100人,,避難所
鳥取県,東伯郡三朝町,西小学校・体育館,鳥取県東伯郡三朝町大瀬1110,35.406549018473,133.86182519066,1,0,0,-,-,-,,,避難場所
鳥取県,米子市,米子市淀江支所庁舎,鳥取県米子市淀江町西原1129-1,35.453075383066,133.41941416669,1,0,0,-,-,-,195人,,避難施設・避難所
鳥取県,西伯郡日吉津村,樽屋公民館,鳥取県西伯郡日吉津村日吉津992-1,35.442712086786,133.38373219453,1,0,0,-,-,-,45人,,避難場所
鳥取県,鳥取市,東湯山公民館,鳥取県鳥取市福部町湯山918-7,35.542113669331,134.25532707907,1,0,0,1,1,1,30人,,避難所
鳥取県,鳥取市,八上地区公民館,鳥取県鳥取市河原町曳田186-21,35.390130021543,134.19410974898,1,0,0,1,1,1,80人,,避難所
鳥取県,東伯郡琴浦町,朝日ケ丘公民館,鳥取県東伯郡琴浦町別所625-4,35.508079057999,133.66066615234,1,0,0,1,1,1,30人,,一時避難所
鳥取県,倉吉市,倉吉市立北谷保育園,鳥取県倉吉市沢谷289番地1,35.407849564117,133.75132911365,1,0,0,1,1,1,62人,,指定避難所・福祉避難所
鳥取県,米子市,和田中央集会所,鳥取県米子市和田町1090-3,35.482837259595,133.26933693968,1,0,0,-,-,-,50人,,避難所
鳥取県,倉吉市,旧鳥取県立倉吉産業高等学校,鳥取県倉吉市上井430番地,35.449390759536,133.84440599967,1,0,0,0,1,0,,,指定避難所
鳥取県,西伯郡大山町,中山公民館,鳥取県西伯郡大山町塩津368,35.520593208399,133.57062377801,1,0,0,-,-,-,,,避難場所・避難所
鳥取県,鳥取市,大杙公共空地,鳥取県鳥取市大杙,35.477486672524,134.2448724132,-,-,-,-,-,-,,,一時避難所
鳥取県,東伯郡琴浦町,赤碕小学校体育館,鳥取県東伯郡琴浦町赤碕264-2,35.512392150105,133.64896564499,1,0,0,1,0,1,2000人,,避難所
鳥取県,岩美郡岩美町,旧小田小学校体育館,鳥取県岩美郡岩美町院内290-3,35.530136482752,134.34039548927,1,0,0,-,-,-,3695人,,避難所・広域避難場所
鳥取県,鳥取市,賀露上小路公園,鳥取県鳥取市賀露町南5丁目1709-1,35.52927480465,134.19067225244,-,-,-,-,-,-,,,一時避難所
鳥取県,米子市,加茂公民館,鳥取県米子市両三柳3305,35.455429848031,133.31781359221,1,0,0,-,-,-,155人,,避難所
鳥取県,鳥取市,つづらを荘・レーク大樹,鳥取県鳥取市金沢6,35.498110944043,134.13443400786,1,0,0,1,1,1,340人,,避難所
鳥取県,米子市,福生西公民館,鳥取県米子市上福原5-9-30,35.45109703342,133.35324258114,1,0,0,-,-,-,155人,,避難所
鳥取県,鳥取市,袋河原神社,鳥取県鳥取市河原町袋河原207,35.415752157203,134.20043067684,-,-,-,-,-,-,,,一時避難所
鳥取県,鳥取市,佐治町地域活性化センター,鳥取県鳥取市佐治町古市165-1,35.339530638813,134.15493760394,1,0,0,1,1,1,160人,,避難所
鳥取県,鳥取市,日置体育館,鳥取県鳥取市青谷町山根218,35.470409688888,134.01561973552,1,0,0,1,1,1,260人,,一時避難所・避難所
鳥取県,境港市,余子小学校教室等,鳥取県境港市竹内町3117,35.525456380534,133.23996046167,1,0,0,0,0,1,4740人,,収容避難所・津波一時避難所
鳥取県,東伯郡琴浦町,大成公民館,鳥取県東伯郡琴浦町八橋3457-10,35.472422423882,133.65440183646,1,0,0,1,1,1,12人,,一時避難所
鳥取県,東伯郡湯梨浜町,泊海の子広場,鳥取県東伯郡湯梨浜町泊,35.516551380079,133.94203909389,1,0,0,0,1,0,243人,,一時避難所
鳥取県,境港市,市民会館ホール,鳥取県境港市上道町3000,35.539574590457,133.23119120904,1,0,0,0,0,1,640人,,収容避難所・津波一時避難所
鳥取県,東伯郡三朝町,町民武道館,鳥取県東伯郡三朝町本泉510,35.403717192631,133.86288929853,1,0,0,-,-,-,,,避難場所
鳥取県,米子市,富士見1号公園,鳥取県米子市富士見町1丁目地内,35.431686110019,133.33713376008,-,-,-,-,-,-,,,避難場所
鳥取県,日野郡日南町,大原集会所,鳥取県日野郡日南町下阿毘縁,35.231275878487,133.22655664456,1,0,0,-,-,-,30人,,避難所
鳥取県,鳥取市,松保保育園,鳥取県鳥取市布勢91-1,35.503336233986,134.18171843847,1,0,0,1,1,1,240人,,避難所
鳥取県,鳥取市,立川南公園,鳥取県鳥取市立川町6丁目174-4,35.484957626057,134.25123417156,-,-,-,-,-,-,,,一時避難所
鳥取県,倉吉市,倉吉市立東中学校,鳥取県倉吉市宮川町2丁目76番地,35.434361811435,133.83051309836,1,0,0,1,0,1,386人,,指定避難所
鳥取県,鳥取市,円護寺小堤公園,鳥取県鳥取市円護寺1360,35.516619318679,134.23980497237,-,-,-,-,-,-,,,一時避難所
鳥取県,日野郡江府町,旧米沢小学校,鳥取県日野郡江府町美用,35.298105277778,133.52634652509,1,0,0,-,-,-,1700人,,避難所
鳥取県,西伯郡大山町,旧光徳小学校グラウンド,鳥取県西伯郡大山町東坪515,35.518922628152,133.52172092923,1,0,0,-,-,-,,,避難所
鳥取県,東伯郡琴浦町,光公民館,鳥取県東伯郡琴浦町光,35.504513657047,133.6204027343,1,0,0,1,1,1,30人,,一時避難所
鳥取県,八頭郡八頭町,郡家東地区公民館,鳥取県八頭郡八頭町稲荷195-1,35.43090140887,134.26354051669,1,0,0,1,1,0,110人,,広域避難所
鳥取県,鳥取市,鮎ヶ丘集会所,鳥取県鳥取市河原町鮎ヶ丘1151,35.410111167973,134.19930874122,1,0,0,1,0,1,40人,,避難所
鳥取県,日野郡日南町,まなび宿やまがみ（旧山の上小学校）,鳥取県日野郡日南町笠木304,35.182579176053,133.23562390643,1,0,0,-,-,-,750人,,一時避難所・避難所
鳥取県,倉吉市,さわやか人権文化センター,鳥取県倉吉市上米積1074-1,35.424758575441,133.76049217367,1,0,0,1,1,1,65人,,指定一時避難所
鳥取県,鳥取市,鹿野町農業者トレーニングセンター（鹿野町中央公民館）（鹿野地区公民館）,鳥取県鳥取市鹿野町鹿野342,35.46295787942,134.06890491412,1,0,0,1,1,1,530人,,一時避難所・避難所
鳥取県,鳥取市,鹿野公民館,鳥取県鳥取市河原町本鹿275-2,35.378471761856,134.17147086593,1,0,0,1,1,1,40人,,避難所
鳥取県,東伯郡湯梨浜町,久留東公民館,鳥取県東伯郡湯梨浜町はわい長瀬,35.49346230429,133.87085451176,1,0,0,0,1,0,,,一時避難所
鳥取県,鳥取市,姫路公民館,鳥取県鳥取市気高町八束水1206,35.517502929633,134.02361557377,1,0,0,1,1,1,70人,,避難所
鳥取県,東伯郡湯梨浜町,上浅津農事集会所,鳥取県東伯郡湯梨浜町上浅津,35.482902942772,133.88010346895,1,0,0,1,0,1,90人,,避難場所・避難所
鳥取県,西伯郡大山町,中高ふれあい文化センター,鳥取県西伯郡大山町平木297-1,35.473149231548,133.47054433425,1,0,0,-,-,-,,,避難場所・避難所
鳥取県,八頭郡智頭町,石田公民館,鳥取県八頭郡智頭町埴師,35.234779753156,134.22789902023,1,0,0,1,1,0,30人,,避難場所・一時避難所
鳥取県,東伯郡北栄町,土下多目的集会施設,鳥取県東伯郡北栄町土下179-3,35.476013372788,133.82179076472,1,0,0,0,1,0,48人,,一時避難所
鳥取県,鳥取市,雲山公共空地,鳥取県鳥取市雲山687-10,35.476730648485,134.23451603862,-,-,-,-,-,-,,,一時避難所
鳥取県,鳥取市,宝木地区公民館,鳥取県鳥取市気高町宝木904,35.515193691484,134.08214950741,1,0,0,1,1,1,120人,,避難所
鳥取県,西伯郡伯耆町,久古地区公園,鳥取県西伯郡伯耆町久古,35.381847980505,133.42995760059,-,-,-,-,-,-,,,一時避難所
鳥取県,米子市,尚徳公民館,鳥取県米子市榎原1356-1,35.396711084181,133.36161815732,1,0,0,-,-,-,130人,,避難所
鳥取県,八頭郡智頭町,（旧）山郷小学校,鳥取県八頭郡智頭町福原19,35.231592358725,134.29629495935,1,0,0,1,1,0,660人,,避難場所・一時避難所
鳥取県,鳥取市,鹿野町運動広場,鳥取県鳥取市鹿野町鹿野2285,35.457110791209,134.04722385356,-,-,-,-,-,-,,,一時避難所・広域避難場所
鳥取県,東伯郡湯梨浜町,田後集会所,鳥取県東伯郡湯梨浜町田後,35.482360093122,133.85280426445,1,0,0,0,1,0,,,一時避難所
鳥取県,東伯郡北栄町,田井集落センター,鳥取県東伯郡北栄町田井210-4,35.484447384815,133.81810282419,1,0,0,0,1,0,,,一時避難所
鳥取県,鳥取市,白ゆり保育園,鳥取県鳥取市面影1丁目8-16,35.478565437154,134.24639385304,1,0,0,1,1,1,130人,,一時避難所・避難所
鳥取県,鳥取市,釜口子ども広場,鳥取県鳥取市河原町釜口815-1,35.371545942224,134.2170895309,-,-,-,-,-,-,,,一時避難所
鳥取県,鳥取市,小畑生活改善センター,鳥取県鳥取市青谷町小畑400-1,35.452027361981,134.0105627904,1,0,0,1,1,1,60人,,避難所
鳥取県,東伯郡琴浦町,大石公民館,鳥取県東伯郡琴浦町勝田,35.494468887166,133.62996070566,1,0,0,1,1,1,30人,,一時避難所
鳥取県,米子市,成実小学校,鳥取県米子市奈喜良81,35.401737937598,133.34738849214,1,0,0,-,-,-,500人,,避難所
鳥取県,西伯郡南部町,会見小学校,鳥取県西伯郡南部町宮前568,35.363878883489,133.36958533694,1,0,0,-,-,-,300人,,避難所
鳥取県,鳥取市,勝部グラウンド,鳥取県鳥取市青谷町紙屋188-5,35.466055478317,133.97569300464,-,-,-,-,-,-,,,一時避難所
鳥取県,日野郡日野町,黒坂小学校（校舎）,鳥取県日野郡日野町黒坂1560-1,35.205649138661,133.38477034912,1,0,0,-,-,-,348人,,一時避難所・避難所
鳥取県,倉吉市,鳥取県立倉吉未来中心,鳥取県倉吉市駄経寺町212-5,35.431765033777,133.83603486652,1,0,0,1,1,1,2733人,,指定避難所
鳥取県,鳥取市,福園多目的集会所,鳥取県鳥取市佐治町福園163-1,35.330257288153,134.10954842173,1,0,0,1,1,1,50人,,避難所
鳥取県,西伯郡伯耆町,口別所遊園地,鳥取県西伯郡伯耆町口別所,35.377220991049,133.41610727075,1,0,0,-,-,-,,,一時避難所
鳥取県,西伯郡日吉津村,イオンモール日吉津,鳥取県西伯郡日吉津村日吉津1160-1,35.445789613885,133.38725959007,1,0,0,0,1,1,3000人,,避難場所
鳥取県,八頭郡若桜町,上高野公民館,鳥取県八頭郡若桜町上高野,35.351820444218,134.38188469889,1,0,0,-,-,-,40人,,一時避難所
鳥取県,日野郡日南町,神福上集会所,鳥取県日野郡日南町神福1525,35.101385739543,133.28471381867,1,0,0,-,-,-,30人,,避難所
鳥取県,東伯郡湯梨浜町,東郷小学校校舎,鳥取県東伯郡湯梨浜町小鹿谷820,35.461968798825,133.90397225083,1,0,0,1,1,1,2290人,,避難場所・一時避難所・避難所
鳥取県,八頭郡若桜町,町民体育館,鳥取県八頭郡若桜町若桜788-3,35.340714153016,134.39901905583,1,0,0,-,-,-,1180人,,一時避難所
鳥取県,東伯郡湯梨浜町,長瀬東部公民館,鳥取県東伯郡湯梨浜町はわい長瀬,35.49211316947,133.86675300814,1,0,0,0,1,0,,,一時避難所
鳥取県,倉吉市,倉吉市小鴨児童センター,鳥取県倉吉市小鴨568-2,35.410322048862,133.79829981369,1,0,0,1,1,1,64人,,指定一時避難所
鳥取県,境港市,誠道公民館,鳥取県境港市誠道町220-3,35.514071213737,133.23672225084,1,0,0,0,0,1,100人,,収容避難所・津波一時避難所
鳥取県,鳥取市,鳥取西高等学校,鳥取県鳥取市東町2丁目112,35.505800811756,134.238016096,1,0,0,1,1,1,4480人,,一時避難所・避難所・広域避難場所
鳥取県,日野郡日野町,農協米倉庫前,鳥取県日野郡日野町本郷,35.23694450985,133.42200026875,-,-,-,-,-,-,,,一時避難所
鳥取県,鳥取市,わかば保育園,鳥取県鳥取市吉方温泉1丁目322,35.493718062468,134.23507172981,1,0,0,1,1,1,190人,,避難所
鳥取県,鳥取市,新南公園,鳥取県鳥取市吉成42-36,35.482462065657,134.23474757212,-,-,-,-,-,-,,,一時避難所
鳥取県,鳥取市,賀露保育園,鳥取県鳥取市賀露町北2丁目2-15,35.534504676136,134.18984166884,1,0,0,1,1,1,200人,,一時避難所・避難所
鳥取県,八頭郡智頭町,山形第一地区公民館,鳥取県八頭郡智頭町郷原,35.266089136985,134.27711763768,1,0,0,1,1,0,150人,,避難場所・一時避難所
鳥取県,八頭郡智頭町,芦津集会所,鳥取県八頭郡智頭町芦津,35.293522996595,134.29950538172,1,0,0,-,-,-,100人,,一時避難所
鳥取県,鳥取市,湖山小学校,鳥取県鳥取市湖山町南1丁目656,35.515770668937,134.17792667556,1,0,0,1,1,1,1500人,,一時避難所・避難所
鳥取県,鳥取市,本角公民館,鳥取県鳥取市河原町本鹿17-1,35.378666516108,134.16687310845,1,0,0,1,1,1,30人,,避難所
鳥取県,米子市,下水道内浜処理場避難所,鳥取県米子市安倍300,35.440103292588,133.30354862249,-,-,-,-,-,-,,,避難場所
鳥取県,八頭郡智頭町,河二公民館,鳥取県八頭郡智頭町智頭,35.267347889271,134.22918583079,1,0,0,1,1,0,,,避難場所
鳥取県,鳥取市,倭文児童館,鳥取県鳥取市倭文742-3,35.44252990412,134.2052238023,1,0,0,1,1,1,50人,,避難所
鳥取県,鳥取市,長泉寺,鳥取県鳥取市気高町勝見174,35.504844021369,134.05144670162,1,0,0,1,1,1,440人,,避難所
鳥取県,鳥取市,小倉神社,鳥取県鳥取市河原町小倉407,35.355747777677,134.17753407829,-,-,-,-,-,-,,,一時避難所
鳥取県,鳥取市,遷喬小学校（グラウンド）,鳥取県鳥取市本町1丁目108-1,35.501295680388,134.2330082818,-,-,-,-,-,-,,,一時避難所
鳥取県,鳥取市,青谷高等学校,鳥取県鳥取市青谷町青谷2912,35.521824019949,134.00062572355,1,0,0,1,1,1,5790人,,一時避難所・避難所
鳥取県,倉吉市,倉吉市関金農林漁業者等健康増進施設,鳥取県倉吉市関金町関金宿1560番地18,35.363883805642,133.75938948296,1,0,0,1,1,1,199人,,指定避難所
鳥取県,倉吉市,鳥取県立倉吉農業高等学校,鳥取県倉吉市大谷166番地,35.434468954531,133.78271231391,1,0,0,1,1,1,405人,,指定避難所
鳥取県,鳥取市,久松会館（久松地区公民館）（久松会館体育館）,鳥取県鳥取市東町3丁目371-2,35.508683736616,134.23492736622,1,0,0,1,1,1,750人,,避難所
鳥取県,倉吉市,倉吉スポーツセンター（合宿所）,鳥取県倉吉市葵町591-1,35.428451040909,133.82729403158,1,0,0,1,1,1,205人,,指定一時避難所
鳥取県,八頭郡智頭町,中町公民館,鳥取県八頭郡智頭町智頭,35.269377731426,134.22973432336,1,0,0,1,1,0,80人,,避難場所・一時避難所
鳥取県,鳥取市,江波多目的集会所,鳥取県鳥取市用瀬町江波654,35.308713176633,134.13493913769,1,0,0,1,1,1,110人,,一時避難所・避難所
鳥取県,鳥取市,夏泊公民館,鳥取県鳥取市青谷町青谷2022,35.529689846821,134.00374479194,1,0,0,1,1,1,40人,,避難所
鳥取県,東伯郡北栄町,大栄農村環境改善センター,鳥取県東伯郡北栄町由良宿432-1,35.49012047123,133.757877027,1,0,0,0,1,1,500人,,町内避難所
鳥取県,米子市,後藤ヶ丘中学校,鳥取県米子市上後藤1-1-1,35.44206719499,133.31911975811,1,0,0,-,-,-,1300人,,避難場所・避難所
鳥取県,東伯郡湯梨浜町,はわいトレーニングセンター,鳥取県東伯郡湯梨浜町南谷536-1,35.492336614244,133.88721740866,1,0,0,1,1,1,500人,,避難場所・避難所
鳥取県,倉吉市,倉吉市上井児童センター（プレイルーム）,鳥取県倉吉市大平町10,35.456245004474,133.8486747168,1,0,0,1,1,1,60人,,指定一時避難所
鳥取県,境港市,中浜小学校教室等,鳥取県境港市麦垣町432,35.50856603822,133.24984092128,1,0,0,0,0,1,3800人,,収容避難所・津波一時避難所
鳥取県,鳥取市,津ノ井保育園,鳥取県鳥取市南栄町17,35.459603805587,134.24783865891,1,0,0,1,1,1,150人,,一時避難所・避難所
鳥取県,日野郡日野町,日野町山村開発センター,鳥取県日野郡日野町根雨130-1,35.241227074722,133.4427873955,1,0,0,-,-,-,330人,,避難所
鳥取県,日野郡日南町,石見センター,鳥取県日野郡日南町上石見723-1,35.112416670207,133.3576719129,1,0,0,-,-,-,170人,,避難所
鳥取県,西伯郡大山町,下田中児童館,鳥取県西伯郡大山町田中693,35.522188413489,133.58990201048,1,0,0,-,-,-,,,避難場所
鳥取県,倉吉市,倉吉市立北谷小学校,鳥取県倉吉市沢谷204番地,35.40732463614,133.750754161,1,0,0,1,1,1,132人,,指定避難所
鳥取県,倉吉市,倉吉市営明倫体育館,鳥取県倉吉市鍛冶町1丁目2971番地2,35.429342572414,133.81630624007,1,0,0,1,1,1,143人,,指定避難所
鳥取県,鳥取市,津ノ井地区公民館,鳥取県鳥取市桂木307-11,35.455680035991,134.24931500498,1,0,0,1,1,1,100人,,避難所
鳥取県,鳥取市,＜鹿野町＞河内生活改善センター,鳥取県鳥取市鹿野町河内2711-11,35.414746018234,134.0193908882,1,0,0,1,1,1,120人,,避難所
鳥取県,倉吉市,鳥取県立倉吉東高等学校,鳥取県倉吉市下田中町801番地,35.434442591797,133.84484235524,1,0,0,1,1,1,777人,,指定避難所
鳥取県,日野郡日野町,ひのっこ保育所,鳥取県日野郡日野町津地690,35.239010108972,133.42437323203,-,-,-,-,-,-,166人,,一時避難所
鳥取県,鳥取市,千代水体育館,鳥取県鳥取市商栄町422,35.517306236016,134.20820779176,1,0,0,1,0,1,390人,,避難所
鳥取県,鳥取市,聖神社,鳥取県鳥取市行徳2丁目705,35.499792814239,134.2198984334,-,-,-,-,-,-,,,一時避難所
鳥取県,境港市,第二市民体育館,鳥取県境港市中野町2035,35.532483467031,133.22607223246,1,0,0,-,-,-,420人,,収容避難所
鳥取県,日野郡江府町,開発センター,鳥取県日野郡江府町江尾502,35.282911920358,133.48694234126,1,0,0,-,-,-,260人,,避難所
鳥取県,東伯郡琴浦町,逢束7区公民館,鳥取県東伯郡琴浦町逢束,35.502419495536,133.69873377706,1,0,0,1,1,0,42人,,一時避難所
鳥取県,鳥取市,鳥取市民会館,鳥取県鳥取市掛出町12,35.500459726999,134.235891451,1,0,0,1,1,1,220人,,避難所
鳥取県,鳥取市,北村生活改善センター,鳥取県鳥取市北村381,35.475309103872,134.18603844008,1,0,0,1,1,1,80人,,避難所
鳥取県,鳥取市,河原人権福祉センター,鳥取県鳥取市河原町曳田982-1,35.388383103702,134.19611230294,1,0,0,1,1,1,60人,,避難所
鳥取県,鳥取市,中ノ郷体育館,鳥取県鳥取市覚寺110,35.519282527098,134.23528807184,1,0,0,1,1,1,410人,,避難所
鳥取県,鳥取市,湖山池公園（子どもの遊びゾーン）,鳥取県鳥取市高住,35.498015324207,134.1567630367,-,-,-,-,-,-,,,一時避難所
鳥取県,八頭郡若桜町,観音寺,鳥取県八頭郡若桜町小船,35.299803227273,134.46124801283,1,0,0,-,-,-,120人,,一時避難所
鳥取県,東伯郡北栄町,JA大灘カントリーエレベーター,鳥取県東伯郡北栄町大島304,35.471503779327,133.77226794959,1,0,0,1,0,0,600人,,一時避難所
鳥取県,鳥取市,福部町中央公民館（福部地区公民館）,鳥取県鳥取市福部町細川1338,35.545188921192,134.28379413348,1,0,0,1,1,1,1990人,,一時避難所・避難所
鳥取県,鳥取市,西郷地区公民館,鳥取県鳥取市河原町中井355-7,35.381843784641,134.16535959551,1,0,0,1,1,1,120人,,避難所
鳥取県,日野郡日野町,三栗農構センター,鳥取県日野郡日野町門谷,35.193229069315,133.43319431019,-,-,-,-,-,-,,,一時避難所
鳥取県,西伯郡伯耆町,町立溝口公民館,鳥取県西伯郡伯耆町溝口647,35.345931498722,133.4363318497,1,0,0,-,-,-,500人,,一時避難所
鳥取県,八頭郡八頭町,丹比小学校体育館,鳥取県八頭郡八頭町北山211,35.362242176996,134.354191979,1,0,0,1,0,0,356人,,広域避難所
鳥取県,東伯郡北栄町,大栄健康増進センター,鳥取県東伯郡北栄町瀬戸22-1,35.481922241453,133.77721445405,1,0,0,1,1,0,100人,,町内避難所
鳥取県,西伯郡大山町,中山活性化センター,鳥取県西伯郡大山町羽田井1419-13,35.452696235753,133.5930276242,1,0,0,-,-,-,,,避難場所・避難所
鳥取県,八頭郡八頭町,隼小学校体育館,鳥取県八頭郡八頭町見槻中160,35.387228909246,134.26892776071,1,0,0,1,1,0,349人,,広域避難所
鳥取県,鳥取市,北村5区公民館,鳥取県鳥取市河原町北村450,35.377138481982,134.11849626713,1,0,0,1,1,1,20人,,避難所
鳥取県,鳥取市,河原町中央公民館,鳥取県鳥取市河原町渡一木277-1,35.403442285435,134.20157338616,1,0,0,1,1,1,390人,,避難所
鳥取県,東伯郡湯梨浜町,羽合西コミュニティー施設,鳥取県東伯郡湯梨浜町はわい長瀬1350,35.49358807015,133.87005069918,1,0,0,1,1,1,500人,,避難場所・避難所
鳥取県,東伯郡湯梨浜町,宇野保育所,鳥取県東伯郡湯梨浜町宇野,35.50602342921,133.89347152485,1,0,0,-,-,-,,,一時避難所
鳥取県,鳥取市,豊実体育館,鳥取県鳥取市野坂927,35.484202455852,134.17579456033,1,0,0,1,1,1,100人,,避難所
鳥取県,八頭郡智頭町,口早野公民館,鳥取県八頭郡智頭町大背,35.212013246035,134.19908951254,1,0,0,1,1,0,,,避難場所
鳥取県,米子市,福米中学校,鳥取県米子市西福原1636,35.455196398801,133.34576535862,1,0,0,-,-,-,900人,,避難場所・避難所
鳥取県,鳥取市,山王ふれあい会館,鳥取県鳥取市佐治町尾際677,35.330288176574,134.0486550195,1,0,0,1,1,1,110人,,避難所
鳥取県,東伯郡琴浦町,花見町公民館,鳥取県東伯郡琴浦町赤碕,35.51659504295,133.6347985963,1,0,0,1,1,1,30人,,一時避難所
鳥取県,倉吉市,倉吉市立明倫小学校,鳥取県倉吉市余戸谷町3059番地,35.427387218182,133.81309818305,1,0,0,1,1,1,165人,,指定避難所
鳥取県,鳥取市,青谷地区公民館,鳥取県鳥取市青谷町青谷4082-1,35.518385463988,133.99739555921,1,0,0,1,1,1,150人,,避難所
鳥取県,鳥取市,山田公民館,鳥取県鳥取市青谷町山田268,35.490238801403,133.98964412076,1,0,0,1,1,1,20人,,避難所
鳥取県,西伯郡伯耆町,大山ガーデンプレイス,鳥取県西伯郡伯耆町丸山,35.389103038714,133.45900623195,1,0,0,-,-,-,,,一時避難所・指定避難場所
鳥取県,鳥取市,気高町体育館,鳥取県鳥取市気高町浜村11-1,35.51038508052,134.05491570498,1,0,0,1,1,1,380人,,避難所・広域避難場所
鳥取県,米子市,米子東高等学校グラウンド,鳥取県米子市勝田町1,35.432734866652,133.34387403118,-,-,-,-,-,-,,,避難場所
鳥取県,西伯郡伯耆町,こしきが丘ゲートボール場,鳥取県西伯郡伯耆町大殿,35.383520354196,133.3993344285,-,-,-,-,-,-,,,一時避難所
鳥取県,日野郡日南町,生山自治会館,鳥取県日野郡日南町生山739-3,35.169712846956,133.3222066716,1,0,0,-,-,-,100人,,避難所
鳥取県,八頭郡智頭町,山形第二地区公民館,鳥取県八頭郡智頭町芦津,35.293328312791,134.29965927432,1,0,0,1,1,0,100人,,避難場所・一時避難所
鳥取県,東伯郡北栄町,下神多目的研修施設,鳥取県東伯郡北栄町下神,35.485687251679,133.80297505662,1,0,0,1,1,0,50人,,一時避難所
鳥取県,東伯郡北栄町,北栄町B＆G海洋センター,鳥取県東伯郡北栄町田井428-1,35.489005183794,133.81729443734,1,0,0,1,1,1,280人,,町内避難所
鳥取県,鳥取市,北園妙見公園,鳥取県鳥取市北園2丁目135,35.521054593254,134.23854053,-,-,-,-,-,-,,,一時避難所
鳥取県,東伯郡琴浦町,高松公園,鳥取県東伯郡琴浦町浦安,35.488253253234,133.69384667287,1,0,0,1,0,1,2054人,,一時避難所
鳥取県,鳥取市,南海士公民館,鳥取県鳥取市福部町海士304-6,35.546791337758,134.27579749921,1,0,0,1,1,1,50人,,避難所
鳥取県,米子市,車尾小学校,鳥取県米子市車尾2-27-1,35.432073945682,133.35708692115,1,0,0,-,-,-,800人,,避難場所・避難所
鳥取県,東伯郡北栄町,江北浜農村公園グラウンド,鳥取県東伯郡北栄町江北,35.490777067729,133.8453360372,-,-,-,1,0,0,600人,,一時避難所
鳥取県,倉吉市,倉吉市上井公民館（和室、会議室）,鳥取県倉吉市大平町10,35.456298898977,133.8487322108,1,0,0,1,1,1,100人,,指定一時避難所
鳥取県,米子市,明道小学校,鳥取県米子市陽田町74-2,35.426799360383,133.34825722227,1,0,0,-,-,-,1100人,,避難場所・避難所
鳥取県,日野郡日野町,黒坂第1住宅団地前広場,鳥取県日野郡日野町黒坂,35.209567315963,133.38521800653,-,-,-,-,-,-,,,一時避難所
鳥取県,米子市,大和公園,鳥取県米子市淀江町中間1154-1,35.451322844235,133.40244443638,-,-,-,-,-,-,,,避難場所
鳥取県,倉吉市,倉吉市立小鴨小学校,鳥取県倉吉市中河原775番地1,35.415124410066,133.80271885945,1,0,0,1,1,1,188人,,指定避難所
鳥取県,米子市,福生中学校,鳥取県米子市上福原20,35.441228720348,133.36532241634,1,0,0,-,-,-,800人,,避難場所・避難所
鳥取県,東伯郡琴浦町,釛多目的研修センター,鳥取県東伯郡琴浦町釛517,35.470216817501,133.695970861,1,0,0,1,1,1,58人,,避難所
鳥取県,米子市,旭ヶ丘集会所,鳥取県米子市大篠津4619,35.492949613326,133.26617603487,1,0,0,-,-,-,50人,,避難所
鳥取県,米子市,加茂小学校,鳥取県米子市両三柳4610,35.459451673858,133.31909684367,1,0,0,-,-,-,1450人,,避難場所・避難所
鳥取県,鳥取市,福部砂丘温泉ふれあい会館,鳥取県鳥取市福部町海士1013-1,35.556420688745,134.2667784682,1,0,0,1,1,1,1260人,,避難所
鳥取県,鳥取市,高山公民館,鳥取県鳥取市佐治町高山,35.335151766519,134.11970170486,1,0,0,1,1,1,20人,,避難所
鳥取県,米子市,日新小学校,鳥取県米子市福市281,35.400681842782,133.36827656813,1,0,0,-,-,-,600人,,避難所
鳥取県,鳥取市,美和小学校,鳥取県鳥取市竹生64,35.453545368997,134.20411246135,1,0,0,1,1,1,1590人,,一時避難所・避難所
鳥取県,日野郡日野町,日野高等学校（黒坂校舎）,鳥取県日野郡日野町黒坂1109,35.209276463338,133.38229831629,1,0,0,-,-,-,533人,,一時避難所・避難所
鳥取県,倉吉市,倉吉市農村環境改善センター,鳥取県倉吉市生田692-4,35.422498644526,133.80466578425,1,0,0,1,1,1,164人,,指定一時避難所
鳥取県,鳥取市,気高町遊漁センター,鳥取県鳥取市気高町八束水2706-147,35.519366505582,134.0203214217,1,0,0,1,1,0,550人,,一時避難所・避難所
鳥取県,鳥取市,河原中学校,鳥取県鳥取市河原町曳田298,35.395690658301,134.1992063192,1,0,0,1,1,1,1820人,,一時避難所・避難所
鳥取県,鳥取市,用瀬小学校,鳥取県鳥取市用瀬町用瀬75-1,35.336790044939,134.20153449749,1,0,0,1,1,1,1100人,,一時避難所・避難所
鳥取県,鳥取市,布袋公民館,鳥取県鳥取市河原町布袋237,35.423598708385,134.20573821787,1,0,0,1,0,1,20人,,避難所
鳥取県,八頭郡智頭町,（旧）山郷保育園,鳥取県八頭郡智頭町中原,35.232770369655,134.28918845317,1,0,0,-,-,-,180人,,一時避難所
鳥取県,米子市,大高公民館,鳥取県米子市尾高1759-1,35.421961925032,133.40813321275,1,0,0,-,-,-,145人,,避難所
鳥取県,東伯郡北栄町,デイサービスセンター,鳥取県東伯郡北栄町土下118-1,35.478795251777,133.82106644363,1,0,0,-,-,-,100人,,一時避難所
鳥取県,東伯郡琴浦町,徳万公園,鳥取県東伯郡琴浦町徳万,35.500759754684,133.69641730134,1,0,0,1,0,0,2549人,,一時避難所
鳥取県,鳥取市,醇風小学校,鳥取県鳥取市西町5丁目353,35.50582847627,134.23046946598,1,0,0,1,1,1,1330人,,一時避難所・避難所
鳥取県,八頭郡智頭町,勤労者体育館,鳥取県八頭郡智頭町智頭1068番地6,35.26518914576,134.23782502151,1,0,0,1,1,0,420人,,避難場所・一時避難所
鳥取県,東伯郡北栄町,北栄町社会福祉協議会,鳥取県東伯郡北栄町瀬戸36-2,35.481658364523,133.77583958174,1,0,0,1,1,0,1150人,,町内避難所
鳥取県,倉吉市,倉吉市立上小鴨保育園,鳥取県倉吉市鴨河内1731番地1,35.391565970384,133.78125417219,1,0,0,1,1,1,80人,,指定避難所・福祉避難所
鳥取県,西伯郡大山町,上中山保育所,鳥取県西伯郡大山町束積312-1,35.501112671278,133.59227801037,1,0,0,-,-,-,,,避難場所
鳥取県,鳥取市,上山手地区会館,鳥取県鳥取市河原町山手205-2,35.392235744373,134.21428354491,1,0,0,1,1,1,20人,,避難所
鳥取県,鳥取市,口細見生活改善センター,鳥取県鳥取市細見16-1,35.462534502475,134.13880136019,1,0,0,1,1,1,130人,,避難所
鳥取県,鳥取市,用瀬地区保健センター,鳥取県鳥取市用瀬町別府96-2,35.341619900023,134.19824305989,1,0,0,1,1,1,520人,,避難所
鳥取県,日野郡日南町,福栄生活改善センター,鳥取県日野郡日南町福塚992,35.116337604699,133.30232395861,1,0,0,-,-,-,40人,,避難所
鳥取県,西伯郡日吉津村,日吉津下口公民館,鳥取県西伯郡日吉津村富吉56-2,35.439229079596,133.37833822106,1,0,0,-,-,-,60人,,避難場所
鳥取県,西伯郡伯耆町,番原構造改善センター,鳥取県西伯郡伯耆町番原638番地,35.379904992909,133.43642164999,1,0,0,-,-,-,,,一時避難所
鳥取県,鳥取市,県民文化会館「とりぎん文化会館」,鳥取県鳥取市尚徳町101-5,35.501801273052,134.2371024051,1,0,0,1,1,1,4220人,,避難所
鳥取県,鳥取市,勝谷地区公民館,鳥取県鳥取市鹿野町宮方147-1,35.478761268285,134.05289472359,1,0,0,1,1,1,180人,,避難所
鳥取県,八頭郡智頭町,大呂公民館,鳥取県八頭郡智頭町大呂,35.276429278124,134.29014889614,1,0,0,1,1,0,40人,,避難場所・一時避難所
鳥取県,境港市,台場保育所遊戯室,鳥取県境港市岬町45-3,35.545632785147,133.24481276857,1,0,0,-,-,-,450人,,収容避難所
鳥取県,鳥取市,富桑小学校,鳥取県鳥取市西品治134,35.504214545625,134.22002887508,1,0,0,1,1,1,1150人,,一時避難所・避難所
鳥取県,八頭郡八頭町,八東公民館,鳥取県八頭郡八頭町才代131-1,35.364443924429,134.31860091702,1,0,0,-,-,-,253人,,避難所・広域避難場所
鳥取県,八頭郡八頭町,隼地区公民館（研修センターはやぶさ）,鳥取県八頭郡八頭町見槻中76,35.384119438998,134.26562871681,1,0,0,1,1,0,95人,,広域避難所
鳥取県,東伯郡北栄町,由良宿5区構造改善センター,鳥取県東伯郡北栄町由良宿1812-8,35.496000490167,133.75186337364,1,0,0,1,1,0,,,一時避難所
鳥取県,倉吉市,倉吉市交流プラザ（2階）,鳥取県倉吉市駄経寺町187-1,35.432687122936,133.83596265145,1,0,0,1,1,1,305人,,指定一時避難所
鳥取県,東伯郡琴浦町,船望台公民館,鳥取県東伯郡琴浦町別所311,35.504517179466,133.65885910819,1,0,0,1,1,1,30人,,一時避難所
鳥取県,八頭郡智頭町,河四公民館,鳥取県八頭郡智頭町智頭,35.267194507097,134.22585227017,1,0,0,1,1,0,,,避難場所
鳥取県,西伯郡伯耆町,口別所公民館,鳥取県西伯郡伯耆町口別所,35.377904830014,133.41657921138,1,0,0,-,-,-,,,一時避難所
鳥取県,八頭郡智頭町,三明公民館,鳥取県八頭郡智頭町埴師,35.238777813798,134.23110996672,1,0,0,1,1,0,10人,,避難場所・一時避難所
鳥取県,境港市,余子保育所（余子幼稚園）遊戯室,鳥取県境港市福定町216,35.527261759077,133.24139641555,1,0,0,-,-,-,1280人,,収容避難所
鳥取県,西伯郡伯耆町,二部保育所,鳥取県西伯郡伯耆町二部543-1,35.301211063969,133.41593540917,1,0,0,-,-,-,500人,,一時避難所
鳥取県,鳥取市,賀露地区公民館,鳥取県鳥取市賀露町南5丁目1718-3,35.533060473552,134.19135267173,1,0,0,1,1,1,240人,,避難所
鳥取県,倉吉市,倉吉市上灘公民館（和室、会議室）,鳥取県倉吉市上灘町9,35.432195571417,133.84049557692,1,0,0,1,1,1,144人,,指定一時避難所
鳥取県,日野郡日野町,特別養護老人ホームあいご前,鳥取県日野郡日野町根雨730,35.235585657329,133.44050809831,-,-,-,-,-,-,,,一時避難所
鳥取県,西伯郡南部町,総合福祉センター「いこい荘」,鳥取県西伯郡南部町浅井938,35.361879101926,133.37006595943,1,0,0,-,-,-,100人,,避難所
鳥取県,東伯郡北栄町,みどり団地公民館,鳥取県東伯郡北栄町江北,35.480030917459,133.83931012201,1,0,0,0,1,0,84人,,一時避難所
鳥取県,鳥取市,大正小学校,鳥取県鳥取市古海291-3,35.494204522748,134.20828860341,1,0,0,1,1,1,1030人,,一時避難所・避難所
鳥取県,鳥取市,鳥取社会福祉専門学校,鳥取県鳥取市気高町日光969-1,35.518006600039,134.06297592623,-,-,-,-,-,-,,,一時避難所
鳥取県,米子市,大篠津地区福祉センター,鳥取県米子市大篠津561-1,35.493043747355,133.25869337045,1,0,0,-,-,-,70人,,避難所
鳥取県,鳥取市,渕尻多目的集会所,鳥取県鳥取市佐治町高山773,35.33313298104,134.12559107083,1,0,0,1,1,1,50人,,避難所
鳥取県,米子市,崎津地区福祉センター,鳥取県米子市大崎1561,35.475982649329,133.25495515815,1,0,0,-,-,-,50人,,避難所
鳥取県,東伯郡琴浦町,赤碕中学校体育館,鳥取県東伯郡琴浦町赤碕1922-1,35.515969999174,133.63045762411,1,0,0,1,1,1,6800人,,避難所
鳥取県,東伯郡北栄町,北条幼稚園,鳥取県東伯郡北栄町国坂680,35.481689398827,133.82518548369,1,0,0,-,-,-,90人,,一時避難所
鳥取県,米子市,西保育園,鳥取県米子市錦町3-92-7,35.439570305595,133.3278721906,1,0,0,-,-,-,150人,,避難所
鳥取県,鳥取市,蔵見公民館,鳥取県鳥取市福部町蔵見231-2,35.528072154635,134.30937059139,1,0,0,1,1,1,200人,,避難所
鳥取県,西伯郡南部町,会見農村環境改善センター,鳥取県西伯郡南部町市山1083-1,35.360220870099,133.37440442908,1,0,0,-,-,-,50人,,避難所
鳥取県,倉吉市,倉吉市立山守保育園,鳥取県倉吉市関金町堀2058番地1,35.361747482591,133.70113738532,1,0,0,0,0,1,,,指定避難所・福祉避難所
鳥取県,鳥取市,栃原バス廻し場,鳥取県鳥取市佐治町栃原,35.321963308867,134.018537469,-,-,-,-,-,-,,,一時避難所
鳥取県,日野郡江府町,市民農園,鳥取県日野郡江府町御机,35.315552111637,133.57308034904,-,-,-,-,-,-,230人,,避難所
鳥取県,日野郡日南町,まなび宿たり（旧多里小学校）,鳥取県日野郡日南町多里826,35.116333118676,133.20137627682,1,0,0,-,-,-,350人,,避難所
鳥取県,西伯郡伯耆町,大寺公民館,鳥取県西伯郡伯耆町大殿,35.385615657266,133.40099423628,1,0,0,-,-,-,,,一時避難所
鳥取県,米子市,南保育園,鳥取県米子市陽田町45,35.426599370292,133.34745999495,1,0,0,-,-,-,180人,,避難所
鳥取県,東伯郡三朝町,西小学校寄宿舎,鳥取県東伯郡三朝町本泉510,35.403975759727,133.86284909322,1,0,0,-,-,-,,,避難場所
鳥取県,米子市,米子北高等学校グラウンド,鳥取県米子市米原6丁目14-1,35.44534757297,133.3364547914,-,-,-,-,-,-,,,避難場所
鳥取県,米子市,米子市福祉保健総合センター,鳥取県米子市錦町1-139-3,35.435779005862,133.33339419339,1,0,0,-,-,-,1500人,,避難場所・避難所
鳥取県,米子市,立町北公園,鳥取県米子市米原1丁目10-7,35.442131161615,133.3263526656,-,-,-,-,-,-,,,避難場所
鳥取県,鳥取市,梶掛集会所,鳥取県鳥取市鹿野町乙亥正65-2,35.502169451927,134.05543534563,1,0,0,1,1,1,50人,,避難所
鳥取県,八頭郡若桜町,若桜小学校,鳥取県八頭郡若桜町若桜501,35.344102738352,134.39530265271,1,0,0,-,-,-,800人,,避難所
鳥取県,日野郡日南町,日南町林業総合センター,鳥取県日野郡日南町生山423-2,35.167784944029,133.307555051,1,0,0,-,-,-,140人,,避難所
鳥取県,西伯郡伯耆町,あさひ保育所,鳥取県西伯郡伯耆町真野1020,35.380300439358,133.44345528749,1,0,0,-,-,-,150人,,一時避難所・指定避難場所
鳥取県,鳥取市,宝木小学校,鳥取県鳥取市気高町宝木989,35.512943936896,134.0810663344,1,0,0,1,1,1,1440人,,一時避難所・避難所
鳥取県,鳥取市,湖山保育園,鳥取県鳥取市湖山町南1丁目825,35.514917969717,134.17746564464,1,0,0,1,1,1,270人,,一時避難所・避難所
鳥取県,東伯郡北栄町,茶ヤ条集落センター,鳥取県東伯郡北栄町茶ヤ条,35.452165652324,133.73610716324,1,0,0,0,1,0,30人,,一時避難所
鳥取県,八頭郡智頭町,智頭町民運動場,鳥取県八頭郡智頭町智頭728番地5,35.267508371087,134.23278386441,1,0,0,1,0,0,1000人,,避難場所・一時避難所
鳥取県,日野郡日野町,根雨社会体育館,鳥取県日野郡日野町根雨899-1,35.234524660153,133.44017939127,1,0,0,-,-,-,200人,,避難所
鳥取県,鳥取市,下佐貫集会所,鳥取県鳥取市河原町佐貫1077-11,35.381364611667,134.19645975529,1,0,0,1,1,1,90人,,避難所
鳥取県,倉吉市,倉吉市立西郷保育園,鳥取県倉吉市下余戸129番地1,35.435787062357,133.85117799454,1,0,0,1,1,1,80人,,指定避難所・福祉避難所
鳥取県,鳥取市,上地地区農業集落排水施設広場,鳥取県鳥取市国府町上地346,35.450753495169,134.37815185943,-,-,-,-,-,-,,,一時避難所
鳥取県,西伯郡大山町,中山農業者トレーニングセンター,鳥取県西伯郡大山町下甲1022-5,35.517837472734,133.57365512844,1,0,0,-,-,-,,,避難場所・避難所
鳥取県,鳥取市,上葛谷公民館,鳥取県鳥取市佐治町葛谷212-2,35.343540668949,134.16386030568,1,0,0,1,1,1,50人,,避難所
鳥取県,西伯郡大山町,中山農村環境改善センター,鳥取県西伯郡大山町下甲1120,35.524207293364,133.58423324571,1,0,0,-,-,-,,,避難場所・避難所
鳥取県,東伯郡琴浦町,高松公園花の家,鳥取県東伯郡琴浦町浦安71-2,35.488642102792,133.69376415747,1,0,0,1,1,1,26人,,一時避難所
鳥取県,西伯郡伯耆町,こしきが丘公民館,鳥取県西伯郡伯耆町大殿,35.3828723416,133.40029463563,1,0,0,-,-,-,,,一時避難所
鳥取県,日野郡日野町,下上菅集会所,鳥取県日野郡日野町上菅,35.191713747357,133.35066757523,-,-,-,-,-,-,30人,,一時避難所
鳥取県,鳥取市,国英地区公民館,鳥取県鳥取市河原町山手462-1,35.39886635908,134.21334153128,1,0,0,1,1,1,100人,,避難所
鳥取県,東伯郡琴浦町,下市公民館,鳥取県東伯郡琴浦町八幡,35.512912571816,133.62493061909,1,0,0,1,1,1,50人,,一時避難所
鳥取県,鳥取市,グランデ公園,鳥取県鳥取市覚寺79-7,35.520357318466,134.23213832008,-,-,-,-,-,-,,,一時避難所
鳥取県,鳥取市,鹿野地区コミュニティ施設,鳥取県鳥取市鹿野町鹿野1820-1,35.459672677899,134.06332326823,1,0,0,1,1,1,300人,,一時避難所・避難所
鳥取県,鳥取市,幼児センターこじか園,鳥取県鳥取市鹿野町鹿野583-3,35.463002363217,134.06812997719,1,0,0,1,1,1,470人,,避難所
鳥取県,西伯郡伯耆町,旧こしき保育所,鳥取県西伯郡伯耆町,35.383436955867,133.39299366657,1,0,0,-,-,-,,,指定避難場所
鳥取県,西伯郡伯耆町,溝口保育所,鳥取県西伯郡伯耆町溝口384,35.342488175882,133.4361304173,1,0,0,-,-,-,1520人,,一時避難所
鳥取県,日野郡日南町,日南邑運動広場,鳥取県日野郡日南町神戸上,35.131788547378,133.38209729309,-,-,-,-,-,-,400人,,一時避難所
鳥取県,鳥取市,正蓮寺公園,鳥取県鳥取市正蓮寺128-3,35.474118807941,134.24351651132,-,-,-,-,-,-,,,一時避難所
鳥取県,東伯郡北栄町,大谷公民館,鳥取県東伯郡北栄町大谷,35.498340716591,133.73011988681,1,0,0,1,1,1,100人,,一時避難所
鳥取県,鳥取市,井手公民館,鳥取県鳥取市青谷町井手321,35.519832425883,133.98528813813,1,0,0,1,1,1,20人,,避難所
鳥取県,西伯郡伯耆町,番原多目的広場,鳥取県西伯郡伯耆町番原,35.380517392693,133.43458877354,-,-,-,-,-,-,,,一時避難所
鳥取県,鳥取市,余戸公民館,鳥取県鳥取市佐治町余戸513,35.328345052317,134.07555497797,1,0,0,1,1,1,100人,,避難所
鳥取県,日野郡江府町,せせらぎ公園,鳥取県日野郡江府町江尾,35.286745822105,133.49407672901,-,-,-,-,-,-,2000人,,避難所
鳥取県,鳥取市,下曳田地区会館,鳥取県鳥取市河原町曳田351-1,35.39800445208,134.19786109542,1,0,0,1,1,1,60人,,避難所
鳥取県,鳥取市,山上集落センター,鳥取県鳥取市河原町山上92-4,35.365298655033,134.16617648463,1,0,0,1,1,1,60人,,避難所
鳥取県,西伯郡伯耆町,町民溝口体育館,鳥取県西伯郡伯耆町長山275,35.348175660531,133.43732337449,1,0,0,-,-,-,1280人,,一時避難所
鳥取県,東伯郡湯梨浜町,わかば保育所,鳥取県東伯郡湯梨浜町宇谷606-1,35.504444269883,133.92000262625,1,0,0,0,1,0,202人,,一時避難所
鳥取県,鳥取市,レーク大樹（グラウンド・ゴルフ場ほか）,鳥取県鳥取市金沢8-1,35.498038747656,134.13410344098,-,-,-,-,-,-,,,一時避難所
鳥取県,西伯郡伯耆町,コミュニティプラザ（シルバー人材センター）,鳥取県西伯郡伯耆町二部2825,35.309296244004,133.41766273805,1,0,0,-,-,-,80人,,一時避難所
鳥取県,鳥取市,美萩野2公共空地,鳥取県鳥取市美萩野2丁目401-4,35.518733224115,134.13588885418,-,-,-,-,-,-,,,一時避難所
鳥取県,鳥取市,（旧）大茅小学校,鳥取県鳥取市国府町栃本463,35.469403650503,134.36304074215,1,0,0,1,1,1,220人,,避難所
鳥取県,米子市,皆生新田中央公園,鳥取県米子市皆生新田3丁目3-1,35.454216319759,133.36722765825,-,-,-,-,-,-,,,避難場所
鳥取県,八頭郡八頭町,上私都活性化施設,鳥取県八頭郡八頭町麻生183-5,35.400728663351,134.34638839109,1,0,0,1,0,0,46人,,広域避難所
鳥取県,東伯郡琴浦町,八橋3区公民館,鳥取県東伯郡琴浦町八橋,35.505421444808,133.67582628945,1,0,0,1,1,0,24人,,一時避難所
鳥取県,鳥取市,三谷公民館,鳥取県鳥取市河原町三谷348-2,35.390281874765,134.22355165504,1,0,0,1,1,1,20人,,避難所
鳥取県,東伯郡湯梨浜町,松崎3区公民館,鳥取県東伯郡湯梨浜町松崎,35.472534844187,133.90408816501,1,0,0,-,-,-,,,一時避難所
鳥取県,米子市,啓成公民館,鳥取県米子市博労町4-364,35.435976227355,133.33802716821,1,0,0,-,-,-,115人,,避難所
鳥取県,日野郡日南町,ゆきんこ村・四季彩,鳥取県日野郡日南町下阿毘縁478,35.209652794716,133.20725864814,1,0,0,-,-,-,250人,,避難所
鳥取県,西伯郡大山町,大山小学校,鳥取県西伯郡大山町佐摩340,35.445641538308,133.49757755129,1,0,0,-,-,-,,,避難場所・避難所
鳥取県,東伯郡琴浦町,成美小学校体育館,鳥取県東伯郡琴浦町佐崎16,35.496776671577,133.62676134341,1,0,0,1,1,1,1400人,,避難所
鳥取県,東伯郡湯梨浜町,なりすな会館,鳥取県東伯郡湯梨浜町石脇,35.516616529606,133.95000007706,1,0,0,0,1,0,,,一時避難所
鳥取県,東伯郡琴浦町,本町公民館,鳥取県東伯郡琴浦町赤碕,35.514967507931,133.64513675462,1,0,0,0,1,0,30人,,一時避難所
鳥取県,西伯郡伯耆町,大滝公民館,鳥取県西伯郡伯耆町大滝,35.332067928894,133.49816201321,1,0,0,-,-,-,20人,,一時避難所
鳥取県,東伯郡琴浦町,亀崎町公民館,鳥取県東伯郡琴浦町赤碕,35.509370647829,133.654775354,1,0,0,1,1,1,50人,,一時避難所
鳥取県,東伯郡湯梨浜町,泊体育館,鳥取県東伯郡湯梨浜町泊1258-1,35.513829854729,133.94463082073,1,0,0,0,1,1,470人,,避難場所・避難所
鳥取県,倉吉市,倉吉市高城児童センター,鳥取県倉吉市上福田1103,35.430702198313,133.74778785272,1,0,0,1,1,1,67人,,指定一時避難所
鳥取県,米子市,河崎公民館,鳥取県米子市河崎2620,35.455521421761,133.30285588051,1,0,0,-,-,-,155人,,避難所
鳥取県,東伯郡湯梨浜町,温泉児童館,鳥取県東伯郡湯梨浜町上浅津,35.478769633697,133.88233394607,1,0,0,0,1,1,80人,,避難場所・避難所
鳥取県,鳥取市,鹿野町商工会館,鳥取県鳥取市鹿野町鹿野1302-2,35.462107911781,134.06403864047,1,0,0,1,1,1,100人,,避難所
鳥取県,日野郡日野町,久住集会所,鳥取県日野郡日野町久住,35.238153053381,133.36334371383,-,-,-,-,-,-,,,一時避難所
鳥取県,米子市,皆生海浜公園,鳥取県米子市皆生温泉4丁目5-1,35.45700487921,133.35868931535,-,-,-,-,-,-,,,避難場所
鳥取県,日野郡日南町,日南小学校,鳥取県日野郡日南町生山450-2,35.167541937825,133.31003014827,1,0,0,-,-,-,500人,,一時避難所・避難所
鳥取県,鳥取市,社地区公民館,鳥取県鳥取市用瀬町宮原88-1,35.315137058982,134.19491926317,1,0,0,1,1,1,120人,,避難所
鳥取県,西伯郡伯耆町,町営駐車場,鳥取県西伯郡伯耆町溝口,35.346547731904,133.43643901137,1,0,0,-,-,-,690人,,一時避難所
鳥取県,日野郡日南町,まなび宿おおみや（旧大宮小学校）,鳥取県日野郡日南町印賀1516,35.239149124567,133.27310755104,1,0,0,-,-,-,400人,,避難所
鳥取県,東伯郡湯梨浜町,浜地区会館,鳥取県東伯郡湯梨浜町はわい長瀬1700-2,35.500003925882,133.8663076378,1,0,0,1,1,0,70人,,避難場所・避難所
鳥取県,鳥取市,米里地区公民館,鳥取県鳥取市古郡家79-4,35.459056623056,134.23870892221,1,0,0,1,1,1,70人,,避難所
鳥取県,八頭郡八頭町,たから保育所・園庭,鳥取県八頭郡八頭町門尾31-1,35.426076977339,134.26269902701,1,0,0,1,0,0,136人,,広域避難所
鳥取県,東伯郡北栄町,大谷保育所,鳥取県東伯郡北栄町大谷2112-175,35.500741444525,133.73142298173,1,0,0,-,-,-,100人,,避難所
鳥取県,鳥取市,和奈見公民館,鳥取県鳥取市河原町和奈見199-2,35.363276734081,134.20985496518,1,0,0,1,1,1,90人,,避難所
鳥取県,八頭郡若桜町,若桜小学校吉川分校,鳥取県八頭郡若桜町吉川101,35.271942609832,134.41642758019,1,0,0,-,-,-,80人,,避難所
鳥取県,東伯郡湯梨浜町,東郷中学校校舎,鳥取県東伯郡湯梨浜町久見110,35.465293387421,133.90986313222,1,0,0,1,1,1,1560人,,避難場所・一時避難所・避難所
鳥取県,八頭郡八頭町,郡家老人福祉センター,鳥取県八頭郡八頭町宮谷254-1,35.418122308942,134.25505842988,1,0,0,1,1,0,790人,,広域避難所
鳥取県,米子市,義方公民館,鳥取県米子市立町4-105-23,35.437584226864,133.32330865966,1,0,0,-,-,-,130人,,避難所
鳥取県,鳥取市,赤波集会所,鳥取県鳥取市用瀬町赤波193-4,35.350304188386,134.22463281594,1,0,0,1,1,1,60人,,避難所
鳥取県,日野郡江府町,総合健康福祉センター,鳥取県日野郡江府町江尾,35.282684711396,133.48499220125,1,0,0,-,-,-,513人,,避難所
鳥取県,米子市,富繁構造改善センター,鳥取県米子市淀江町富繁55-4,35.439435345204,133.42919143283,1,0,0,-,-,-,54人,,避難施設・避難所
鳥取県,鳥取市,用瀬町民会館（用瀬町中央公民館）（用瀬人権文化センター）,鳥取県鳥取市用瀬町別府34-7,35.343453072346,134.20127899821,1,0,0,1,1,1,460人,,避難所
鳥取県,八頭郡八頭町,八東隣保館,鳥取県八頭郡八頭町才代131-1,35.364385532626,134.31861571624,1,0,0,-,-,-,159人,,避難所・広域避難場所
鳥取県,鳥取市,玉鉾公園,鳥取県鳥取市国府町玉鉾87-13,35.462395647746,134.29213484505,-,-,-,-,-,-,,,一時避難所
鳥取県,鳥取市,勝部体育館,鳥取県鳥取市青谷町紙屋110,35.466783975654,133.97419621628,1,0,0,1,1,1,340人,,避難所
鳥取県,鳥取市,用瀬町総合支所（駐車場）,鳥取県鳥取市用瀬町用瀬832,35.342783982744,134.20747308595,-,-,-,-,-,-,,,一時避難所
鳥取県,西伯郡伯耆町,町民グランド,鳥取県西伯郡伯耆町大殿41,35.387324254832,133.40521911065,-,-,-,-,-,-,2500人,,一時避難所
鳥取県,八頭郡智頭町,あたご保育園,鳥取県八頭郡智頭町智頭1528-1,35.266552954146,134.227714899,1,0,0,1,1,0,180人,,避難場所・一時避難所
鳥取県,八頭郡智頭町,沖代団地公民館,鳥取県八頭郡智頭町南方,35.261782216065,134.23922805951,1,0,0,1,1,0,,,避難場所
鳥取県,西伯郡伯耆町,熱田神社,鳥取県西伯郡伯耆町大殿,35.390922753679,133.39457839317,-,-,-,-,-,-,,,一時避難所
鳥取県,西伯郡日吉津村,日吉津上口1公民館,鳥取県西伯郡日吉津村日吉津473,35.436496099713,133.38090476517,1,0,0,-,-,-,90人,,避難場所
鳥取県,鳥取市,若葉台地区公民館,鳥取県鳥取市若葉台南2丁目16-1,35.448179802799,134.2635560641,1,0,0,1,1,1,130人,,避難所
鳥取県,米子市,彦名小学校,鳥取県米子市彦名町4500-2,35.456132277106,133.29166791642,1,0,0,-,-,-,500人,,避難所
鳥取県,鳥取市,秋里下水終末処理場,鳥取県鳥取市秋里903,35.519390356372,134.21841739461,-,-,-,-,-,-,,,一時避難所
鳥取県,鳥取市,砂丘公民館,鳥取県鳥取市福部町湯山2164-810,35.538540688874,134.23831765617,1,0,0,1,1,1,40人,,避難所
鳥取県,鳥取市,上大井公民館,鳥取県鳥取市佐治町大井257-2,35.336434389007,134.15245590454,1,0,0,1,1,1,50人,,避難所
鳥取県,八頭郡智頭町,那岐神社,鳥取県八頭郡智頭町大背,35.213626908283,134.19435178333,1,0,0,1,1,0,20人,,避難場所・一時避難所
鳥取県,西伯郡伯耆町,福樹寺,鳥取県西伯郡伯耆町大殿,35.385178224778,133.40208333008,-,-,-,-,-,-,,,一時避難所
鳥取県,日野郡江府町,日輪閣,鳥取県日野郡江府町江尾,35.282954421907,133.48729811207,1,0,0,-,-,-,320人,,避難所
鳥取県,鳥取市,栃原生活改善センター,鳥取県鳥取市佐治町栃原355,35.321648391157,134.02162170263,1,0,0,1,1,1,50人,,避難所
鳥取県,米子市,米子中央卸売団地米子港埠頭ほか空地,鳥取県米子市旗ケ崎2102,35.43269017712,133.31628706198,-,-,-,-,-,-,,,避難場所
鳥取県,八頭郡智頭町,富沢地区公民館,鳥取県八頭郡智頭町新見225番地2,35.256528467013,134.20313985738,1,0,0,1,1,0,140人,,避難場所・一時避難所
鳥取県,鳥取市,鳥取大学,鳥取県鳥取市湖山町南4丁目101,35.514042963859,134.17080517946,1,0,0,1,1,1,1900人,,一時避難所・避難所
鳥取県,八頭郡智頭町,下西地区多目的集会所,鳥取県八頭郡智頭町西宇塚212,35.216386977167,134.18462592551,1,0,0,1,1,0,70人,,避難場所・一時避難所
鳥取県,八頭郡若桜町,中之島公園,鳥取県八頭郡若桜町若桜991-1,35.344558799478,134.40192932114,1,0,0,-,-,-,3000人,,一時避難所
鳥取県,日野郡日南町,ふるさと日南邑ファーム・イン,鳥取県日野郡日南町神戸上2962-1,35.12979046482,133.38146101091,1,0,0,-,-,-,250人,,避難所
鳥取県,鳥取市,上山手子ども広場,鳥取県鳥取市河原町山手219,35.392358532564,134.21455771377,-,-,-,-,-,-,,,一時避難所
鳥取県,境港市,しらぎく会館,鳥取県境港市小篠津町450,35.508738168338,133.24882989789,1,0,0,-,-,-,80人,,収容避難所
鳥取県,鳥取市,青谷中学校（体育館）,鳥取県鳥取市青谷町青谷4190-1,35.511472453135,133.9953708874,1,0,0,1,1,1,450人,,一時避難所・避難所
鳥取県,東伯郡湯梨浜町,中央公民館泊分館,鳥取県東伯郡湯梨浜町泊1204-1,35.514071535893,133.94503918226,1,0,0,0,1,1,260人,,避難場所・避難所
鳥取県,鳥取市,東今在家公共空地,鳥取県鳥取市東今在家87-44,35.475507540852,134.25454325007,-,-,-,-,-,-,,,一時避難所
鳥取県,東伯郡北栄町,中央保育所,鳥取県東伯郡北栄町弓原458,35.48448604627,133.80888400116,1,0,0,-,-,-,390人,,避難所
鳥取県,東伯郡北栄町,西園多目的集会所,鳥取県東伯郡北栄町西園1160,35.490014696702,133.7673021147,1,0,0,1,1,1,50人,,一時避難所
鳥取県,西伯郡南部町,特別養護老人ホーム「ゆうらく」,鳥取県西伯郡南部町落合646,35.335360882708,133.33218998306,1,0,0,-,-,-,100人,,避難所
鳥取県,鳥取市,高架記念公園,鳥取県鳥取市永楽温泉町701,35.49278670296,134.22987493402,-,-,-,-,-,-,,,一時避難所
鳥取県,鳥取市,秋里タウン公園,鳥取県鳥取市秋里1071,35.520370680563,134.21236420619,-,-,-,-,-,-,,,一時避難所
鳥取県,東伯郡北栄町,大栄ふれあい会館,鳥取県東伯郡北栄町下種868,35.454429866675,133.73945496851,1,0,0,1,1,0,150人,,町内避難所
鳥取県,八頭郡若桜町,寺前集会所,鳥取県八頭郡若桜町大野,35.296717408732,134.45635676981,1,0,0,-,-,-,80人,,一時避難所
鳥取県,鳥取市,二ツ家集会所,鳥取県鳥取市鹿野町末用1914,35.447793138268,134.07497427658,1,0,0,1,1,1,30人,,避難所
鳥取県,米子市,弓ヶ浜体育館,鳥取県米子市夜見町325-10,35.456726757636,133.29303994604,1,0,0,-,-,-,450人,,避難所
鳥取県,東伯郡湯梨浜町,松崎2区公民館,鳥取県東伯郡湯梨浜町松崎,35.472632631311,133.90410046011,1,0,0,-,-,-,,,一時避難所
鳥取県,米子市,五千石公民館,鳥取県米子市八幡705-21,35.397938891478,133.37836948014,1,0,0,-,-,-,130人,,避難所
鳥取県,鳥取市,東郷児童館,鳥取県鳥取市西今在家207,35.46814924442,134.17988513802,1,0,0,1,1,1,90人,,避難所
鳥取県,米子市,富益団地集会所,鳥取県米子市富益町4412-72,35.466689250691,133.27516972223,1,0,0,-,-,-,50人,,避難所
鳥取県,西伯郡大山町,大山農村環境改善センター,鳥取県西伯郡大山町今在家611,35.440350217459,133.50004675971,1,0,0,-,-,-,,,避難場所・避難所
鳥取県,東伯郡琴浦町,緑公民館,鳥取県東伯郡琴浦町光,35.500710475432,133.62377414203,1,0,0,1,1,1,30人,,一時避難所
鳥取県,八頭郡八頭町,船岡保健センター,鳥取県八頭郡八頭町船岡殿159,35.382056905249,134.24945211338,1,0,0,1,1,0,903人,,広域避難所
鳥取県,鳥取市,青谷町運動公園,鳥取県鳥取市青谷町青谷3500-1,35.520586658152,134.00023358438,-,-,-,-,-,-,,,一時避難所・広域避難場所
鳥取県,鳥取市,白浜グラウンド,鳥取県鳥取市賀露町南5丁目1718-2,35.532623041146,134.19226059998,-,-,-,-,-,-,,,一時避難所
鳥取県,鳥取市,北村6区公民館,鳥取県鳥取市河原町北村607-2,35.383754005865,134.10049162686,1,0,0,1,1,1,20人,,避難所
鳥取県,米子市,崎津小学校,鳥取県米子市大崎3244,35.4765047049,133.2588381361,1,0,0,-,-,-,500人,,避難所
鳥取県,東伯郡三朝町,南小学校・体育館,鳥取県東伯郡三朝町穴鴨166-2,35.326841386188,133.83729297106,1,0,0,-,-,-,,,避難場所
鳥取県,八頭郡八頭町,中私都改善センター,鳥取県八頭郡八頭町下津黒87-10,35.419253580042,134.30861184476,1,0,0,1,1,0,105人,,広域避難所
鳥取県,鳥取市,福部すなっこ園,鳥取県鳥取市福部町海士345-1,35.546174892194,134.2791694583,1,0,0,1,1,1,510人,,一時避難所・避難所
鳥取県,鳥取市,鹿野地区保健センター,鳥取県鳥取市鹿野町今市650,35.46591574955,134.05639199919,1,0,0,1,1,1,230人,,避難所
鳥取県,鳥取市,本町公民館,鳥取県鳥取市青谷町青谷3883,35.520760160151,133.99566233159,1,0,0,1,1,1,40人,,避難所
鳥取県,東伯郡北栄町,国坂浜集落センター,鳥取県東伯郡北栄町国坂,35.487893297656,133.83163477243,1,0,0,1,1,1,76人,,一時避難所
鳥取県,八頭郡智頭町,（旧）那岐保育園,鳥取県八頭郡智頭町大背,35.211609779815,134.20434826444,1,0,0,-,-,-,130人,,一時避難所
鳥取県,日野郡日南町,日南町役場,鳥取県日野郡日南町霞800,35.163268762865,133.30624141128,1,0,0,-,-,-,700人,,一時避難所・避難所
鳥取県,東伯郡琴浦町,東伯武道館,鳥取県東伯郡琴浦町浦安119,35.494930914855,133.69414510966,1,0,0,1,1,1,105人,,避難所
鳥取県,鳥取市,鹿野小学校,鳥取県鳥取市鹿野町鹿野2888,35.460013652389,134.05645605331,1,0,0,1,1,1,1680人,,一時避難所・避難所
鳥取県,鳥取市,鳥取盲学校,鳥取県鳥取市国府町宮下1265,35.479634730278,134.25604581973,1,0,0,1,1,1,730人,,一時避難所・避難所
鳥取県,東伯郡琴浦町,総合体育館,鳥取県東伯郡琴浦町田越,35.496330176556,133.6809068074,1,0,0,1,1,1,990人,,避難所
鳥取県,八頭郡八頭町,八東体育文化センター,鳥取県八頭郡八頭町富枝10番地1,35.361795082611,134.35779448321,1,0,0,-,-,-,936人,,避難所・広域避難場所
鳥取県,西伯郡大山町,大山総合体育館,鳥取県西伯郡大山町大山145-13,35.400275656506,133.53580738282,1,0,0,-,-,-,,,避難場所・避難所
鳥取県,鳥取市,谷地区公民館,鳥取県鳥取市国府町糸谷13,35.463914921635,134.29512065113,1,0,0,1,1,1,180人,,避難所
鳥取県,倉吉市,はばたき人権文化センター,鳥取県倉吉市福吉町2丁目1514-7,35.434180829613,133.81351471343,1,0,0,1,1,1,52人,,指定一時避難所
鳥取県,東伯郡琴浦町,上野公民館,鳥取県東伯郡琴浦町赤碕,35.508132658008,133.63376729112,1,0,0,1,1,1,50人,,一時避難所
鳥取県,日野郡日南町,デイサービスセンターおおくさ荘,鳥取県日野郡日南町茶屋3630-1,35.185830826002,133.23220596158,1,0,0,-,-,-,100人,,一時避難所
鳥取県,日野郡江府町,旧明倫小学校,鳥取県日野郡江府町武庫,35.264427123137,133.47949318791,1,0,0,-,-,-,1390人,,避難所
鳥取県,鳥取市,舂谷多目的集会所,鳥取県鳥取市佐治町舂谷480,35.329097943634,134.09162111194,1,0,0,1,1,1,100人,,避難所
鳥取県,日野郡日野町,松村氏宅前,鳥取県日野郡日野町秋縄,35.197619215891,133.45160473877,-,-,-,-,-,-,,,一時避難所
鳥取県,米子市,上和田集会所,鳥取県米子市和田町3634-2,35.482767825959,133.27361148987,1,0,0,-,-,-,50人,,避難所
鳥取県,八頭郡智頭町,上町公民館,鳥取県八頭郡智頭町智頭,35.268901366701,134.23173803335,1,0,0,1,1,0,100人,,避難場所・一時避難所
鳥取県,八頭郡智頭町,河三公民館,鳥取県八頭郡智頭町智頭,35.268995750405,134.23852016275,1,0,0,1,1,0,90人,,避難場所・一時避難所
鳥取県,八頭郡智頭町,諏訪保育園,鳥取県八頭郡智頭町智頭624-1,35.268622189556,134.23003131284,1,0,0,1,1,0,300人,,避難場所・一時避難所
鳥取県,境港市,境高等学校教室等,鳥取県境港市上道町3030,35.535924912814,133.23424948057,1,0,0,0,0,1,12600人,,収容避難所・津波一時避難所
鳥取県,鳥取市,大村保育園,鳥取県鳥取市用瀬町鷹狩32-1,35.3529048966,134.20950617835,1,0,0,1,1,1,190人,,避難所
鳥取県,東伯郡北栄町,東新田場集会所,鳥取県東伯郡北栄町江北,35.499163172029,133.85408174805,1,0,0,1,1,0,41人,,一時避難所
鳥取県,鳥取市,東今在家公園,鳥取県鳥取市東今在家55-6,35.474740935579,134.25448217366,-,-,-,-,-,-,,,一時避難所
鳥取県,鳥取市,青谷小学校,鳥取県鳥取市青谷町青谷3459,35.522987783916,134.00067299128,1,0,0,1,1,1,2010人,,一時避難所・避難所
鳥取県,日野郡日野町,菅福社会体育館,鳥取県日野郡日野町上菅664-2,35.192960704302,133.34533237527,-,-,-,-,-,-,60人,,一時避難所
鳥取県,鳥取市,すくすく保育園,鳥取県鳥取市青谷町青谷604,35.518849408707,134.00258404506,1,0,0,1,1,1,550人,,避難所
鳥取県,鳥取市,岡井集会所,鳥取県鳥取市鹿野町岡木103-2,35.495362032367,134.05627722462,1,0,0,1,1,1,60人,,避難所
鳥取県,鳥取市,矢原集会所,鳥取県鳥取市鹿野町河内128-9,35.434743700178,134.0211734465,1,0,0,1,1,1,60人,,避難所
鳥取県,境港市,誠道小学校教室等,鳥取県境港市誠道町2062,35.517484812383,133.23619433173,1,0,0,0,0,1,4440人,,収容避難所・津波一時避難所
鳥取県,日野郡日南町,桜ヶ瀬会館,鳥取県日野郡日南町多里782-2,35.115922053168,133.20047357233,1,0,0,-,-,-,90人,,避難所
鳥取県,倉吉市,倉吉市立上小鴨小学校,鳥取県倉吉市福山30番地,35.392190891478,133.78291512618,1,0,0,1,1,1,121人,,指定避難所
鳥取県,日野郡日野町,なかや商店前,鳥取県日野郡日野町濁谷,35.202265853725,133.44417189763,-,-,-,-,-,-,,,一時避難所
鳥取県,鳥取市,蔵内公民館,鳥取県鳥取市青谷町蔵内294-1,35.490536817455,134.01988615009,1,0,0,1,1,1,70人,,避難所
鳥取県,東伯郡湯梨浜町,北福公民館,鳥取県東伯郡湯梨浜町北福,35.488133357242,133.92916144817,1,0,0,0,1,0,,,一時避難所
鳥取県,東伯郡琴浦町,水口公民館,鳥取県東伯郡琴浦町勝田,35.498597228692,133.63331287002,1,0,0,1,1,1,10人,,一時避難所
鳥取県,西伯郡日吉津村,日吉津村立農業者トレーニングセンター,鳥取県西伯郡日吉津村日吉津936,35.442042698593,133.37919092819,1,0,0,-,-,-,500人,,避難場所
鳥取県,東伯郡琴浦町,八橋ふれあいセンター,鳥取県東伯郡琴浦町八橋998-1,35.503260834372,133.67376890121,1,0,0,1,1,0,58人,,避難所
鳥取県,東伯郡湯梨浜町,漁村センター,鳥取県東伯郡湯梨浜町泊1571-6,35.515004597287,133.93924795583,1,0,0,1,1,0,180人,,避難場所・避難所
鳥取県,西伯郡大山町,中山みどりの森保育園,鳥取県西伯郡大山町赤坂767-2,35.516880207814,133.58021445967,1,0,0,-,-,-,,,避難所
鳥取県,鳥取市,下佐貫児童遊園地,鳥取県鳥取市河原町佐貫1104-1,35.383272630897,134.19537090509,-,-,-,-,-,-,,,一時避難所
鳥取県,日野郡日野町,日野町交流センター,鳥取県日野郡日野町下榎1183,35.230083180336,133.41891038252,1,0,0,-,-,-,150人,,避難所
鳥取県,鳥取市,高住公共空地,鳥取県鳥取市高住725,35.497780739169,134.16034661029,-,-,-,-,-,-,,,一時避難所
鳥取県,西伯郡日吉津村,富吉公民館,鳥取県西伯郡日吉津村富吉1034,35.44380641132,133.37887983094,1,0,0,-,-,-,70人,,避難場所
鳥取県,東伯郡湯梨浜町,石脇公民館,鳥取県東伯郡湯梨浜町石脇,35.515098394982,133.94923817944,1,0,0,0,1,0,10人,,一時避難所
鳥取県,東伯郡琴浦町,県畜産試験場事務所,鳥取県東伯郡琴浦町松谷606,35.503976022518,133.64179376852,1,0,0,-,-,-,50人,,一時避難所
鳥取県,米子市,五千石小学校,鳥取県米子市諏訪1695,35.397458428811,133.37731678436,1,0,0,-,-,-,700人,,避難所
鳥取県,東伯郡北栄町,東保育所,鳥取県東伯郡北栄町江北3854,35.491869088744,133.8417114063,1,0,0,-,-,-,70人,,避難所
鳥取県,鳥取市,鳥取いなば農協佐治選果場（駐車場）,鳥取県鳥取市佐治町古市62,35.342704635164,134.1623909506,-,-,-,-,-,-,,,一時避難所
鳥取県,西伯郡伯耆町,栃原公民館,鳥取県西伯郡伯耆町栃原,35.32888771173,133.49379972806,1,0,0,-,-,-,20人,,一時避難所
鳥取県,鳥取市,お城山展望台（河原城）,鳥取県鳥取市河原町谷一木1011,35.40383129348,134.19951158375,-,-,-,-,-,-,,,一時避難所
鳥取県,西伯郡日吉津村,日吉津上口2公民館,鳥取県西伯郡日吉津村日吉津63,35.432440914501,133.38054643656,1,0,0,-,-,-,60人,,避難場所
鳥取県,東伯郡湯梨浜町,青少年の家,鳥取県東伯郡湯梨浜町泊1117-1,35.514235060941,133.94252299276,1,0,0,0,1,1,230人,,避難場所・避難所
鳥取県,米子市,中央燐保館,鳥取県米子市富士見町50-1,35.432739314089,133.33706903321,1,0,0,-,-,-,80人,,避難所
鳥取県,鳥取市,塩竃神社,鳥取県鳥取市面影1丁目20-13,35.477290604185,134.24780486385,-,-,-,-,-,-,,,一時避難所
鳥取県,西伯郡伯耆町,文化センター,鳥取県西伯郡伯耆町三部590-9,35.313559704812,133.42056232489,1,0,0,-,-,-,60人,,一時避難所
鳥取県,米子市,福生西小学校,鳥取県米子市上福原5-4-1,35.449091732755,133.35233426558,1,0,0,-,-,-,700人,,避難場所・避難所
鳥取県,鳥取市,古用瀬集会所,鳥取県鳥取市用瀬町古用瀬404-12,35.335884528263,134.19773189517,1,0,0,1,1,1,40人,,一時避難所・避難所
鳥取県,鳥取市,西町公民館,鳥取県鳥取市青谷町青谷4361-1,35.516596798001,133.99169883697,1,0,0,1,0,1,50人,,避難所
鳥取県,鳥取市,国府町中央公民館,鳥取県鳥取市国府町庁380,35.472469134194,134.27388627384,1,0,0,1,1,1,720人,,一時避難所・避難所
鳥取県,境港市,渡体育館,鳥取県境港市渡町1417-3,35.516696017757,133.21801521547,1,0,0,-,-,-,230人,,収容避難所
鳥取県,鳥取市,下味野児童館,鳥取県鳥取市下味野1058-2,35.467846559063,134.20754229771,1,0,0,1,0,1,90人,,避難所
鳥取県,鳥取市,佐治町B＆G海洋センター,鳥取県鳥取市佐治町加茂1267,35.32900989983,134.10046879193,1,0,0,1,1,1,740人,,一時避難所・避難所
鳥取県,日野郡日南町,印賀自治会館,鳥取県日野郡日南町印賀958,35.239473501726,133.27968534696,1,0,0,-,-,-,150人,,避難所
鳥取県,米子市,住吉体育館,鳥取県米子市旗ヶ崎7-17-36,35.44019507828,133.30975647631,1,0,0,-,-,-,440人,,避難所
鳥取県,西伯郡伯耆町,日光小学校,鳥取県西伯郡伯耆町栃原29,35.333545278232,133.50661426066,1,0,0,-,-,-,2590人,,一時避難所・指定避難場所
鳥取県,東伯郡北栄町,由良宿7区公民館,鳥取県東伯郡北栄町由良宿596-19,35.489123378206,133.75305811473,1,0,0,0,1,0,,,一時避難所
鳥取県,西伯郡伯耆町,須村農村広場,鳥取県西伯郡伯耆町須村,35.389209764421,133.44662891876,-,-,-,-,-,-,,,一時避難所
鳥取県,日野郡江府町,旧御机分校グランド,鳥取県日野郡江府町御机,35.322986701586,133.5567035865,-,-,-,-,-,-,200人,,避難所
鳥取県,鳥取市,面影地区公民館,鳥取県鳥取市桜谷162-6,35.470735832383,134.24662462147,1,0,0,1,1,1,90人,,避難所
鳥取県,日野郡日野町,黒坂駅前広場,鳥取県日野郡日野町黒坂,35.206830680715,133.38381761628,-,-,-,-,-,-,,,一時避難所
鳥取県,西伯郡伯耆町,林ヶ原公民館,鳥取県西伯郡伯耆町清原林ケ原,35.36930178461,133.4393345952,1,0,0,-,-,-,,,一時避難所
鳥取県,鳥取市,修立地区公民館,鳥取県鳥取市吉方町1丁目201,35.495352063007,134.23909964077,1,0,0,1,1,1,70人,,避難所
鳥取県,鳥取市,のぞみ保育園,鳥取県鳥取市数津94-8,35.468483139047,134.22412956121,1,0,0,1,0,1,300人,,避難所
鳥取県,米子市,川上集会所,鳥取県米子市富益町1184-2,35.472294398838,133.2908347472,1,0,0,-,-,-,50人,,避難所
鳥取県,西伯郡伯耆町,殿河内公民館,鳥取県西伯郡伯耆町大殿,35.391608266932,133.39404203072,1,0,0,-,-,-,,,一時避難所
鳥取県,鳥取市,大正体育館,鳥取県鳥取市古海708-1,35.501098016043,134.20906049474,1,0,0,1,0,1,390人,,避難所
鳥取県,日野郡日南町,日南町総合運動場,鳥取県日野郡日南町生山,35.168141093761,133.3109930562,-,-,-,-,-,-,1000人,,一時避難所
鳥取県,西伯郡南部町,レークサイドアリーナ,鳥取県西伯郡南部町下中谷965-5,35.303064487605,133.325011649,1,0,0,-,-,-,200人,,避難所
鳥取県,米子市,車尾児童館,鳥取県米子市車尾2-28-21,35.432407322119,133.3580507447,1,0,0,-,-,-,40人,,避難所
鳥取県,東伯郡湯梨浜町,福永公民館,鳥取県東伯郡湯梨浜町北福,35.489395511306,133.92175538216,1,0,0,0,1,0,,,一時避難所
鳥取県,東伯郡三朝町,三朝中学校寄宿舎,鳥取県東伯郡三朝町本泉510,35.403982958799,133.86284739312,1,0,0,-,-,-,,,避難場所
鳥取県,倉吉市,倉吉市高齢者生活福祉センター,鳥取県倉吉市関金町関金宿1115番地2,35.36443652797,133.75891731103,1,0,0,1,1,1,276人,,指定避難所・福祉避難所
鳥取県,東伯郡琴浦町,東山区公民館,鳥取県東伯郡琴浦町出上40-1,35.501373526195,133.63283313499,1,0,0,1,1,1,30人,,一時避難所
鳥取県,米子市,富益新田集会所,鳥取県米子市富益町4438-1,35.470277804936,133.27710007664,1,0,0,-,-,-,50人,,避難所
鳥取県,鳥取市,左近集会所,鳥取県鳥取市福部町左近360,35.510116119164,134.31313747665,1,0,0,1,1,1,180人,,避難所
鳥取県,西伯郡伯耆町,武道館,鳥取県西伯郡伯耆町吉長,35.347863988221,133.43652343979,1,0,0,-,-,-,,,一時避難所
鳥取県,東伯郡北栄町,さつきヶ丘公民館,鳥取県東伯郡北栄町下神,35.490323254919,133.81002556867,1,0,0,1,1,0,20人,,一時避難所
鳥取県,日野郡日南町,健康福祉センターほほえみの里,鳥取県日野郡日南町生山511-5,35.16576320646,133.31965417742,1,0,0,-,-,-,80人,,避難所
鳥取県,西伯郡伯耆町,坂長公民館,鳥取県西伯郡伯耆町坂長,35.382221448384,133.39027756282,1,0,0,-,-,-,,,一時避難所
鳥取県,日野郡日野町,日野高等学校（根雨校舎）,鳥取県日野郡日野町根雨310,35.2408628632,133.43947459454,1,0,0,-,-,-,491人,,避難所
鳥取県,八頭郡若桜町,旧池田小学校,鳥取県八頭郡若桜町中原326,35.292771395143,134.44238296527,1,0,0,-,-,-,430人,,避難所
鳥取県,倉吉市,倉吉市立高城保育園,鳥取県倉吉市上福田1104番地,35.430413326569,133.74759617613,1,0,0,1,1,1,96人,,指定避難所・福祉避難所
鳥取県,八頭郡八頭町,安部保育所,鳥取県八頭郡八頭町安井宿771-1,35.378722098574,134.2964027929,1,0,0,0,1,0,124人,,広域避難所
鳥取県,鳥取市,大茅体育館,鳥取県鳥取市国府町栃本463,35.469286958088,134.36266877597,1,0,0,1,1,1,250人,,避難所
鳥取県,米子市,子鳩保育園,鳥取県米子市大篠津町758,35.49612658681,133.25993208852,1,0,0,-,-,-,120人,,避難所
鳥取県,鳥取市,前地公民館,鳥取県鳥取市佐治町高山,35.334635758962,134.12087244266,1,0,0,1,1,1,10人,,避難所
鳥取県,鳥取市,浪花団地集会所,鳥取県鳥取市福部町海士338-1,35.546210660016,134.2780781408,1,0,0,1,1,1,40人,,避難所
鳥取県,鳥取市,大水集会所,鳥取県鳥取市佐治町加茂579-1,35.329198845381,134.10308604685,1,0,0,1,1,1,80人,,避難所
鳥取県,米子市,稲吉集落センター,鳥取県米子市淀江町稲吉175,35.44030490405,133.44376208711,1,0,0,-,-,-,229人,,避難施設・避難所
鳥取県,鳥取市,国府東小学校,鳥取県鳥取市国府町谷3,35.461187470159,134.2963038962,1,0,0,1,1,1,1430人,,一時避難所・避難所
鳥取県,八頭郡八頭町,姫路公園（私都荘）,鳥取県八頭郡八頭町姫路12,35.428499257937,134.38487415561,1,0,0,1,0,0,168人,,広域避難所
鳥取県,日野郡日野町,日野町林業総合センター,鳥取県日野郡日野町舟場107-1,35.245901363431,133.4486930737,-,-,-,-,-,-,200人,,一時避難所
鳥取県,八頭郡智頭町,本折隣保館,鳥取県八頭郡智頭町智頭,35.266754333073,134.23030413356,1,0,0,1,1,0,55人,,避難場所・一時避難所
鳥取県,鳥取市,湖山西体育館,鳥取県鳥取市湖山町西1丁目512,35.521680855388,134.16900511732,1,0,0,1,1,1,410人,,避難所
鳥取県,日野郡日南町,日南中学校,鳥取県日野郡日南町霞740,35.166438442975,133.30896137494,1,0,0,-,-,-,1000人,,一時避難所・避難所
鳥取県,西伯郡大山町,庄内保育所,鳥取県西伯郡大山町押平741-2,35.490953977318,133.47908243753,1,0,0,-,-,-,,,避難場所・避難所
鳥取県,西伯郡大山町,名和小学校,鳥取県西伯郡大山町名和610,35.503715067482,133.49878646476,1,0,0,-,-,-,,,避難場所・避難所
鳥取県,鳥取市,今西公民館,鳥取県鳥取市河原町小倉52,35.365214387081,134.17912417223,1,0,0,1,1,1,20人,,避難所
鳥取県,鳥取市,鳥取市福祉文化会館,鳥取県鳥取市西町2丁目311,35.50292607392,134.23283604621,1,0,0,1,1,1,610人,,避難所
鳥取県,鳥取市,湯谷荘,鳥取県鳥取市河原町湯谷249,35.38400981388,134.15274105055,1,0,0,1,1,1,190人,,避難所
鳥取県,鳥取市,倉田地区公民館,鳥取県鳥取市八坂365-2,35.451123650996,134.21740017061,1,0,0,1,1,1,140人,,避難所
鳥取県,西伯郡大山町,名和さくらの丘保育園,鳥取県西伯郡大山町名和637,35.504978762957,133.49720324144,1,0,0,-,-,-,,,避難所
鳥取県,八頭郡智頭町,智頭農林高等学校,鳥取県八頭郡智頭町智頭711-1,35.266525141266,134.23466140157,1,0,0,1,0,0,500人,,避難場所・一時避難所
鳥取県,東伯郡湯梨浜町,橋津地区公民館,鳥取県東伯郡湯梨浜町橋津177,35.500760350979,133.87693222303,1,0,0,1,1,0,150人,,避難場所・避難所
鳥取県,日野郡日野町,遠藤氏宅前,鳥取県日野郡日野町久住,35.230875227802,133.36097109311,-,-,-,-,-,-,,,一時避難所
鳥取県,八頭郡智頭町,本折児童館,鳥取県八頭郡智頭町南方,35.2614186337,134.23745515146,1,0,0,1,1,0,,,避難場所
鳥取県,日野郡日南町,萩原構造改善センター,鳥取県日野郡日南町萩原690-1,35.121388308115,133.21143635458,1,0,0,-,-,-,80人,,避難所
鳥取県,倉吉市,鳥取県立倉吉西高等学校,鳥取県倉吉市秋喜20番地,35.429189489024,133.80121605892,1,0,0,1,1,1,522人,,指定避難所
鳥取県,西伯郡大山町,大山小学校香取分校,鳥取県西伯郡大山町豊房2046-79,35.432505566881,133.55274705588,1,0,0,-,-,-,,,避難場所
鳥取県,東伯郡北栄町,西新田場多目的研修集会施設,鳥取県東伯郡北栄町江北2547,35.499404566987,133.83616619447,1,0,0,1,1,0,,,一時避難所
鳥取県,日野郡日野町,稲田組駐車場,鳥取県日野郡日野町高尾,35.226636359643,133.44543315,-,-,-,-,-,-,,,一時避難所
鳥取県,東伯郡琴浦町,伊勢野公民館,鳥取県東伯郡琴浦町槻下,35.484645604748,133.70821351728,1,0,0,1,1,1,13人,,一時避難所
鳥取県,東伯郡三朝町,総合文化ホール,鳥取県東伯郡三朝町大瀬999-2,35.408207201205,133.86132517769,1,0,0,-,-,-,,,避難場所
鳥取県,鳥取市,八上スポーツ広場,鳥取県鳥取市河原町曳田745-1,35.390799343826,134.19106272254,-,-,-,-,-,-,,,一時避難所
鳥取県,西伯郡日吉津村,今吉東集会所,鳥取県西伯郡日吉津村今吉63-13,35.451111230227,133.38526795336,1,0,0,-,-,-,35人,,避難場所
鳥取県,境港市,上道公民館,鳥取県境港市上道町3186,35.538471938584,133.23487443816,1,0,0,0,0,1,80人,,収容避難所・津波一時避難所
鳥取県,鳥取市,鳥取市民体育館,鳥取県鳥取市吉成3丁目1-1,35.483989412494,134.22114600689,1,0,0,1,1,1,1380人,,避難所
鳥取県,東伯郡琴浦町,東伯中学校体育館,鳥取県東伯郡琴浦町徳万236,35.496813760951,133.69384753628,1,0,0,1,1,1,4387人,,避難所
鳥取県,米子市,淀江公民館大和分館（旧大和公民館）,鳥取県米子市淀江町中間605,35.444046447512,133.40334433351,1,0,0,-,-,-,86人,,避難施設・避難所
鳥取県,鳥取市,鳥取市武道館,鳥取県鳥取市東町1丁目326,35.504820328126,134.23828830515,1,0,0,1,1,1,560人,,避難所
鳥取県,東伯郡琴浦町,駅前通り公民館,鳥取県東伯郡琴浦町赤碕,35.512605686071,133.63373522655,1,0,0,1,1,1,100人,,一時避難所
鳥取県,東伯郡湯梨浜町,活性化センターはまなす,鳥取県東伯郡湯梨浜町園2286-1,35.508852278743,133.9289572534,1,0,0,1,1,1,300人,,避難場所・避難所
鳥取県,日野郡日野町,谷氏宅前,鳥取県日野郡日野町久住,35.242331518791,133.36566461609,-,-,-,-,-,-,,,一時避難所
鳥取県,鳥取市,上渡一木公民館,鳥取県鳥取市河原町渡一木62-2,35.400052010794,134.19807682303,1,0,0,1,1,1,20人,,避難所
鳥取県,日野郡日野町,根雨小学校（校舎）,鳥取県日野郡日野町野田271,35.236577229051,133.43717781161,1,0,0,-,-,-,428人,,一時避難所・避難所
鳥取県,米子市,成実公民館,鳥取県米子市石井355,35.407565106483,133.345160705,1,0,0,-,-,-,130人,,避難所
鳥取県,鳥取市,中郷体育館,鳥取県鳥取市青谷町亀尻257-2,35.502751991688,133.98618234467,1,0,0,1,1,1,360人,,避難所
鳥取県,八頭郡八頭町,八東児童館,鳥取県八頭郡八頭町才代131-1,35.364443924429,134.31860091702,1,0,0,-,-,-,96人,,避難所・広域避難場所
鳥取県,倉吉市,倉吉スポーツセンター（体育館、合宿所2．3階）,鳥取県倉吉市葵町591-1,35.428247770748,133.82756681165,1,0,0,1,1,1,83人,,指定避難所
鳥取県,米子市,福米西小学校,鳥取県米子市西福原8-16-62,35.453891210776,133.34243196709,1,0,0,-,-,-,800人,,避難場所・避難所
鳥取県,境港市,外江小学校教室等,鳥取県境港市外江町2105,35.534271746189,133.20963706351,1,0,0,0,0,1,5450人,,収容避難所・津波一時避難所
鳥取県,境港市,境東地区学習等供用施設（なぎさ会館）,鳥取県境港市上道町1989-5,35.544302149181,133.23667432705,1,0,0,-,-,-,100人,,収容避難所
鳥取県,東伯郡三朝町,賀茂保育園,鳥取県東伯郡三朝町本泉916,35.405329724658,133.85972819563,1,0,0,-,-,-,,,避難場所
鳥取県,米子市,淀江公民館（旧淀江中央公民館）,鳥取県米子市淀江町淀江769,35.459213685917,133.42771296718,1,0,0,-,-,-,383人,,避難施設・避難所
鳥取県,東伯郡琴浦町,赤碕地域コミュニティーセンター（役場分庁舎）,鳥取県東伯郡琴浦町赤碕1140-1,35.515339288159,133.63808798572,1,0,0,1,1,1,700人,,避難所
鳥取県,鳥取市,福部小学校,鳥取県鳥取市福部町高江188,35.543794622603,134.28197481613,1,0,0,1,1,1,1910人,,一時避難所・避難所
鳥取県,倉吉市,倉吉市立成徳小学校,鳥取県倉吉市仲ノ町733番地,35.430384348288,133.82425816031,1,0,0,1,1,1,121人,,指定避難所
鳥取県,鳥取市,国府史跡ネットワーク案内広場,鳥取県鳥取市国府町町屋726,35.472808005263,134.27473618893,-,-,-,-,-,-,,,一時避難所
鳥取県,鳥取市,内海中生活改善センター,鳥取県鳥取市内海中72-4,35.510275678045,134.10891938068,1,0,0,1,1,1,50人,,避難所
鳥取県,米子市,尚徳小学校,鳥取県米子市榎原1897,35.398183100034,133.36037650697,1,0,0,-,-,-,800人,,避難所
鳥取県,鳥取市,桜ケ丘中学校,鳥取県鳥取市桜谷227,35.469944328741,134.24855497845,1,0,0,1,1,1,1550人,,一時避難所・避難所
鳥取県,鳥取市,明治小学校,鳥取県鳥取市松上159,35.442597603602,134.13516633478,1,0,0,1,1,1,910人,,一時避難所・避難所
鳥取県,米子市,箕蚊屋体育館,鳥取県米子市下新印1057-2,35.415142874155,133.38930712429,1,0,0,-,-,-,450人,,避難所
鳥取県,八頭郡智頭町,大内コミュニティセンター,鳥取県八頭郡智頭町大内,35.256034026009,134.27989402017,1,0,0,1,1,0,,,避難場所
鳥取県,鳥取市,県営住宅タウンハウス道路公園用地,鳥取県鳥取市美萩野2丁目,35.519982802955,134.13760035772,-,-,-,-,-,-,,,一時避難所
鳥取県,鳥取市,緑浄寺,鳥取県鳥取市河原町釜口1449,35.378848508599,134.21026124614,-,-,-,-,-,-,,,一時避難所
鳥取県,日野郡日南町,砥波部落公民館,鳥取県日野郡日南町下阿毘縁,35.226734136109,133.20227636494,1,0,0,-,-,-,20人,,避難所
鳥取県,岩美郡岩美町,旧網代小学校,鳥取県岩美郡岩美町網代224,35.58635958834,134.29558354977,1,0,0,-,-,-,1229人,,避難所・広域避難場所
鳥取県,西伯郡伯耆町,デイサービスセンター,鳥取県西伯郡伯耆町大殿,35.386206407506,133.39641778354,1,0,0,-,-,-,,,一時避難所
鳥取県,八頭郡智頭町,久志谷集会所,鳥取県八頭郡智頭町智頭,35.260074869992,134.22473396915,1,0,0,1,1,0,55人,,避難場所・一時避難所
鳥取県,鳥取市,南雲山公園,鳥取県鳥取市雲山524,35.474680639542,134.23737363367,-,-,-,-,-,-,,,一時避難所
鳥取県,東伯郡北栄町,大誠保育所,鳥取県東伯郡北栄町瀬戸38-1,35.482963722861,133.77737551943,1,0,0,-,-,-,1100人,,避難所
鳥取県,米子市,車尾公民館,鳥取県米子市車尾2-28-20,35.432579504425,133.35795355197,1,0,0,-,-,-,115人,,避難所
鳥取県,東伯郡琴浦町,下法万公民館,鳥取県東伯郡琴浦町法万,35.450790688039,133.69459868248,1,0,0,1,1,1,20人,,一時避難所
鳥取県,境港市,中浜サントピア,鳥取県境港市小篠津町1548-2,35.502178541854,133.24500043645,1,0,0,0,0,1,16000人,,収容避難所・津波一時避難所
鳥取県,鳥取市,浜坂公園,鳥取県鳥取市浜坂3丁目1511,35.531932680744,134.21323993222,-,-,-,-,-,-,,,一時避難所
鳥取県,境港市,幸神体育館,鳥取県境港市小篠津町19,35.503519149286,133.24434994034,1,0,0,-,-,-,140人,,収容避難所
鳥取県,西伯郡伯耆町,伯耆ニュータウン公園（上側）,鳥取県西伯郡伯耆町岸本,35.390828730267,133.41239155564,-,-,-,-,-,-,,,一時避難所
鳥取県,鳥取市,鳴滝公民館,鳥取県鳥取市青谷町鳴瀧127,35.491410777819,133.97393426367,1,0,0,1,1,1,30人,,避難所
鳥取県,鳥取市,東郷地区公民館,鳥取県鳥取市西今在家207,35.46835972495,134.18002261831,1,0,0,1,1,1,120人,,避難所
鳥取県,境港市,上道小学校,鳥取県境港市上道町3026,35.53653598638,133.23537161431,1,0,0,0,0,1,3980人,,収容避難所・津波一時避難所
鳥取県,米子市,伯仙小学校,鳥取県米子市尾高418-1,35.414065560125,133.40756127049,1,0,0,-,-,-,900人,,避難所
鳥取県,西伯郡伯耆町,工芸伝承館,鳥取県西伯郡伯耆町二部,35.300558852908,133.41652067874,1,0,0,-,-,-,,,一時避難所
鳥取県,鳥取市,久松公園,鳥取県鳥取市東町2丁目121,35.507172846528,134.23749109562,-,-,-,-,-,-,,,一時避難所
鳥取県,東伯郡北栄町,弓原多目的研修集会施設,鳥取県東伯郡北栄町弓原,35.483468200047,133.8121990531,1,0,0,1,1,0,42人,,一時避難所
鳥取県,鳥取市,樗谿公園,鳥取県鳥取市上町87,35.499857061625,134.24454073258,-,-,-,-,-,-,,,一時避難所・広域避難場所
鳥取県,西伯郡大山町,名和農業者トレーニングセンター,鳥取県西伯郡大山町名和1247-1,35.495719498454,133.51387471853,1,0,0,-,-,-,,,避難場所・避難所
鳥取県,鳥取市,今市地区多目的集会所,鳥取県鳥取市鹿野町今市835,35.471297235826,134.05312603913,1,0,0,1,1,1,110人,,避難所
鳥取県,東伯郡北栄町,東園構造改善センター,鳥取県東伯郡北栄町東園,35.487469139637,133.7797024329,1,0,0,1,1,1,50人,,一時避難所
鳥取県,日野郡日野町,山村開発センター前,鳥取県日野郡日野町根雨130-1,35.241102283947,133.44251852505,-,-,-,-,-,-,,,一時避難所
鳥取県,米子市,宇田川保育園,鳥取県米子市淀江町中西尾224-2,35.440201999063,133.43251332489,1,0,0,-,-,-,48人,,避難施設・避難所
鳥取県,鳥取市,東郷小学校,鳥取県鳥取市篠坂6-1,35.469351433326,134.18452486977,1,0,0,1,1,1,970人,,一時避難所・避難所
鳥取県,八頭郡若桜町,馬場公民館,鳥取県八頭郡若桜町馬場,35.353562321319,134.39868023662,1,0,0,-,-,-,50人,,一時避難所
鳥取県,鳥取市,高草中学校,鳥取県鳥取市徳尾108-1,35.502186718067,134.20546078279,1,0,0,1,1,1,2290人,,一時避難所・避難所
鳥取県,日野郡日野町,楢原公会堂前,鳥取県日野郡日野町福長,35.194102894553,133.34662645332,-,-,-,-,-,-,,,一時避難所
鳥取県,西伯郡南部町,健康管理センター「すこやか」,鳥取県西伯郡南部町倭482,35.348420411738,133.32529565249,1,0,0,-,-,-,100人,,避難所
鳥取県,鳥取市,中井二地区老人憩の家,鳥取県鳥取市河原町中井112-2,35.382188613098,134.17352565333,1,0,0,1,1,1,70人,,避難所
鳥取県,西伯郡南部町,東長田山村交流施設,鳥取県西伯郡南部町中97,35.305187927574,133.35163986151,1,0,0,-,-,-,100人,,避難所
鳥取県,鳥取市,人権交流プラザ（中央人権福祉センター）,鳥取県鳥取市幸町151,35.495862786501,134.21790154895,1,0,0,1,1,1,320人,,避難所
鳥取県,米子市,灘浜集会所,鳥取県米子市大篠津14,35.496652977808,133.26161611334,1,0,0,-,-,-,50人,,避難所
鳥取県,鳥取市,さじアストロパーク,鳥取県鳥取市佐治町高山1072-1,35.340642485506,134.11964181674,1,0,0,1,1,1,970人,,一時避難所・避難所
鳥取県,鳥取市,新田公民館,鳥取県鳥取市河原町小河内667-3,35.369258762685,134.11409943377,1,0,0,1,1,1,50人,,避難所
鳥取県,日野郡日野町,横路集会所,鳥取県日野郡日野町秋縄,35.195881876981,133.44896918439,-,-,-,-,-,-,,,一時避難所
鳥取県,西伯郡伯耆町,二部小学校,鳥取県西伯郡伯耆町二部1617,35.298752956831,133.41617718596,1,0,0,-,-,-,2920人,,一時避難所・指定避難場所
鳥取県,西伯郡伯耆町,伯耆ニュータウン公園（下側）,鳥取県西伯郡伯耆町岸本,35.388978942072,133.41338223345,-,-,-,-,-,-,,,一時避難所
鳥取県,米子市,崎津3区集会所,鳥取県米子市大崎1810-3,35.472982905368,133.26241276783,1,0,0,-,-,-,50人,,避難所
鳥取県,米子市,三本松公園,鳥取県米子市三本松4丁目2-5,35.445119768515,133.32414714444,-,-,-,-,-,-,,,避難場所
鳥取県,鳥取市,屋住集会所,鳥取県鳥取市用瀬町屋住屋住874,35.313161344874,134.16718576058,1,0,0,1,1,1,40人,,避難所
鳥取県,鳥取市,上光公民館,鳥取県鳥取市気高町上光479-2,35.483066929641,134.07829506702,1,0,0,1,1,1,80人,,避難所
鳥取県,鳥取市,千代保育園,鳥取県鳥取市江津730,35.523306391246,134.2103345856,1,0,0,1,1,1,170人,,一時避難所・避難所
鳥取県,米子市,加茂中学校,鳥取県米子市両三柳3883,35.452013460378,133.31466103029,1,0,0,-,-,-,900人,,避難場所・避難所
鳥取県,鳥取市,宮ノ下小学校,鳥取県鳥取市国府町宮下26,35.478601656565,134.27151129714,1,0,0,1,1,1,1510人,,一時避難所・避難所
鳥取県,八頭郡智頭町,（旧）山形保育園,鳥取県八頭郡智頭町郷原,35.262076896291,134.27387438498,1,0,0,1,1,0,130人,,避難場所・一時避難所
鳥取県,日野郡日南町,日南町商工会,鳥取県日野郡日南町生山737,35.169396304288,133.32313161577,1,0,0,-,-,-,100人,,避難所
鳥取県,東伯郡三朝町,バンビセンター,鳥取県東伯郡三朝町高橋167-3,35.387267102957,133.92183126821,1,0,0,-,-,-,,,避難場所
鳥取県,鳥取市,イオン鳥取店（駐車場）,鳥取県鳥取市天神町1,35.493513174067,134.22194564388,-,-,-,-,-,-,,,一時避難所
鳥取県,鳥取市,吉方中央緑地,鳥取県鳥取市吉方温泉3丁目701,35.492092976218,134.2348036997,-,-,-,-,-,-,,,一時避難所
鳥取県,日野郡日南町,日南町高齢者生産活動センター,鳥取県日野郡日南町矢戸1164-1,35.152863690779,133.26315382395,1,0,0,-,-,-,250人,,一時避難所・避難所
鳥取県,西伯郡南部町,総合福祉センター「しあわせ」,鳥取県西伯郡南部町法勝寺331-1,35.342234962577,133.32638474688,1,0,0,-,-,-,100人,,避難所
鳥取県,米子市,富士見地区老人憩の家,鳥取県米子市富士見町2-89,35.432701008873,133.33593711794,1,0,0,-,-,-,40人,,避難所
鳥取県,八頭郡智頭町,智頭小学校,鳥取県八頭郡智頭町智頭320,35.268727778711,134.233114299,1,0,0,1,0,0,760人,,避難場所・一時避難所
鳥取県,日野郡江府町,西成公民館,鳥取県日野郡江府町吉原,35.322053800458,133.51485921075,1,0,0,-,-,-,80人,,避難所
鳥取県,鳥取市,鳥取市営サッカー場「バードスタジアム」,鳥取県鳥取市蔵田423,35.458228609131,134.22176900781,1,0,0,1,0,1,170人,,一時避難所・避難所
鳥取県,西伯郡大山町,大山中学校,鳥取県西伯郡大山町所子310,35.481036467757,133.46341340458,1,0,0,-,-,-,,,避難場所・避難所
鳥取県,東伯郡北栄町,由良宿3区構造改善センター,鳥取県東伯郡北栄町由良宿1649-3,35.493645167968,133.75068309296,1,0,0,1,1,0,,,一時避難所
鳥取県,鳥取市,田岡神社,鳥取県鳥取市佐治町津無,35.352213935093,134.14767455316,-,-,-,-,-,-,,,一時避難所
鳥取県,鳥取市,南人権福祉センター,鳥取県鳥取市八坂49-6,35.45144590114,134.21663083249,1,0,0,1,1,1,140人,,避難所
鳥取県,倉吉市,倉吉市子育て総合支援センター,鳥取県倉吉市上灘町160番地,35.429218159488,133.84227049434,1,0,0,1,1,1,131人,,指定避難所・福祉避難所
鳥取県,東伯郡琴浦町,西仲町公民館,鳥取県東伯郡琴浦町赤碕仲町,35.514287877483,133.64495181278,1,0,0,0,1,0,30人,,一時避難所
鳥取県,八頭郡若桜町,内町公民館,鳥取県八頭郡若桜町内町,35.354418310178,134.3954652633,1,0,0,-,-,-,50人,,一時避難所
鳥取県,東伯郡北栄町,二子塚公民館,鳥取県東伯郡北栄町由良宿2072-15,35.482421105755,133.74795614019,1,0,0,1,1,0,,,一時避難所
鳥取県,鳥取市,教育センター,鳥取県鳥取市寺町150,35.498362780555,134.23523877258,1,0,0,1,1,1,700人,,避難所
鳥取県,八頭郡若桜町,若桜町公民館池田分館,鳥取県八頭郡若桜町中原359-1,35.293265884445,134.44378283451,1,0,0,-,-,-,70人,,避難所
鳥取県,米子市,米子駅裏公園,鳥取県米子市目久美町地内,35.422283311971,133.34002210791,-,-,-,-,-,-,,,避難場所
鳥取県,米子市,河崎小学校,鳥取県米子市河崎2677,35.455632509203,133.30428912532,1,0,0,-,-,-,900人,,避難場所・避難所
鳥取県,鳥取市,山根生活改善センター,鳥取県鳥取市青谷町山根632-2,35.477402297865,134.01666172609,1,0,0,1,1,1,70人,,避難所
鳥取県,西伯郡伯耆町,八郷小学校,鳥取県西伯郡伯耆町真野971,35.380342001019,133.44210814317,1,0,0,-,-,-,2000人,,一時避難所・指定避難場所
鳥取県,東伯郡琴浦町,八橋地区公民館,鳥取県東伯郡琴浦町八橋239-13,35.505441190945,133.6812402126,1,0,0,1,1,1,83人,,避難所
鳥取県,鳥取市,大和体育館,鳥取県鳥取市倭文121-2,35.446098839877,134.20228237127,1,0,0,1,1,1,410人,,避難所
鳥取県,東伯郡琴浦町,大父公民館,鳥取県東伯郡琴浦町大父,35.440957227457,133.62895179448,1,0,0,1,1,1,50人,,一時避難所
鳥取県,東伯郡湯梨浜町,松崎5区公民館,鳥取県東伯郡湯梨浜町松崎,35.471208612879,133.90338418606,1,0,0,-,-,-,,,一時避難所
鳥取県,東伯郡北栄町,六尾北団地集会所,鳥取県東伯郡北栄町六尾261-1,35.488262689402,133.76128519501,1,0,0,1,1,0,,,一時避難所
鳥取県,鳥取市,勝谷地区コミュニティ施設（体育館）,鳥取県鳥取市鹿野町宮方149,35.479186217983,134.05314468773,1,0,0,1,1,1,290人,,一時避難所・避難所
鳥取県,鳥取市,トスク本店（駐車場）,鳥取県鳥取市行徳1丁目103,35.49784592315,134.22266213983,-,-,-,-,-,-,,,一時避難所
鳥取県,東伯郡北栄町,亀谷公民館,鳥取県東伯郡北栄町亀谷,35.469276748867,133.74863980159,1,0,0,0,1,0,40人,,一時避難所
鳥取県,日野郡日野町,追原入口,鳥取県日野郡日野町中菅,35.202501004682,133.37824186474,-,-,-,-,-,-,,,一時避難所
鳥取県,東伯郡湯梨浜町,羽合体育館,鳥取県東伯郡湯梨浜町はわい長瀬836,35.486869641225,133.85607602378,1,0,0,0,1,1,460人,,避難場所・避難所
鳥取県,東伯郡琴浦町,逢束フクスケ区集会所,鳥取県東伯郡琴浦町逢束,35.501912398574,133.7032448088,1,0,0,1,1,0,72人,,一時避難所
鳥取県,鳥取市,馬場児童館,鳥取県鳥取市馬場177-4,35.465575124863,134.22647941701,1,0,0,1,1,1,70人,,一時避難所・避難所
鳥取県,米子市,安倍山パークコース,鳥取県米子市安倍1-1,35.448308169721,133.3074727587,-,-,-,-,-,-,,,避難場所
鳥取県,西伯郡大山町,大山西小学校,鳥取県西伯郡大山町末長81,35.481900681748,133.45070981359,1,0,0,-,-,-,,,避難場所・避難所
鳥取県,米子市,淀江野球場,鳥取県米子市淀江町西原822-1,35.448578637308,133.41593976832,-,-,-,-,-,-,,,避難場所
鳥取県,鳥取市,袋河原公民館,鳥取県鳥取市河原町袋河原208-4,35.415724169222,134.20086113538,1,0,0,1,0,1,40人,,避難所
鳥取県,日野郡日南町,阿毘縁山村広場,鳥取県日野郡日南町阿毘縁,35.210534596102,133.20829463846,-,-,-,-,-,-,500人,,一時避難所
鳥取県,東伯郡琴浦町,竹内公民館,鳥取県東伯郡琴浦町竹内,35.477848616488,133.63195339605,1,0,0,1,1,1,30人,,一時避難所
鳥取県,鳥取市,ひかり保育園,鳥取県鳥取市気高町宝木937,35.512116267479,134.08184678885,1,0,0,1,0,1,730人,,避難所
鳥取県,八頭郡八頭町,国中改善センター,鳥取県八頭郡八頭町石田百井2,35.401732162043,134.23594436696,1,0,0,1,1,0,124人,,広域避難所
鳥取県,鳥取市,北村4区公民館,鳥取県鳥取市河原町北村297-2,35.379561672407,134.12680979458,1,0,0,1,1,1,20人,,避難所
鳥取県,東伯郡湯梨浜町,久見公民館,鳥取県東伯郡湯梨浜町久見,35.466845674398,133.90999396798,1,0,0,0,1,0,,,一時避難所
鳥取県,鳥取市,大正保育園,鳥取県鳥取市古海331-8,35.493657281056,134.20746369845,1,0,0,1,0,1,200人,,一時避難所・避難所
鳥取県,日野郡江府町,宮の前集会所,鳥取県日野郡江府町武庫925,35.265174516871,133.4786235386,1,0,0,-,-,-,20人,,避難所
鳥取県,西伯郡日吉津村,蚊屋島神社境内,鳥取県西伯郡日吉津村日吉津380,35.438076434582,133.38089364881,1,0,0,-,-,-,1500人,,避難場所
鳥取県,東伯郡湯梨浜町,長瀬西部公民館,鳥取県東伯郡湯梨浜町はわい長瀬,35.490977306312,133.8583717774,1,0,0,0,1,0,,,一時避難所
鳥取県,八頭郡若桜町,道の駅わかさ,鳥取県八頭郡若桜町若桜983-2,35.34387776343,134.40033006406,1,0,0,-,-,-,140人,,一時避難所
鳥取県,西伯郡伯耆町,岩屋谷公民館,鳥取県西伯郡伯耆町岩屋谷,35.380444631613,133.38162798159,1,0,0,-,-,-,,,一時避難所
鳥取県,西伯郡伯耆町,町立写真美術館,鳥取県西伯郡伯耆町須村,35.389882367873,133.43575719675,1,0,0,-,-,-,,,一時避難所・指定避難場所
鳥取県,八頭郡智頭町,那岐地区公民館,鳥取県八頭郡智頭町大背123番地,35.212998863161,134.21013213816,1,0,0,-,-,-,100人,,一時避難所
鳥取県,鳥取市,稲葉山地区公民館稲葉山体育館,鳥取県鳥取市卯垣5丁目57,35.491786005046,134.2569064951,1,0,0,1,1,1,410人,,避難所
鳥取県,米子市,日新公民館,鳥取県米子市永江502-4,35.396044559466,133.36844540088,1,0,0,-,-,-,220人,,避難所
鳥取県,西伯郡伯耆町,二部農協駐車場,鳥取県西伯郡伯耆町二部1556,35.300977706716,133.41665484869,-,-,-,-,-,-,280人,,一時避難所
鳥取県,日野郡日野町,上上菅集会所,鳥取県日野郡日野町上菅,35.185368564496,133.32919179166,-,-,-,-,-,-,30人,,一時避難所
鳥取県,東伯郡北栄町,山西地区会館,鳥取県東伯郡北栄町国坂743-3,35.483272609006,133.8243577848,1,0,0,-,-,-,,,一時避難所
鳥取県,日野郡日野町,デイサービスセンターかじか荘駐車場,鳥取県日野郡日野町根雨899-1,35.234926620258,133.44020376441,-,-,-,-,-,-,,,一時避難所
鳥取県,東伯郡湯梨浜町,あさひ保育所,鳥取県東伯郡湯梨浜町泊1175-7,35.514232590694,133.94384478087,1,0,0,0,1,0,266人,,一時避難所
鳥取県,鳥取市,西郷小学校,鳥取県鳥取市河原町牛戸14-1,35.37963570686,134.16479855642,1,0,0,1,1,1,910人,,一時避難所・避難所
鳥取県,東伯郡北栄町,江北公民館,鳥取県東伯郡北栄町江北,35.482835135234,133.84179903214,1,0,0,0,0,1,,,一時避難所
鳥取県,鳥取市,布勢総合運動公園「コカ・コーラウエストスポーツパーク」,鳥取県鳥取市布勢146-1,35.500261559754,134.1772189304,1,0,0,1,1,1,6520人,,一時避難所・避難所
鳥取県,八頭郡八頭町,大江国民体育館,鳥取県八頭郡八頭町下野335-1,35.342748886364,134.26182969886,1,0,0,-,-,-,167人,,避難所・広域避難場所
鳥取県,八頭郡智頭町,ほのぼのセンター,鳥取県八頭郡智頭町智頭,35.263429612569,134.22438591083,1,0,0,1,1,0,,,避難場所
鳥取県,東伯郡琴浦町,岩本公民館,鳥取県東伯郡琴浦町八橋,35.495632936366,133.6656678671,1,0,0,1,1,1,76人,,一時避難所
鳥取県,鳥取市,桜谷南公園,鳥取県鳥取市桜谷508,35.470726132081,134.25386682156,-,-,-,-,-,-,,,一時避難所
鳥取県,鳥取市,豊実保育園,鳥取県鳥取市野坂927,35.484187764092,134.17628392122,1,0,0,1,1,1,120人,,一時避難所・避難所
鳥取県,鳥取市,学習・交流センター鳥取（国際交流プラザ）（湖山西地区公民館）,鳥取県鳥取市湖山町西1丁目512,35.521740057019,134.16943837501,1,0,0,1,1,1,500人,,避難所
鳥取県,日野郡日南町,日南町社会体育館,鳥取県日野郡日南町生山450,35.167262277159,133.31023784194,1,0,0,-,-,-,300人,,一時避難所・避難所
鳥取県,西伯郡伯耆町,ふたば保育所,鳥取県西伯郡伯耆町吉長45-2,35.385871361351,133.40798073333,1,0,0,-,-,-,90人,,一時避難所
鳥取県,東伯郡湯梨浜町,田後第二集会所,鳥取県東伯郡湯梨浜町田後,35.481559511513,133.8590458149,1,0,0,0,1,0,,,一時避難所
鳥取県,東伯郡三朝町,竹田地区町民体育館,鳥取県東伯郡三朝町穴鴨191-6,35.32705516429,133.83797621502,1,0,0,-,-,-,,,避難場所
鳥取県,八頭郡八頭町,八東ふれあいスポーツセンター,鳥取県八頭郡八頭町安井宿423-1,35.375311595637,134.30331063827,1,0,0,1,1,0,246人,,広域避難所
鳥取県,鳥取市,上町屋老人憩いの家（広場）,鳥取県鳥取市国府町町屋53-2,35.470330528727,134.27621662636,-,-,-,-,-,-,,,一時避難所
鳥取県,八頭郡智頭町,沖代公民館,鳥取県八頭郡智頭町南方,35.261779416296,134.23923025935,1,0,0,1,1,0,,,避難場所
鳥取県,東伯郡琴浦町,赤碕ふれあい交流会館,鳥取県東伯郡琴浦町赤碕1880-112,35.505928875351,133.63390235609,1,0,0,1,1,1,100人,,一時避難所
鳥取県,東伯郡琴浦町,成美地区公民館,鳥取県東伯郡琴浦町佐崎12-1,35.497704431013,133.62678630326,1,0,0,1,1,1,100人,,避難所
鳥取県,米子市,箕蚊屋中学校,鳥取県米子市下新印196-4,35.420059034732,133.38791275994,1,0,0,-,-,-,1000人,,避難所
鳥取県,西伯郡伯耆町,岸本小学校,鳥取県西伯郡伯耆町吉長78-2,35.387637848242,133.40658927788,1,0,0,-,-,-,1800人,,一時避難所
鳥取県,西伯郡日吉津村,日吉津小学校（校舎）,鳥取県西伯郡日吉津村日吉津872-12,35.44092063979,133.3810547063,1,0,0,-,-,-,1950人,,避難場所
鳥取県,鳥取市,鳥取市B＆G海洋センター,鳥取県鳥取市三津1072,35.520650157907,134.15451481743,1,0,0,1,1,1,770人,,避難所
鳥取県,東伯郡北栄町,北条デイサービスセンター,鳥取県東伯郡北栄町田井46-2,35.479045226584,133.82119693621,1,0,0,0,1,0,100人,,町内避難所
鳥取県,西伯郡大山町,御来屋漁村センター,鳥取県西伯郡大山町御来屋1012,35.511486299886,133.4943449487,1,0,0,-,-,-,,,避難場所・避難所
鳥取県,日野郡日野町,県駐車場,鳥取県日野郡日野町金持,35.217207317382,133.45695587901,-,-,-,-,-,-,,,一時避難所
鳥取県,東伯郡北栄町,倉吉キリスト教会Uチャペル,鳥取県東伯郡北栄町下神,35.482847594152,133.80739691675,1,0,0,-,-,-,265人,,一時避難所
鳥取県,鳥取市,扇の里交流館,鳥取県鳥取市国府町上地346,35.449915015078,134.37814906844,1,0,0,1,1,1,50人,,避難所
鳥取県,八頭郡若桜町,地域福祉センター,鳥取県八頭郡若桜町若桜1247-1,35.348235693531,134.39301385081,1,0,0,-,-,-,310人,,避難所
鳥取県,鳥取市,小田生活改善センター,鳥取県鳥取市佐治町加茂1867-1,35.327672402249,134.09637535202,1,0,0,1,1,1,60人,,避難所
鳥取県,西伯郡伯耆町,町民岸本体育館,鳥取県西伯郡伯耆町吉長90-15,35.388234947972,133.40470886239,1,0,0,-,-,-,1500人,,一時避難所
鳥取県,米子市,箕蚊屋小学校,鳥取県米子市下新印204-2,35.421844898693,133.38537683024,1,0,0,-,-,-,700人,,避難所
鳥取県,西伯郡日吉津村,海川公民館,鳥取県西伯郡日吉津村日吉津785-1,35.439601320456,133.38423779061,1,0,0,-,-,-,60人,,避難場所
鳥取県,八頭郡智頭町,（旧）那岐小学校,鳥取県八頭郡智頭町大背205,35.211790572285,134.20480482135,1,0,0,1,1,0,890人,,避難場所・一時避難所
鳥取県,八頭郡智頭町,上市場公民館,鳥取県八頭郡智頭町智頭,35.266334858172,134.23913906411,1,0,0,1,1,0,,,避難場所
鳥取県,日野郡日野町,松本氏宅前国道広場,鳥取県日野郡日野町門谷,35.19650440703,133.44202796799,-,-,-,-,-,-,,,一時避難所
鳥取県,東伯郡琴浦町,山川公民館,鳥取県東伯郡琴浦町山川,35.45381048303,133.62295867712,1,0,0,1,1,1,50人,,一時避難所
鳥取県,八頭郡若桜町,永雲寺,鳥取県八頭郡若桜町湯原160,35.342827812272,134.4335828401,1,0,0,-,-,-,40人,,一時避難所
鳥取県,西伯郡南部町,会見第二小学校,鳥取県西伯郡南部町池野451,35.343706345805,133.41420078437,1,0,0,-,-,-,50人,,避難所
鳥取県,倉吉市,鳥取県立倉吉体育文化会館,鳥取県倉吉市山根529番地2,35.449154844932,133.85179145647,1,0,0,1,1,1,363人,,指定避難所
鳥取県,東伯郡北栄町,北条小学校,鳥取県東伯郡北栄町国坂680,35.481139171789,133.82589850564,1,0,0,1,1,0,4220人,,一時避難所・町内避難所
鳥取県,西伯郡伯耆町,添谷分校,鳥取県西伯郡伯耆町添谷381,35.351912436984,133.48116184973,1,0,0,-,-,-,530人,,一時避難所
鳥取県,八頭郡若桜町,赤松公民館,鳥取県八頭郡若桜町赤松,35.360669233424,134.39424998263,1,0,0,-,-,-,30人,,一時避難所
鳥取県,東伯郡三朝町,三朝町立福祉センター,鳥取県東伯郡三朝町横手50-4,35.411759900069,133.88255654538,1,0,0,-,-,-,,,避難場所
鳥取県,米子市,淀江公民館宇田川分館（旧宇田川公民館）,鳥取県米子市淀江町中西尾466,35.441440756684,133.43257705259,1,0,0,-,-,-,530人,,避難施設・避難所
鳥取県,鳥取市,川中集会所,鳥取県鳥取市用瀬町川中141,35.30006937278,134.21004366339,1,0,0,1,1,1,30人,,避難所
鳥取県,鳥取市,大寺屋1号公園,鳥取県鳥取市湖山町北2丁目594,35.522437548175,134.17337798621,-,-,-,-,-,-,,,一時避難所
鳥取県,鳥取市,高岡運動場,鳥取県鳥取市国府町高岡507-3,35.472872169223,134.29686474563,-,-,-,-,-,-,,,一時避難所
鳥取県,東伯郡湯梨浜町,方地公民館,鳥取県東伯郡湯梨浜町方地,35.480967644045,133.92205449934,1,0,0,0,1,0,,,一時避難所
鳥取県,八頭郡若桜町,加地公民館,鳥取県八頭郡若桜町中原,35.289404230074,134.45004828108,1,0,0,-,-,-,70人,,一時避難所
鳥取県,日野郡日南町,宝谷構造改善センター,鳥取県日野郡日南町印賀163-1,35.235021167768,133.280338161,1,0,0,-,-,-,30人,,避難所
鳥取県,八頭郡若桜町,大野集会所,鳥取県八頭郡若桜町大野,35.293225150522,134.44905772392,1,0,0,-,-,-,80人,,一時避難所
鳥取県,東伯郡北栄町,北条文化会館,鳥取県東伯郡北栄町国坂2397-2,35.491218936227,133.82465763842,1,0,0,1,1,1,80人,,町内避難所
鳥取県,鳥取市,奥沢見公民館,鳥取県鳥取市気高町奥沢見,35.509100921447,134.0944057706,1,0,0,1,1,1,140人,,避難所
鳥取県,境港市,中浜公民館,鳥取県境港市財ノ木町668,35.505560660752,133.24845784846,1,0,0,0,0,1,150人,,収容避難所・津波一時避難所
鳥取県,西伯郡伯耆町,小林公民館,鳥取県西伯郡伯耆町小林,35.379235010826,133.47881692069,1,0,0,-,-,-,,,一時避難所
鳥取県,鳥取市,卯垣公園,鳥取県鳥取市卯垣4丁目211,35.487797590652,134.25525395404,-,-,-,-,-,-,,,一時避難所
鳥取県,八頭郡若桜町,若桜小学校つく米分校,鳥取県八頭郡若桜町つく米120,35.356887998262,134.47755947318,1,0,0,-,-,-,120人,,避難所
鳥取県,西伯郡伯耆町,大坂公民館,鳥取県西伯郡伯耆町大坂,35.327477841311,133.47996401929,1,0,0,-,-,-,16人,,一時避難所
鳥取県,八頭郡智頭町,郷原公民館,鳥取県八頭郡智頭町郷原,35.262091894184,134.2737007987,1,0,0,1,1,0,,,避難場所
鳥取県,八頭郡若桜町,わかさ温水プール,鳥取県八頭郡若桜町若桜763,35.341533576516,134.39761644959,1,0,0,-,-,-,540人,,一時避難所
鳥取県,鳥取市,鳥取市文化センター,鳥取県鳥取市吉方温泉3丁目701,35.492474617187,134.2342695378,1,0,0,1,1,1,460人,,避難所
鳥取県,鳥取市,小鷲河地区コミュニティ施設（体育館）,鳥取県鳥取市鹿野町小別所355,35.447428519511,134.02967806047,1,0,0,1,1,1,290人,,一時避難所・避難所
鳥取県,鳥取市,上地集会所,鳥取県鳥取市佐治町高山115,35.335738380119,134.11896863316,1,0,0,1,1,1,80人,,避難所
鳥取県,鳥取市,岩倉小学校,鳥取県鳥取市立川町7丁目110,35.48312598338,134.25504580402,1,0,0,1,1,1,1610人,,一時避難所・避難所
鳥取県,米子市,あがた保育園,鳥取県米子市福万363-4,35.403097350539,133.4087724799,1,0,0,-,-,-,150人,,避難所
鳥取県,東伯郡琴浦町,別所公民館,鳥取県東伯郡琴浦町別所,35.497164111541,133.65510064123,1,0,0,1,1,1,30人,,一時避難所
鳥取県,米子市,崎津4区集会所,鳥取県米子市大崎1560-1,35.476088234959,133.25509964261,1,0,0,-,-,-,50人,,避難所
鳥取県,東伯郡湯梨浜町,中央公民館,鳥取県東伯郡湯梨浜町龍島505,35.467062506074,133.89666441996,1,0,0,0,1,1,330人,,避難場所・避難所
鳥取県,鳥取市,遷喬小学校遷喬地区公民館,鳥取県鳥取市本町1丁目108-1,35.501145398186,134.2329616908,1,0,0,1,1,1,960人,,避難所
鳥取県,鳥取市,明治地区公民館,鳥取県鳥取市松上167-1,35.441919958517,134.13415816227,1,0,0,1,1,1,90人,,避難所
鳥取県,西伯郡伯耆町,林ヶ原観音堂,鳥取県西伯郡伯耆町清原林ケ原,35.369333721942,133.43648361665,1,0,0,-,-,-,,,一時避難所
鳥取県,鳥取市,三代寺運動場,鳥取県鳥取市国府町三代寺243-8,35.464470045504,134.26961176957,-,-,-,-,-,-,,,一時避難所
鳥取県,鳥取市,賀露小学校,鳥取県鳥取市賀露町778,35.530568848583,134.19620839189,1,0,0,1,1,1,1900人,,一時避難所・避難所・広域避難場所
鳥取県,東伯郡琴浦町,琴浦町生涯学習センター,鳥取県東伯郡琴浦町徳万266番地5,35.49964943847,133.69423062695,1,0,0,1,1,1,1603人,,避難所
鳥取県,鳥取市,万蔵多目的集会所,鳥取県鳥取市佐治町加茂449-4,35.33004883714,134.10647090678,1,0,0,1,1,1,50人,,避難所
鳥取県,東伯郡湯梨浜町,泊小学校校舎,鳥取県東伯郡湯梨浜町泊280,35.511885584419,133.94487253101,1,0,0,1,1,1,1960人,,避難場所・一時避難所・避難所
鳥取県,鳥取市,大郷会館（湖南地区公民館分館）（湖南体育館）,鳥取県鳥取市金沢16-2,35.498544166341,134.13311462151,1,0,0,1,1,1,640人,,避難所
鳥取県,鳥取市,滝山公共空地,鳥取県鳥取市滝山,35.493936901248,134.26171821781,-,-,-,-,-,-,,,一時避難所
鳥取県,八頭郡智頭町,奥西地区多目的集会所,鳥取県八頭郡智頭町奥西,35.212112916001,134.17958842048,1,0,0,1,1,0,70人,,避難場所・一時避難所
鳥取県,日野郡江府町,美用公民館,鳥取県日野郡江府町美用,35.30515966188,133.53981149753,1,0,0,-,-,-,260人,,避難所
鳥取県,米子市,大篠津小学校,鳥取県米子市大篠津町190,35.490258193323,133.26128207413,1,0,0,-,-,-,500人,,避難所
鳥取県,西伯郡大山町,博労座駐車場,鳥取県西伯郡大山町大山36-1,35.394820495054,133.53113861346,1,0,0,-,-,-,,,避難所
鳥取県,米子市,下福万児童館,鳥取県米子市福万363-4,35.402480917525,133.40427422225,1,0,0,-,-,-,70人,,避難所
鳥取県,東伯郡北栄町,大栄中学校,鳥取県東伯郡北栄町由良宿,35.4872236204,133.75449667171,1,0,0,1,1,0,5100人,,町内避難所
鳥取県,鳥取市,南大覚寺公園,鳥取県鳥取市大覚寺124-9,35.478020904104,134.23140360475,-,-,-,-,-,-,,,一時避難所
鳥取県,日野郡日野町,細木氏私有地,鳥取県日野郡日野町黒坂,35.210570298154,133.38475632487,-,-,-,-,-,-,,,一時避難所
鳥取県,鳥取市,砂丘駐車場,鳥取県鳥取市福部町湯山2164-661,35.544115534151,134.2369678888,-,-,-,-,-,-,,,一時避難所
鳥取県,鳥取市,明徳地区公民館,鳥取県鳥取市行徳1丁目210-2,35.497309852785,134.22065674383,1,0,0,1,1,1,50人,,避難所
鳥取県,東伯郡琴浦町,八橋小学校（体育館）,鳥取県東伯郡琴浦町八橋705,35.500958464305,133.67603256652,1,0,0,1,1,1,214人,,避難所
鳥取県,日野郡日南町,介護福祉センターあかねの郷,鳥取県日野郡日南町下石見2315,35.152156698478,133.33023980082,1,0,0,-,-,-,300人,,一時避難所
鳥取県,倉吉市,高城ふれあいセンター,鳥取県倉吉市上福田1105,35.430088360326,133.74751308953,1,0,0,1,1,1,53人,,指定一時避難所
鳥取県,西伯郡伯耆町,藍野公民館,鳥取県西伯郡伯耆町小林,35.373952462036,133.47224020684,1,0,0,-,-,-,,,一時避難所
鳥取県,鳥取市,中郷地区公民館,鳥取県鳥取市青谷町亀尻332-2,35.503925944997,133.9858329378,1,0,0,1,1,1,80人,,避難所
鳥取県,鳥取市,勝部第2グラウンド,鳥取県鳥取市青谷町紙屋110,35.466531005777,133.97397203925,-,-,-,-,-,-,,,一時避難所
