都道府県,市区町村,避難所名,住所,緯度,経度,避難所,一時避難所,広域避難所,地震,風水害,津波,収容人数,備蓄品,備考
高知県,高知市,筆山公園,高知市小石木町･大原町,33.5515,133.5367,0,0,1,1,0,1,,,指定緊急避難場所
高知県,高知市,高齢者多機能施設てくたね,高知市種崎593-1,33.505461,133.567853,0,1,0,0,0,1,,,津波避難ビル
高知県,高知市,土佐塾上町教室,高知市上町1丁目3-15,33.558214,133.525215,0,1,0,0,0,1,,,津波避難ビル
高知県,高知市,長浜ふれあいセンター,高知市長浜690-5,33.5025,133.5452,1,0,0,1,1,0,69人,,指定避難所
高知県,高知市,県立障害者スポーツセンター,高知市春野町内ノ谷1-1,33.5015685,133.5249171,1,0,0,1,1,0,1066人,,指定避難所
高知県,高知市,南部健康福祉センター,高知市百石町3丁目1-30,33.5450,133.5481,1,0,0,1,1,0,1433人,,指定避難所
高知県,高知市,戸口商会,高知市南ﾉ丸町41,33.541514,133.548692,0,1,0,0,0,1,,,津波避難ビル
高知県,高知市,高知西高等学校,高知市鴨部2丁目5-70,33.5504,133.5016,1,1,0,1,1,1,1619人,,指定避難所，津波避難ビル
高知県,高知市,セントラルディーボ一宮店,高知市薊野南町27-28,33.5782,133.5622,0,1,0,0,0,1,,,津波避難ビル
高知県,高知市,中央卸売市場,高知市弘化台12-12,33.5454,133.5642,1,0,0,1,1,0,40人,,指定避難所
高知県,高知市,城西館　千寿館,高知市上町2丁目5-34,33.557062,133.524351,0,1,0,0,0,1,,,津波避難ビル
高知県,高知市,マルハン高知一宮店,高知市一宮南町1丁目11-11,33.57963261,133.563146,0,1,0,0,0,1,,,津波避難ビル
高知県,高知市,カーサローズヴェール,高知市高須3丁目1-59,33.562799,133.587693,0,1,0,0,0,1,,,津波避難ビル
高知県,高知市,コーポ田中２号館,高知市葛島4丁目10-8,33.553342,133.572228,0,1,0,0,0,1,,,津波避難ビル
高知県,高知市,瀬戸公園,高知市横浜新町5-33,33.5142,133.5401,0,0,1,1,0,1,,,指定緊急避難場所
高知県,高知市,土佐山小学校,高知市土佐山桑尾27,33.6333,133.5270,1,0,0,0,1,0,726人,,指定避難所
高知県,高知市,クレアフジモト,高知市天神町14-23,33.553927,133.538406,0,1,0,0,0,1,,,津波避難ビル
高知県,高知市,セレクト高須,高知市高須2丁目13-21,33.561049,133.586199,0,1,0,0,0,1,,,津波避難ビル
高知県,高知市,長浜小学校,高知市長浜4811,33.4997,133.5467,1,1,0,1,1,1,1794人,,指定避難所，津波避難ビル
高知県,高知市,小高坂市民会館,高知市山ノ端町32-5,33.5610,133.5183,1,0,0,1,1,0,282人,,指定避難所
高知県,高知市,北竹島町市営住宅１号棟,高知市北竹島町29-1,33.5455,133.5390,0,1,0,0,0,1,,,津波避難ビル
高知県,高知市,朝倉中学校,高知市朝倉丁604-1,33.5440,133.4802,1,0,0,1,1,0,1625人,,指定避難所
高知県,高知市,高知県教育センター,高知市大津乙181,33.5698,133.6020,1,0,0,1,1,0,202人,,指定避難所
高知県,高知市,下知コミュニティセンター,高知市二葉町10-7,33.55675625,133.5568964,1,1,0,1,1,1,152人,,指定避難所，津波避難ビル
高知県,高知市,ビ・ウェル相模公園WEST,高知市相模町17-14,33.5705999,133.5321504,0,1,0,0,0,1,,,津波避難ビル
高知県,高知市,春野公民館芳原分館,高知市春野町芳原784-1,33.5076587,133.5098346,1,0,0,1,1,0,166人,,指定避難所
高知県,高知市,マイセル高須,高知市葛島1丁目10-68,33.558858,133.573503,0,1,0,0,0,1,,,津波避難ビル
高知県,高知市,朝倉小学校,高知市朝倉本町2-11-20,33.5470,133.4868,1,0,0,1,1,0,2071人,,指定避難所
高知県,高知市,沖田公園,高知市朝倉甲201-1,33.5410,133.4988,0,0,1,1,0,0,,,指定緊急避難場所
高知県,高知市,潮江市民会館,高知市南河ノ瀬町161,33.5475,133.5237,1,0,0,0,1,0,134人,,指定避難所
高知県,高知市,十津小学校,高知市十津4丁目27-1,33.5294,133.5778,1,0,0,1,1,0,1490人,,指定避難所
高知県,高知市,西部健康福祉センター,高知市鴨部860-1,33.5439,133.5033,1,0,0,1,1,0,414人,,指定避難所
高知県,高知市,高見屋クリーニング,高知市高須東町19-33,33.558775,133.595503,0,1,0,0,0,1,,,津波避難ビル
高知県,高知市,高知大学,高知市曙町2-5-1,33.5499,133.4872,1,0,0,1,1,0,773人,,指定避難所
高知県,高知市,春野西小学校,高知市春野町弘岡中2501,33.4976,133.4618,1,0,0,1,1,0,1316人,,指定避難所
高知県,高知市,春野中学校,高知市春野町西分328,33.5022,133.4896,1,1,0,1,1,1,2039人,,指定避難所，津波避難ビル
高知県,高知市,県民文化ホール,高知市本町４丁目3-30,33.5570,133.5331,1,1,0,1,1,1,4500人,,指定避難所，津波避難ビル
高知県,高知市,ハーモナイズおおつ1号棟,高知市大津乙845,33.5689,133.5948,0,1,0,0,0,1,,,津波避難ビル
高知県,高知市,初月ふれあいセンター,高知市南久万119-1,33.5743,133.5195,1,0,0,1,1,0,69人,,指定避難所
高知県,高知市,土佐塾中学・高等学校,高知市北中山85,33.53611853,133.5281324,1,0,0,1,0,0,747人,,指定避難所
高知県,高知市,介良市民会館,高知市介良丙329-6,33.5497,133.6065,1,0,0,1,1,0,138人,,指定避難所
高知県,高知市,一宮ふれあいセンター,高知市一宮中町1丁目5-20,33.5836596,133.5691804,1,0,0,1,1,0,75人,,指定避難所
高知県,高知市,株式会社青柳 本社工場,高知市大津乙1741,33.57423366,133.592484,0,1,0,0,0,1,,,津波避難ビル
高知県,高知市,五台山小学校,高知市五台山3371,33.5439,133.5793,1,1,0,1,1,1,851人,,指定避難所，津波避難ビル
高知県,高知市,パークサイド高須?,高知市高須新町1丁目5-11,33.557577,133.577097,0,1,0,0,0,1,,,津波避難ビル
高知県,高知市,神田公園,高知市神田字石神1338-3,33.5419,133.5139,0,0,1,1,0,0,,,指定緊急避難場所
高知県,高知市,中央公園,高知市帯屋町1丁目11-27,33.5601,133.5404,0,0,1,1,0,0,,,指定緊急避難場所
高知県,高知市,サーパス高須,高知市葛島4丁目3-14,33.555647,133.574369,0,1,0,0,0,1,,,津波避難ビル
高知県,高知市,秦ふれあいセンター,高知市中秦泉寺54-3,33.5800,133.5368,1,0,0,1,1,0,68人,,指定避難所
高知県,高知市,高知工業高等学校,高知市桟橋通2丁目11-6,33.5483,133.5461,1,1,0,1,1,1,620人,,指定避難所，津波避難ビル
高知県,高知市,春野公民館内ノ谷分館,高知市春野町内ノ谷810,33.5100,133.5211,1,0,0,1,1,0,107人,,指定避難所
高知県,高知市,三里小学校,高知市仁井田1356,33.5188,133.5831,1,1,0,1,1,1,2047人,,指定避難所，津波避難ビル
高知県,高知市,高知東高等学校,高知市一宮徳谷23-1,33.5839,133.5810,1,0,0,1,1,0,542人,,指定避難所
高知県,高知市,コーポ田中１号館,高知市葛島4丁目10-7,33.553757,133.572231,0,1,0,0,0,1,,,津波避難ビル
高知県,高知市,ＳＴ愛宕,高知市愛宕町1丁目11-6,33.566853,133.536175,0,1,0,0,0,1,,,津波避難ビル
高知県,高知市,潮江東小学校,高知市潮新町2丁目1-54,33.5511,133.5511,1,1,0,1,1,1,1343人,,指定避難所，津波避難ビル
高知県,高知市,百万石ビル,高知市高須1丁目18-8,33.558425,133.588476,0,1,0,0,0,1,,,津波避難ビル
高知県,高知市,鎮守の森公園緑地,高知市長浜6602-6,33.4925,133.5462,0,0,1,1,0,0,,,指定緊急避難場所
高知県,高知市,メゾン・レーヴ潮江,高知市土居町16-4,33.553596,133.545166,0,1,0,0,0,1,,,津波避難ビル
高知県,高知市,美和ハイツ３,高知市高須2丁目15-44,33.560722,133.588057,0,1,0,0,0,1,,,津波避難ビル
高知県,高知市,高知パレスホテル 禁煙館,高知市廿代町4-1,33.56315759,133.5411841,0,1,0,0,0,1,,,津波避難ビル
高知県,高知市,潮江市民図書館,高知市桟橋通2丁目1-50,33.5503,133.5467,1,0,0,0,1,0,112人,,指定避難所
高知県,高知市,源内山緑地,高知市南河ノ瀬町,33.5475,133.5214,0,0,1,1,0,0,,,指定緊急避難場所
高知県,高知市,浦戸ふれあいセンター,高知市浦戸265-1先,33.4975196,133.5669171,1,0,0,1,1,0,73人,,指定避難所
高知県,高知市,Ｊ．ビルディング,高知市丸ﾉ内2丁目8-17,33.562945,133.529243,0,1,0,0,0,1,,,津波避難ビル
高知県,高知市,ホワイエ高須,高知市高須新木3-36,33.562385,133.586324,0,1,0,0,0,1,,,津波避難ビル
高知県,高知市,鏡中学校,高知市鏡今井191,33.6069,133.4722,1,0,0,1,1,0,784人,,指定避難所
高知県,高知市,東ノ丸マンション,高知市高須本町2-50,33.559646,133.577413,0,1,0,0,0,1,,,津波避難ビル
高知県,高知市,愛宕中学校,高知市相模町1-54,33.5702,133.5351,1,1,0,1,1,1,1990人,,指定避難所，津波避難ビル
高知県,高知市,土佐山中学校,高知市土佐山弘瀬405,33.6228,133.4982,1,0,0,1,1,0,661人,,指定避難所
高知県,高知市,コーポ田中５号館,高知市葛島4丁目7-20,33.554514,133.574842,0,1,0,0,0,1,,,津波避難ビル
高知県,高知市,横浜新町小学校,高知市横浜新町5丁目2201,33.5141,133.5366,1,0,0,1,1,0,2184人,,指定避難所
高知県,高知市,百石町市営住宅,高知市百石町3丁目1-33,33.5451,133.5475,0,1,0,0,0,1,,,津波避難ビル
高知県,高知市,高知県民体育館,高知市桟橋通2丁目1-53,33.5496,133.5476,1,0,0,1,1,0,1350人,,指定避難所
高知県,高知市,鏡小学校,高知市鏡今井７,33.6032,133.4723,1,0,0,1,1,0,758人,,指定避難所
高知県,高知市,一宮小学校,高知市一宮西町1丁目9-1,33.5846,133.5676,1,0,0,1,1,0,1923人,,指定避難所
高知県,高知市,潮江下水処理場,高知市南新田町5-69,33.5472,133.5573,1,1,0,1,1,1,42人,,指定避難所，津波避難ビル
高知県,高知市,セントラルディーボ桟橋店,高知市桟橋通4丁目16-6,33.5450,133.5491,0,1,0,0,0,1,,,津波避難ビル
高知県,高知市,高知県トラック会館,高知市南ﾉ丸町5-17,33.542303,133.548417,0,1,0,0,0,1,,,津波避難ビル
高知県,高知市,春野公民館,高知市春野町西分19,33.4989,133.4883,1,0,0,0,1,0,514人,,指定避難所
高知県,高知市,春野公民館西畑分館,高知市春野町西畑1034-4,33.4785890,133.4702661,1,0,0,1,1,0,117人,,指定避難所
高知県,高知市,春野高等学校,高知市春野町弘岡下3860,33.5060,133.4716,1,0,0,1,1,0,465人,,指定避難所
高知県,高知市,旭小学校,高知市本宮町15,33.5568,133.5009,1,0,0,0,1,0,2010人,,指定避難所
高知県,高知市,セントラル大川筋店,高知市大川筋2丁目6-24,33.5652,133.5327,0,1,0,0,0,1,,,津波避難ビル
高知県,高知市,朝倉総合市民会館,高知市朝倉戊585-1,33.5383,133.4890,1,0,0,0,1,0,366人,,指定避難所
高知県,高知市,春野公民館森山分館,高知市春野町森山1207-4,33.4924898,133.4669104,1,0,0,1,1,0,174人,,指定避難所
高知県,高知市,丸ノ内緑地,高知市丸ノ内1丁目20,33.5600,133.5331,0,0,1,1,0,0,,,指定緊急避難場所
高知県,高知市,高知市総合体育館,高知市大原町158,33.5533,133.5299,1,0,0,1,1,0,1326人,,指定避難所
高知県,高知市,アバイド,高知市高須3丁目4-44,33.560736,133.590493,0,1,0,0,0,1,,,津波避難ビル
高知県,高知市,御畳瀬ふれあいセンター,高知市御畳瀬252,33.5049,133.5561,1,0,0,1,1,0,66人,,指定避難所
高知県,高知市,昭和町コミュニティ住宅,高知市昭和町8-18,33.5696,133.5412,0,1,0,0,0,1,,,津波避難ビル
高知県,高知市,三里中学校,高知市仁井田3363,33.5182,133.5845,1,1,0,1,1,1,1646人,,指定避難所，津波避難ビル
高知県,高知市,高知北高等学校,高知市東石立町160,33.5529,133.5191,1,0,0,1,1,0,452人,,指定避難所
高知県,高知市,介良中学校,高知市介良乙2620,33.5560,133.6034,1,0,0,1,1,0,1617人,,指定避難所
高知県,高知市,ジョンマンマンション,高知市天神町4-21,33.5541599,133.5410585,0,1,0,0,0,1,,,津波避難ビル
高知県,高知市,長浜公園,高知市長浜5618-1,33.4949,133.5483,0,0,1,1,0,0,,,指定緊急避難場所
高知県,高知市,大利新宮の森公園,高知市鏡大利554,33.6002,133.4855,0,0,1,1,0,0,,,指定緊急避難場所
高知県,高知市,高知厚生病院,高知市葛島1丁目9-50,33.558705,133.572033,0,1,0,0,0,1,,,津波避難ビル
高知県,高知市,ピクシー高須,高知市高須1丁目4-5,33.559316,133.582024,0,1,0,0,0,1,,,津波避難ビル
高知県,高知市,クオリア上街鷹城館,高知市上町3丁目1-16,33.558467,133.521288,0,1,0,0,0,1,,,津波避難ビル
高知県,高知市,城西公園,高知市丸ノ内1丁目5-2,33.5618,133.5282,0,0,1,1,0,0,,,指定緊急避難場所
高知県,高知市,春野公民館平和分館,高知市春野町平和149,33.5017,133.5190,1,0,0,1,1,0,168人,,指定避難所
高知県,高知市,アルファステイツ知寄?,高知市小倉町4-3,33.55961,133.566423,0,1,0,0,0,1,,,津波避難ビル
高知県,高知市,SAM MIGEL,高知市南川添24,33.57232964,133.5623306,0,1,0,0,0,1,,,津波避難ビル
高知県,高知市,ピュア高須新町,高知市高須新町1丁目7-7,33.55831,133.576111,0,1,0,0,0,1,,,津波避難ビル
高知県,高知市,春野公民館弘岡上分館,高知市春野町弘岡上1646-１,33.5044,133.4525,1,0,0,1,1,0,181人,,指定避難所
高知県,高知市,大津小学校,高知市大津乙972,33.5721,133.5987,1,0,0,1,1,0,1568人,,指定避難所
高知県,高知市,高知公園,高知市丸ノ内1丁目2-1,33.5612,133.5312,0,0,1,1,0,1,,,指定緊急避難場所
高知県,高知市,下知下水処理場,高知市小倉町5-25,33.5604,133.5661,1,1,0,1,1,1,64人,,指定避難所，津波避難ビル
高知県,高知市,江ノ口小学校,高知市新本町1丁目8-12,33.5691,133.5384,1,1,0,1,1,1,1662人,,指定避難所，津波避難ビル
高知県,高知市,ケアハウスパールマリン,高知市仁井田1618-18,33.5132,133.5719,0,1,0,0,0,1,,,津波避難ビル
高知県,高知市,高知情報ビジネス専門学校,高知市北本町1丁目12-6,33.566622,133.539436,0,1,0,0,0,1,,,津波避難ビル
高知県,高知市,第２六泉寺ビル,高知市六泉寺町221-1,33.539167,133.541028,0,1,0,0,0,1,,,津波避難ビル
高知県,高知市,北竹島町市営住宅２号棟,高知市北竹島町29-1,33.5448,133.5402,0,1,0,0,0,1,,,津波避難ビル
高知県,高知市,旧御畳瀬小学校,高知市長浜209,33.5047,133.5548,1,1,0,1,1,1,703人,,指定避難所，津波避難ビル
高知県,高知市,高知ろう学校,高知市中万々78,33.5691,133.5187,1,0,0,1,1,0,451人,,指定避難所
高知県,高知市,県営住宅八反町団地1号棟,高知市八反町2丁目11-23,33.5666,133.5229,0,1,0,0,0,1,,,津波避難ビル
高知県,高知市,三里文化会館,高知市仁井田1652-1,33.5146,133.5740,1,0,0,1,1,0,426人,,指定避難所
高知県,高知市,介良ふれあいセンター,高知市介良乙2286,33.5581,133.6063,1,0,0,1,1,0,68人,,指定避難所
高知県,高知市,潮江マンションＡ,高知市桟橋通1丁目2-28,33.552913,133.545691,0,1,0,0,0,1,,,津波避難ビル
高知県,高知市,潮江中学校,高知市塩屋崎町1-2-20,33.5525,133.5407,1,1,0,1,1,1,1722人,,指定避難所，津波避難ビル
高知県,高知市,フィッシングハヤシ,高知市梅ノ辻5-1,33.55482503,133.5434586,0,1,0,0,0,1,,,津波避難ビル
高知県,高知市,パル・ボナール,高知市梅ﾉ辻9-7,33.553241,133.543236,0,1,0,0,0,1,,,津波避難ビル
高知県,高知市,高須ハウス２０,高知市高須新町3丁目5-13,33.555239,133.576197,0,1,0,0,0,1,,,津波避難ビル
高知県,高知市,青柳中学校,高知市五台山3923,33.5503,133.5897,1,0,0,1,1,0,1462人,,指定避難所
高知県,高知市,アスパルこうち,高知市桟橋通2丁目1-50,33.5499,133.5470,1,1,0,1,1,1,292人,,指定避難所，津波避難ビル
高知県,高知市,五台山ふれあいセンター,高知市五台山2945-2,33.5440,133.5832,1,0,0,1,1,0,75人,,指定避難所
高知県,高知市,青木脳神経外科形成外科,高知市高須新町1丁目6-26,33.558302,133.577311,0,1,0,0,0,1,,,津波避難ビル
高知県,高知市,リヴィエール大高,高知市梅ノ辻21-14,33.5552,133.5415,0,1,0,0,0,1,,,津波避難ビル
高知県,高知市,土佐高等学校,高知市塩屋崎町１丁目1-10,33.5525,133.5430,0,1,0,0,0,1,,,津波避難ビル
高知県,高知市,セルヴィ２１知寄町,高知市稲荷町170-1,33.557099,133.562295,0,1,0,0,0,1,,,津波避難ビル
高知県,高知市,セントヴィレッジ,高知市桟橋通1丁目11-13,33.550333,133.545458,0,1,0,0,0,1,,,津波避難ビル
高知県,高知市,秦小学校,高知市愛宕山18,33.5778,133.5352,1,0,0,1,1,0,1752人,,指定避難所
高知県,高知市,保健福祉センター,高知市塩田町18-10,33.5725,133.5451,1,0,0,1,1,0,241人,,指定避難所
高知県,高知市,土佐リハビリテーションカレッジ,高知市大津乙2500-2,33.56462376,133.5866904,0,1,0,0,0,1,,,津波避難ビル
高知県,高知市,秦住宅2号棟,高知市秦南町1丁目4-107,33.5751,133.5443,0,1,0,0,0,1,,,津波避難ビル
高知県,高知市,春野公民館南ケ丘分館,高知市春野町南ケ丘1丁目2-1,33.5161,133.5191,1,0,0,1,1,0,268人,,指定避難所
高知県,高知市,春野文化ホールピアステージ,高知市春野町西分340,33.4996,133.4885,1,0,0,1,1,0,1764人,,指定避難所
高知県,高知市,ジューヌ高須,高知市高須東町13-1,33.558308,133.594359,0,1,0,0,0,1,,,津波避難ビル
高知県,高知市,高知電気ビル,高知市本町4丁目1-16,33.563481,133.553152,0,1,0,0,0,1,,,津波避難ビル
高知県,高知市,高須公園,高知市葛島3丁目,33.5541,133.5707,0,0,1,1,0,0,,,指定緊急避難場所
高知県,高知市,高知刑務所,高知市布師田3604-1,33.58965196,133.6005896,1,1,0,1,1,1,144人,,指定緊急避難場所，指定避難所
高知県,高知市,ロイヤル高須?,高知市高須1丁目14-18,33.55878,133.584585,0,1,0,0,0,1,,,津波避難ビル
高知県,高知市,ルミエールSawa,高知市高須新町2丁目7-8,33.558255,133.579999,0,1,0,0,0,1,,,津波避難ビル
高知県,高知市,メゾン・ド・エマイユ,高知市高須1丁目10-20,33.559033,133.582988,0,1,0,0,0,1,,,津波避難ビル
高知県,高知市,旭緑地,高知市本宮町265-2,33.5553,133.5009,0,0,1,1,0,0,,,指定緊急避難場所
高知県,高知市,高知中央高等学校,高知市大津乙324-1,33.5674,133.6031,1,0,0,1,1,0,750人,,指定避難所
高知県,高知市,春野公民館西分分館,高知市春野町西分2079-2,33.4989,133.4961,1,0,0,1,1,0,77人,,指定避難所
高知県,高知市,春野公民館秋山分館,高知市春野町秋山1111-3,33.4901325,133.4994107,1,0,0,1,1,0,122人,,指定避難所
高知県,高知市,春野公民館新川分館,高知市春野町森山203-4,33.4941,133.4596,1,0,0,1,1,0,66人,,指定避難所
高知県,高知市,エルミタージュ天神,高知市天神町2-6,33.554765,133.5409,0,1,0,0,0,1,,,津波避難ビル
高知県,高知市,高知県立大学　池キャンパス,高知市池2751-1,33.5312,133.5824,1,0,0,1,1,0,850人,,指定避難所
高知県,高知市,土佐塾高須教室,高知市高須新町2丁目6-9,33.558088,133.580194,0,1,0,0,0,1,,,津波避難ビル
高知県,高知市,ビ・ウェル高知城公園,高知市小津町2-3,33.563913,133.530552,0,1,0,0,0,1,,,津波避難ビル
高知県,高知市,比島町市営住宅,高知市比島町2丁目2-1,33.5691,133.5490,0,1,0,0,0,1,,,津波避難ビル
高知県,高知市,アムールハイツ高須,高知市高須1丁目4-6,33.559338,133.58213,0,1,0,0,0,1,,,津波避難ビル
高知県,高知市,コーポ浜田,高知市高須新町3丁目7-5,33.554844,133.577041,0,1,0,0,0,1,,,津波避難ビル
高知県,高知市,ルーカス高須,高知市葛島1丁目10-68,33.5588575,133.573502,0,1,0,0,0,1,,,津波避難ビル
高知県,高知市,インペリアル西本１,高知市葛島1丁目6-37,33.558544,133.571394,0,1,0,0,0,1,,,津波避難ビル
高知県,高知市,リバーサイドハイツ,高知市吸江239,33.546312,133.569709,0,1,0,0,0,1,,,津波避難ビル
高知県,高知市,（財）四国電気保安協会高知支部,高知市南久保5-8,33.5659,133.5646,0,1,0,0,0,1,,,津波避難ビル
高知県,高知市,布師田小学校,高知市布師田1781-1,33.5829,133.5916,1,1,0,1,1,1,789人,,指定避難所，津波避難ビル
高知県,高知市,比島公園,高知市比島町4丁目8,33.5733,133.5507,0,0,1,1,0,0,,,指定緊急避難場所
高知県,高知市,神田小学校,高知市神田1174-1,33.5414,133.5127,1,0,0,1,1,0,2063人,,指定避難所
高知県,高知市,潮江市営住宅,高知市小石木町204,33.5496,133.5254,0,1,0,0,0,1,,,津波避難ビル
高知県,高知市,高知追手前高等学校,高知市追手筋2丁目2-10,33.5615,133.5361,1,0,0,1,1,0,540人,,指定避難所
高知県,高知市,（株）吉永室内工芸ビル,高知市北竹島町428,33.544572,133.538645,0,1,0,0,0,1,,,津波避難ビル
高知県,高知市,松田市民会館,高知市朝倉己959-1,33.5382,133.4942,1,0,0,0,1,0,99人,,指定避難所
高知県,高知市,潮江第三コミュニティ住宅,高知市桟橋通3丁目32-26,33.5466,133.5466,0,1,0,0,0,1,,,津波避難ビル
高知県,高知市,メゾン・レーヴ高須,高知市高須2丁目17-20,33.560652,133.58954,0,1,0,0,0,1,,,津波避難ビル
高知県,高知市,一宮中学校,高知市一宮南町1丁目3-1,33.5766,133.5645,1,1,0,1,1,1,2172人,,指定避難所，津波避難ビル
高知県,高知市,横内小学校,高知市横内242-12,33.5636,133.4983,1,0,0,1,1,0,2187人,,指定避難所
高知県,高知市,潮江高橋病院　北棟,高知市土居町9-18,33.554588,133.544997,0,1,0,0,0,1,,,津波避難ビル
高知県,高知市,一宮東小学校,高知市一宮東町1丁目20-1,33.5842,133.5764,1,1,0,1,1,1,1387人,,指定避難所，津波避難ビル
高知県,高知市,介護老人保健施設　梅壽苑,高知市土居町9-18,33.554213,133.544639,0,1,0,0,0,1,,,津波避難ビル
高知県,高知市,種崎公園,高知市種崎777-3,33.5090,133.5728,0,0,1,1,0,0,,,指定緊急避難場所
高知県,高知市,潮江南小学校,高知市高見町248-1,33.5415,133.5392,1,1,0,1,1,1,1490人,,指定避難所，津波避難ビル
高知県,高知市,絹川ビル５,高知市桟橋通1丁目10-6,33.55091103,133.5465726,0,1,0,0,0,1,,,津波避難ビル
高知県,高知市,春野秋山市民会館,高知市春野町秋山107-１,33.4927,133.4857,1,0,0,1,1,0,78人,,指定避難所
高知県,高知市,県営住宅大津団地2号棟,高知市大津乙318,33.5683,133.6018,0,1,0,0,0,1,,,津波避難ビル
高知県,高知市,インペリアル西本２,高知市葛島1丁目6-28,33.558957,133.571242,0,1,0,0,0,1,,,津波避難ビル
高知県,高知市,川村病院管理棟,高知市上町5丁目7-22,33.555737,133.517302,0,1,0,0,0,1,,,津波避難ビル
高知県,高知市,長浜市民会館,高知市長浜4250,33.4914,133.5419,1,0,0,1,1,0,400人,,指定避難所
高知県,高知市,カームリヴ,高知市桟橋通1丁目13-12,33.551474,133.544697,0,1,0,0,0,1,,,津波避難ビル
高知県,高知市,春野弘岡中市民会館,高知市春野町弘岡中134-１,33.4953,133.4687,1,0,0,0,1,0,106人,,指定避難所
高知県,高知市,潮江小学校,高知市百石町2丁目4-40,33.5491,133.5426,1,1,0,1,1,1,1985人,,指定避難所，津波避難ビル
高知県,高知市,四電葛島アパート,高知市葛島4丁目4-3,33.5549,133.5735,0,1,0,0,0,1,,,津波避難ビル
高知県,高知市,春野公民館弘岡下分館,高知市春野町弘岡下1500,33.5018,133.4770,1,0,0,1,1,0,192人,,指定避難所
高知県,高知市,仁井田公園,高知市十津6丁目1,33.5226,133.5755,0,0,1,1,0,0,,,指定緊急避難場所
高知県,高知市,ドルフ高須,高知市高須新木1-29,33.560833,133.583524,0,1,0,0,0,1,,,津波避難ビル
高知県,高知市,鏡川町市営住宅1号棟,高知市鏡川町16,33.5539,133.5087,0,1,0,0,0,1,,,津波避難ビル
高知県,高知市,ニッポン高度紙工業株式会社 N-1号工場棟,高知市春野町弘岡上648,33.49727083,133.4562761,0,1,0,0,0,1,,,津波避難ビル
高知県,高知市,小高坂小学校,高知市新屋敷1丁目11-5,33.5647,133.5243,1,0,0,1,1,0,1832人,,指定避難所
高知県,高知市,杉本ビル大原町,高知市大原町87-1,33.552582,133.526763,0,1,0,0,0,1,,,津波避難ビル
高知県,高知市,高知丸の内高等学校,高知市丸の内2丁目2-40,33.5637,133.5328,1,1,0,1,1,1,587人,,指定避難所，津波避難ビル
高知県,高知市,大津ふれあいセンター,高知市大津乙930-5,33.5713,133.5981,1,0,0,1,1,0,84人,,指定避難所
高知県,高知市,サーパス知寄町?,高知市知寄町2丁目4-10,33.557369,133.561195,0,1,0,0,0,1,,,津波避難ビル
高知県,高知市,ロイヤル新本町,高知市新本町1丁目3-2,33.568216,133.541955,0,1,0,0,0,1,,,津波避難ビル
高知県,高知市,高知中学・高等学校,高知市北端町100,33.5605,133.5085,1,0,0,1,1,0,1794人,,指定避難所
高知県,高知市,マンションベスタ,高知市高須2丁目3-21,33.559886,133.585557,0,1,0,0,0,1,,,津波避難ビル
高知県,高知市,いずみビル,高知市和泉町6-1,33.571261,133.540591,0,1,0,0,0,1,,,津波避難ビル
高知県,高知市,城東中学校,高知市江陽町1-20,33.5675,133.5536,1,1,0,1,1,1,1929人,,指定避難所，津波避難ビル
高知県,高知市,城西中学校,高知市大膳町3-4,33.5598,133.5241,1,0,0,1,1,0,1759人,,指定避難所
高知県,高知市,潮江第一コミュニティ住宅,高知市百石町4丁目15-4,33.5435,133.5451,0,1,0,0,0,1,,,津波避難ビル
高知県,高知市,高知県庁,高知市丸ノ内1丁目2-20,33.55971559,133.5310775,0,1,0,0,0,1,,,津波避難ビル
高知県,高知市,高須ふれあいセンター,高知市高須新町2-5-15,33.5577,133.5801,1,0,0,1,1,0,59人,,指定避難所
高知県,高知市,鏡川町市営住宅2号棟,高知市鏡川町16,33.5536,133.5085,0,1,0,0,0,1,,,津波避難ビル
高知県,高知市,春野あじさい会館,高知市春野町西分1-1,33.4980,133.4873,1,0,0,1,1,0,178人,,指定避難所
高知県,高知市,高知地方・家庭・簡易裁判所合同庁舎,高知市丸ﾉ内1丁目3-5,33.559156,133.529348,0,1,0,0,0,1,,,津波避難ビル
高知県,高知市,伊予銀行高知支店,高知市本町2丁目1-9,33.559331,133.537309,0,1,0,0,0,1,,,津波避難ビル
高知県,高知市,潮見台公園,高知市潮見台1丁目,33.5609,133.6197,0,0,1,1,0,0,,,指定緊急避難場所
高知県,高知市,ミニパック株式会社高知潮江工場,高知市南竹島町53-3,33.539501,133.547853,0,1,0,0,0,1,,,津波避難ビル
高知県,高知市,春野公民館仁ノ分館,高知市春野町仁ノ384-5,33.4671,133.4864,1,0,0,0,1,0,41人,,指定避難所
高知県,高知市,イオンモール高知,高知市秦南町1丁目4-8,33.575282,133.542175,0,1,0,0,0,1,,,津波避難ビル
高知県,高知市,ピュアコート高須,高知市高須2丁目18-11,33.560438,133.589671,0,1,0,0,0,1,,,津波避難ビル
高知県,高知市,行川小・中学校,高知市行川472,33.5873,133.4583,1,0,0,1,1,0,823人,,指定避難所
高知県,高知市,有料老人ホームつばさ,高知市桟橋通1丁目7-17,33.55123292,133.5460576,0,1,0,0,0,1,,,津波避難ビル
高知県,高知市,平成ビル,高知市葛島3丁目14-1,33.552511,133.569395,0,1,0,0,0,1,,,津波避難ビル
高知県,高知市,マリベールグローリエ,高知市大津乙1245-2,33.575396,133.605562,0,1,0,0,0,1,,,津波避難ビル
高知県,高知市,横浜中学校,高知市横浜新町１丁目401,33.5214,133.5339,1,0,0,1,1,0,1905人,,指定避難所
高知県,高知市,カーサ一ツ橋,高知市一ツ橋町2丁目61,33.573702,133.530056,0,1,0,0,0,1,,,津波避難ビル
高知県,高知市,岡林マンション,高知市高須2丁目17-36,33.56007321,133.5888764,0,1,0,0,0,1,,,津波避難ビル
高知県,高知市,泉野小学校,高知市東秦泉寺788,33.5825,133.5483,1,0,0,0,1,0,2238人,,指定避難所
高知県,高知市,第四小学校,高知市上町2丁目1-11,33.5583,133.5242,1,0,0,0,1,0,1366人,,指定避難所
高知県,高知市,種崎地区津波避難センター,高知市種崎405-6,33.5069,133.5677,1,1,0,1,1,1,198人,,指定避難所，津波避難ビル
高知県,高知市,一宮市民会館,高知市一宮西町3丁目22-14,33.5887783,133.5704553,1,0,0,0,1,0,134人,,指定避難所
高知県,高知市,国土交通省四国地方整備局高知河川国道事務所,高知市六泉寺町96-7,33.5369,133.5451,0,1,0,0,0,1,,,津波避難ビル
高知県,高知市,アーバンヒル青山,高知市高須2丁目6-64,33.55877237,133.5879242,0,1,0,0,0,1,,,津波避難ビル
高知県,高知市,土佐塾本館,高知市はりまや町3丁目7-8,33.563503,133.544422,0,1,0,0,0,1,,,津波避難ビル
高知県,高知市,高須小学校,高知市高須1丁目1-55,33.5585,133.5809,1,1,0,1,1,1,1980人,,指定避難所，津波避難ビル
高知県,高知市,栄田町コミュニティ住宅2号棟,高知市栄田町1丁目6-20,33.5678,133.5404,0,1,0,0,0,1,,,津波避難ビル
高知県,高知市,高知県立大学　永国寺キャンパス,高知市永国寺町5-15,33.5637,133.5340,1,0,0,1,1,0,554人,,指定避難所
高知県,高知市,弥右衛門公園,高知市高そね12-1,33.5735,133.5569,0,0,1,1,0,0,,,指定緊急避難場所
高知県,高知市,久重小学校,高知市久礼野2340-2,33.6122,133.5624,1,0,0,1,1,0,767人,,指定避難所
高知県,高知市,グランディ,高知市高須新町3丁目1-36,33.556161,133.577355,0,1,0,0,0,1,,,津波避難ビル
高知県,高知市,ロイヤルガーデン２,高知市葛島1丁目6-6,33.558227,133.570986,0,1,0,0,0,1,,,津波避難ビル
高知県,高知市,高知学芸中学・高等学校,高知市槇山町11-12,33.5379,133.4833,1,0,0,1,1,0,800人,,指定避難所
高知県,高知市,旭東小学校,高知市北端町50,33.5596,133.5079,1,0,0,1,1,0,2014人,,指定避難所
高知県,高知市,海老川市民会館,高知市朝倉己422-1,33.5334803,133.4905546,1,0,0,0,1,0,134人,,指定避難所
高知県,高知市,アーバンハイツ上町,高知市上町3丁目7-26,33.557028,133.521138,0,1,0,0,0,1,,,津波避難ビル
高知県,高知市,総合福祉施設ヘリオス,高知市横浜20-1,33.528541,133.553681,0,1,0,0,0,1,,,津波避難ビル
高知県,高知市,ハピネス杉井流,高知市杉井流6-10,33.569808,133.554612,0,1,0,0,0,1,,,津波避難ビル
高知県,高知市,高知商業高等学校,高知市大谷6,33.5601,133.4944,1,0,0,1,1,0,6710人,,指定避難所
高知県,高知市,栄田町コミュニティ住宅1号棟,高知市栄田町1丁目5-12,33.5674,133.5404,0,1,0,0,0,1,,,津波避難ビル
高知県,高知市,萩公園,高知市新田町16,33.5496,133.5552,0,0,1,1,0,0,,,指定緊急避難場所
高知県,高知市,市立養護学校,高知市本宮町125,33.5575,133.4984,1,0,0,1,1,0,1325人,,指定避難所
高知県,高知市,朝倉第二小学校,高知市若草南町23-56,33.5408,133.4886,1,0,0,1,1,0,2197人,,指定避難所
高知県,高知市,ガーデンハイム西村,高知市秦南町1丁目5-46,33.574376,133.5427451,0,1,0,0,0,1,,,津波避難ビル
高知県,高知市,江ノ口コミュニティセンター,高知市愛宕町１丁目10-7,33.5662,133.5360,1,1,0,1,1,1,129人,,指定避難所，津波避難ビル
高知県,高知市,青柳公園,高知市稲荷町1-3,33.5570,133.5585,0,0,1,1,0,0,,,指定緊急避難場所
高知県,高知市,有料老人ホームとも,高知市北久保2-39,33.569534,133.564253,0,1,0,0,0,1,,,津波避難ビル
高知県,高知市,土佐女子中学・高等学校,高知市追手筋2丁目3-1,33.5613,133.5352,1,0,0,1,1,0,1352人,,指定避難所
高知県,高知市,高知県赤十字血液センター,高知市桟橋通6丁目7-44,33.5403,133.5563,0,1,0,0,0,1,,,津波避難ビル
高知県,高知市,西山市民会館,高知市神田140-2,33.5374856,133.4985802,1,0,0,0,1,0,134人,,指定避難所
高知県,高知市,一ツ橋小学校,高知市吉田町4-10,33.5716,133.5323,1,1,0,1,1,1,1290人,,指定避難所，津波避難ビル
高知県,高知市,コーポマルミ,高知市葛島3丁目14-3,33.5525054,133.5694782,0,1,0,0,0,1,,,津波避難ビル
高知県,高知市,春野公民館甲殿分館,高知市春野町甲殿341-1,33.4816,133.5154,1,0,0,1,1,0,92人,,指定避難所
高知県,高知市,浦戸小学校,高知市浦戸410-1,33.4959,133.5688,1,0,0,1,1,0,659人,,指定避難所
高知県,高知市,ピュア高須?,高知市高須東町14-11,33.558508,133.595234,0,1,0,0,0,1,,,津波避難ビル
高知県,高知市,メゾン・ド・ケイ,高知市高須3丁目2-47,33.562252,133.589265,0,1,0,0,0,1,,,津波避難ビル
高知県,高知市,第３山?マンション,高知市高須新町4丁目7-8,33.55453,133.578719,0,1,0,0,0,1,,,津波避難ビル
高知県,高知市,介良小学校,高知市介良乙2735-1,33.5566,133.6018,1,0,0,1,1,0,1721人,,指定避難所
高知県,高知市,初月小学校,高知市南久万128,33.5747,133.5188,1,0,0,1,1,0,1961人,,指定避難所
高知県,高知市,セントラルディーボ知寄店,高知市青柳町35-1,33.5561,133.5657,0,1,0,0,0,1,,,津波避難ビル
高知県,高知市,竹島公園,高知市竹島町54-3,33.5422,133.5454,0,0,1,1,0,0,,,指定緊急避難場所
高知県,高知市,セントラル宝永店,高知市中宝永町10-4,33.5583,133.5540,0,1,0,0,0,1,,,津波避難ビル
高知県,高知市,春野東小学校,高知市春野町東諸木3978,33.4954,133.5140,1,0,0,1,1,0,1454人,,指定避難所
高知県,高知市,ステラ桟橋,高知市桟橋通5丁目6-12,33.5391,133.5508,0,1,0,0,0,1,,,津波避難ビル
高知県,高知市,高知県工業技術センター,高知市布師田3992-3,33.5729,133.5787,0,1,0,0,0,1,,,津波避難ビル
高知県,高知市,高須浄化センター敷地,高知市高須,33.5642,133.5727,0,0,1,1,0,0,,,指定緊急避難場所
高知県,吾川郡いの町,谷老人里の家,高知県吾川郡いの町21916,33.553660793471,133.41650965128,1,0,0,1,0,0,,,避難所
高知県,高知市,ヴィラージュ葛島,高知市葛島1丁目7-9,33.55911,133.571486,0,1,0,0,0,1,,,津波避難ビル
高知県,高知市,昭和小学校,高知市日の出町7-61,33.5598,133.5580,1,1,0,1,1,1,2011人,,指定避難所，津波避難ビル
高知県,高知市,パル・グランディ,高知市高須新町3丁目1-20,33.556447,133.577327,0,1,0,0,0,1,,,津波避難ビル
高知県,高知市,潮江第二コミュニティ住宅,高知市百石町3丁目6-8,33.5462,133.5460,0,1,0,0,0,1,,,津波避難ビル
高知県,高知市,梅ノ辻クリニック,高知市梅ﾉ辻8-7,33.553666,133.543447,0,1,0,0,0,1,,,津波避難ビル
高知県,高知市,弥右衛門ふれあいセンター,高知市北御座9-1,33.5690757,133.5584735,1,0,0,1,1,0,329人,,指定避難所
高知県,高知市,朝倉市民会館,高知市朝倉東町24-33,33.5462,133.4972,1,0,0,0,1,0,134人,,指定避難所
高知県,宿毛市,弘瀬離島センター,高知県宿毛市沖の島町弘瀬562-1,32.719192407695,132.55006695119,1,0,0,1,0,0,,,指定避難所
高知県,高知市,テポーレヒル,高知市大津乙1245-7,33.575368,133.605787,0,1,0,0,0,1,,,津波避難ビル
高知県,高知市,春野公民館諸木分館,高知市春野町東諸木3441-1,33.4901,133.5192,1,0,0,1,1,0,170人,,指定避難所
高知県,高知市,サーパス高須中央,高知市高須1丁目16-2,33.558583,133.586063,0,1,0,0,0,1,,,津波避難ビル
高知県,高知市,桂浜公園,高知市浦戸,33.4970,133.5726,0,0,1,1,0,0,,,指定緊急避難場所
高知県,高知市,高知県北庁舎,高知市丸ノ内2丁目4-1,33.5623,133.5325,0,1,0,0,0,1,,,津波避難ビル
高知県,高知市,県営住宅大津団地1号棟,高知市大津乙318,33.5680,133.6020,0,1,0,0,0,1,,,津波避難ビル
高知県,高知市,はりまや橋小学校,高知市はりまや町2丁目14-8,33.5617,133.5465,1,1,0,1,1,1,1491人,,指定避難所，津波避難ビル
高知県,香南市,辰ノ口集会所,高知県香南市夜須町坪井791-3,33.537740461025,133.74751240877,1,0,0,1,0,0,,,緊急避難場所
高知県,高知市,南海中学校,高知市長浜5235,33.4967,133.5469,1,0,0,1,1,0,1918人,,指定避難所
高知県,高知市,ボンジュール宗円,高知市高須2丁目13-10,33.561583,133.585582,0,1,0,0,0,1,,,津波避難ビル
高知県,高知市,こうち男女共同参画センター「ソーレ」,高知市旭町3丁目115,33.5561,133.5074,1,0,0,1,1,0,193人,,指定避難所
高知県,高知市,高知土木事務所,高知市稲荷町11-26,33.55617957,133.5607696,0,1,0,0,0,1,,,津波避難ビル
高知県,南国市,岡豊高等学校,南国市岡豊中島511-1,33.5821,133.6098,1,1,0,1,1,1,764人,,指定避難所，津波避難ビル
高知県,高知市,高知中央自動車学校,高知市江陽町4-50,33.568006,133.554021,0,1,0,0,0,1,,,津波避難ビル
高知県,高知市,エレガンテ大川筋,高知市大川筋2丁目6-8,33.565017,133.532381,0,1,0,0,0,1,,,津波避難ビル
高知県,安芸郡安田町,中村東集会所,高知県安芸郡安田町大字東島4894-3,33.449046991636,133.99183534893,1,0,0,1,0,0,,,避難所
高知県,高知市,小石木市民会館,高知市小石木町182-4,33.5509,133.5292,1,0,0,0,1,0,134人,,指定避難所
高知県,高知市,ニッポン高度紙工業株式会社 8号工場棟,高知市春野町弘岡上648,33.49689954,133.457365,0,1,0,0,0,1,,,津波避難ビル
高知県,高知市,オリザビル,高知市桟橋通1丁目12-17,33.550913,133.545,0,1,0,0,0,1,,,津波避難ビル
高知県,高知市,介良潮見台小学校,高知市潮見台1丁目2602-1,33.5619,133.6204,1,0,0,1,1,0,2204人,,指定避難所
高知県,高知市,東部健康福祉センター,高知市葛島４丁目3-3,33.5554,133.5734,1,0,0,1,1,0,213人,,指定避難所
高知県,高知市,株式会社四電工高知支店,高知市桟橋通2丁目2-25,33.5487,133.5476,0,1,0,0,0,1,,,津波避難ビル
高知県,高知市,高知小津高等学校,高知市城北町1-14,33.5640,133.5265,1,1,0,1,1,1,928人,,指定避難所，津波避難ビル
高知県,土佐郡土佐町,平石小体育館,高知県土佐郡土佐町平石,33.716227253622,133.48579269761,1,0,0,-,-,-,,,避難所
高知県,高知市,高知南高等学校,高知市桟橋通6丁目2-1,33.5417,133.5548,1,1,0,1,1,1,1570人,,指定避難所，津波避難ビル
高知県,高知市,大谷公園,高知市大谷公園町16-85,33.5355,133.4810,0,0,1,1,0,0,,,指定緊急避難場所
高知県,高知市,鴨田小学校,高知市鴨部1155,33.5471,133.5077,1,0,0,1,1,0,2801人,,指定避難所
高知県,高知市,ハーモナイズおおつ2号棟,高知市大津乙845,33.5693,133.5949,0,1,0,0,0,1,,,津波避難ビル
高知県,高知市,株式会社轟組,高知市萩町一丁目5-13,33.546839,133.5547212,0,1,0,0,0,1,,,津波避難ビル
高知県,高知市,ロイヤルガーデン,高知市葛島1丁目6-8,33.55878,133.570858,0,1,0,0,0,1,,,津波避難ビル
高知県,高知市,鴨部市営住宅,高知市鴨部1丁目13-2,33.5514,133.5030,0,1,0,0,0,1,,,津波避難ビル
高知県,高岡郡四万十町,道徳集会所,高知県高岡郡四万十町,33.265641607894,133.18738130645,1,0,0,-,-,-,,,１次避難所
高知県,香南市,西山八幡宮,高知県香南市夜須町西山254,33.544688743544,133.76067295174,1,0,0,-,-,-,,,緊急避難場所
高知県,高知市,JA高知ビル,高知市北御座2-27,33.5689,133.5597,0,1,0,0,0,1,,,津波避難ビル
高知県,高知市,丸池公園,高知市丸池町9,33.5612,133.5636,0,0,1,1,0,0,,,指定緊急避難場所
高知県,高知市,郵便事業株式会社高知支店,高知市北本町1丁目10-18,33.5666,133.5413,0,1,0,0,0,1,,,津波避難ビル
高知県,高知市,木村会館,高知市旭町3丁目121,33.5564,133.5079,1,0,0,1,1,0,148人,,指定避難所
高知県,香南市,東北児童遊園地,高知県香南市吉川町吉原185-2,33.540042808164,133.70438800921,-,-,-,-,-,-,,,緊急避難場所
高知県,高知市,ＬＢ?１,高知市桜井町1丁目3-36,33.560587,133.549205,0,1,0,0,0,1,,,津波避難ビル
高知県,高岡郡四万十町,町営住宅団地内集会所,高知県高岡郡四万十町,33.215194960948,133.13638979796,1,0,0,-,-,-,,,１次避難所
高知県,高岡郡四万十町,藤ノ川公民館,高知県高岡郡四万十町,33.220395747639,133.17546068793,1,0,0,-,-,-,,,１次避難所
高知県,高知市,龍馬看護ふくし専門学校,高知市北本町1丁目5-3,33.565822,133.538467,0,1,0,0,0,1,,,津波避難ビル
高知県,高知市,高知県西庁舎,高知市丸ノ内1丁目7-52,33.5594,133.5282,0,1,0,0,0,1,,,津波避難ビル
高知県,高知市,ポートハイム28,高知市桟橋通5丁目6-1,33.539945,133.55133,0,1,0,0,0,1,,,津波避難ビル
高知県,高知市,サーパス知寄町?,高知市知寄町2丁目4-9,33.557505,133.560737,0,1,0,0,0,1,,,津波避難ビル
高知県,香南市,特別養護老人ホーム三宝荘,高知県香南市野市町母代寺188,33.581747271821,133.70273771474,1,0,0,1,0,0,,,緊急避難場所
高知県,高知市,よさこい咲都合同庁舎,高知市栄田町2丁目2-10,33.5674,133.5449,0,1,0,0,0,1,,,津波避難ビル
高知県,幡多郡黒潮町,藤縄集会所,高知県幡多郡黒潮町藤縄784-3,33.095989177108,133.09203647365,1,0,0,1,0,0,,,避難所
高知県,香南市,栄町集会所,高知県香南市赤岡町28-1,33.542559277837,133.71624255868,1,0,0,1,0,0,,,緊急避難場所
高知県,高知市,ビ・ウェル播磨屋,高知市はりまや町3丁目21-2,33.562276,133.546513,0,1,0,0,0,1,,,津波避難ビル
高知県,高知市,初月公園,高知市南久万189,33.5718,133.5196,0,0,1,1,0,0,,,指定緊急避難場所
高知県,高知市,秦住宅1号棟,高知市秦南町1丁目4-113,33.5746,133.5443,0,1,0,0,0,1,,,津波避難ビル
高知県,高知市,高知市水道局庁舎,高知市桟橋通3丁目31-11,33.5467,133.5480,0,1,0,0,0,1,,,津波避難ビル
高知県,安芸郡東洋町,小池老人憩の家,高知県安芸郡東洋町河内151-1,33.547112616484,134.29380525421,1,0,0,-,-,-,,,避難所
高知県,高知市,福寿園,高知市福井町748,33.5693,133.5119,1,0,0,1,1,0,272人,,指定避難所
高知県,長岡郡大豊町,穴内会館,高知県長岡郡大豊町穴内2300-1,33.783385363572,133.69679423829,1,0,0,1,0,0,,,避難所
高知県,高岡郡四万十町,七里小学校,高知県高岡郡四万十町七里甲1214,33.263376602272,133.13090687518,1,0,0,1,0,0,,,１次避難所
高知県,高知市,城北中学校,高知市八反町1丁目8-14,33.5678,133.5251,1,1,0,1,1,1,1981人,,指定避難所，津波避難ビル
高知県,高知市,高知大学教育学部附属中学校,高知市小津町10-91,33.5663,133.5286,1,0,0,1,1,0,1010人,,指定避難所
高知県,高知市,三里ふれあいセンター,高知市仁井田4229-2,33.5132,133.5748,1,0,0,1,1,0,46人,,指定避難所
高知県,高知市,秦泉寺公園,高知市中秦泉寺318-1,33.5823,133.5324,0,0,1,1,0,0,,,指定緊急避難場所
高知県,土佐清水市,中浜小学校,高知県土佐清水市中浜161-1,32.75605675275,132.96630986825,1,0,0,1,0,0,,,避難所
高知県,高知市,一ツ橋レジデンス,高知市一ツ橋町2丁目52,33.572977,133.528962,0,1,0,0,0,1,,,津波避難ビル
高知県,長岡郡大豊町,大豊中学校,高知県長岡郡大豊町黒石200-2,33.784583202276,133.72855756057,1,0,0,-,-,-,,,避難所
高知県,幡多郡黒潮町,大井川集会所,高知県幡多郡黒潮町大井川71,33.065691161521,132.98232816991,1,0,0,1,0,0,,,避難所
高知県,高知市,朝倉ふれあいセンター,高知市曙町1丁目14-12,33.5497,133.4904,1,0,0,1,1,0,50人,,指定避難所
高知県,高知市,郵便事業株式会社高知東支店,高知市介良乙952-1,33.5616,133.5950,0,1,0,0,0,1,,,津波避難ビル
高知県,高知市,ＡＰパーク高知,高知市帯屋町2丁目5-11,33.55967536,133.5352296,0,1,0,0,0,1,,,津波避難ビル
高知県,高知市,中勝建設株式会社,高知市葛島4丁目5-14,33.555113,133.572817,0,1,0,0,0,1,,,津波避難ビル
高知県,吾川郡仁淀川町,名野川小学校体育館,高知県吾川郡仁淀川町名野川450,33.560615028207,133.13182300742,1,0,0,-,-,-,520人,,指定避難場所
高知県,高知市,横浜小学校,高知市瀬戸東町１丁目26,33.5150,133.5475,1,0,0,1,1,0,1700人,,指定避難所
高知県,土佐清水市,下ノ加江中学校,高知県土佐清水市下ノ加江2808-12,32.862664854389,132.95134763183,1,0,0,-,-,-,,,避難所
高知県,安芸郡芸西村,西組集会所,高知県安芸郡芸西村馬ノ上1061-1,33.532119088054,133.81250507158,1,0,0,1,0,0,16人,,１次避難所
高知県,高知市,第六小学校,高知市升形9-4,33.5560,133.5289,1,0,0,1,1,0,1170人,,指定避難所
高知県,高岡郡越知町,八ヶ窪集会所,高知県高岡郡越知町17区2,33.558155530374,133.20192809376,1,0,0,-,-,-,30人,,一時避難所
高知県,高知市,高知市たかじょう庁舎,高知市鷹匠町2丁目1-43,33.5567,133.5319,0,1,0,0,0,1,,,津波避難ビル
高知県,高知市,シンセイ高知店,高知市桟橋通1丁目1-30,33.55215611,133.5453254,0,1,0,0,0,1,,,津波避難ビル
高知県,須崎市,南公民館,高知県須崎市大谷206-1,33.381010854589,133.31244265786,1,0,0,-,-,-,,,避難所
高知県,安芸郡安田町,中里拓心会館,高知県安芸郡安田町大字中里86,33.51889133277,134.02279641294,1,0,0,1,0,0,,,避難所
高知県,高岡郡日高村,長崎集会所,高知県高岡郡日高村沖名245-1,33.529088572516,133.37429969175,-,-,-,-,-,-,,,避難場所
高知県,南国市,高齢者多世代交流プラザ,高知県南国市十市2315-1,33.531231764773,133.6198559066,1,0,0,1,0,0,82人,,避難所
高知県,高知市,西部中学校,高知市鴨部１丁目9-1,33.5510,133.5060,1,0,0,1,1,0,1983人,,指定避難所
高知県,吾川郡仁淀川町,消防池川分団屯所,高知県吾川郡仁淀川町土居甲953,33.609080016413,133.17243844262,1,0,0,-,-,-,,,指定避難場所
高知県,高知市,布師田ふれあいセンター,高知市布師田1647,33.5834,133.5950,1,0,0,1,1,0,135人,,指定避難所
高知県,安芸市,すまいるあき,高知県安芸市久世町9-20,33.50120709,133.90270818,0,1,0,1,0,1,7800人,（施設内）飲料水、食糧、毛布ほか,
高知県,香南市,深渕公民館,高知県香南市野市町深渕134,33.570571799448,133.68845880819,1,0,0,-,-,-,,,緊急避難場所
高知県,香南市,鎌井谷公民館,高知県香南市香我美町山北3637,33.583634530491,133.7388844665,1,0,0,-,-,-,,,緊急避難場所
高知県,香南市,佐古防災コミュニティーセンター,高知県香南市野市町母代寺71-1,33.581111180864,133.69967964446,1,0,0,1,0,0,,,緊急避難場所
高知県,吾川郡仁淀川町,別府小学校体育館,高知県吾川郡仁淀川町森2449,33.537081326769,133.129361871,1,0,0,-,-,-,,,指定避難場所
高知県,高知市,レオパレスヴィラ高須,高知市高須3丁目16-7,33.564316,133.590476,0,1,0,0,0,1,,,津波避難ビル
高知県,香美市,開発センター物部,高知県香美市物部町大栃1390-1,33.697739394138,133.87695738099,1,0,0,-,-,-,,,避難場所
高知県,高知市,江陽小学校,高知市江陽町1-30,33.5666,133.5521,1,0,0,1,1,0,2101人,,指定避難所
高知県,吾川郡仁淀川町,仁淀川町多目的研修施設,高知県吾川郡仁淀川町成川530,33.641240509297,133.19473482656,1,0,0,-,-,-,,,指定避難場所
高知県,高岡郡越知町,深瀬集会所,高知県高岡郡越知町深瀬,33.569577849863,133.21737620924,1,0,0,-,-,-,30人,,一時避難所
高知県,高岡郡日高村,妹背集会所,高知県高岡郡日高村本郷1166-イ,33.535298715805,133.36127837014,-,-,-,-,-,-,,,避難場所
高知県,安芸市,伊尾木小学校校庭,高知県安芸市伊尾木3719,33.48937059,133.93342411,0,1,0,0,1,0,4152人,,
高知県,南国市,琴平神社,高知県南国市里改田2607,33.53616955542,133.63731873565,-,-,-,1,0,1,3000人,,緊急避難場所
高知県,安芸郡東洋町,中村地区集会所,高知県安芸郡東洋町野根丙1271,33.507008349019,134.26287564836,1,0,0,1,0,0,,,避難所
高知県,吾川郡いの町,南の谷集落センター,高知県吾川郡いの町大内2437,33.527495384283,133.42433925231,1,0,0,1,0,0,,,避難所
高知県,高知市,高知市第二庁舎,高知市本町5丁目1-45,33.5583,133.5306,0,1,0,0,0,1,,,津波避難ビル
高知県,土佐清水市,下ノ加江小学校,高知県土佐清水市下ノ加江484,32.872269417388,132.94798386059,1,0,0,-,-,-,,,避難所
高知県,安芸郡東洋町,浦地区集会所,高知県安芸郡東洋町野根丙1645-2,33.503717094252,134.26919630564,1,0,0,-,-,-,,,避難所
高知県,香南市,香南市役所赤岡庁舎,高知県香南市赤岡町475-5,33.542737564545,133.72164158091,1,0,0,-,-,-,,,緊急避難場所
高知県,香美市,楠目小学校,高知県香美市土佐山田町楠目391-2,33.60729732039,133.70253732913,1,0,0,1,0,0,,,避難場所
高知県,高岡郡四万十町,仁井田保育所,高知県高岡郡四万十町仁井田915,33.242788009949,133.16066722765,1,0,0,-,-,-,,,避難所
高知県,香南市,兎田公民館,高知県香南市野市町兎田470-2,33.572868934386,133.72069475244,1,0,0,-,-,-,,,緊急避難場所
高知県,香南市,香我美小学校,高知県香南市香我美町下分750,33.573058387881,133.74281455497,1,0,0,1,0,0,,,緊急避難場所
高知県,高知市,高須グランドハイツ,高知市高須新町3丁目2-4,33.555725,133.575722,0,1,0,0,0,1,,,津波避難ビル
高知県,幡多郡黒潮町,旧挙ノ川保育所,高知県幡多郡黒潮町挙ノ川27,33.136844533651,133.12428755394,1,0,0,1,0,0,,,避難所
高知県,高岡郡四万十町,十川老人憩いの家,高知県高岡郡四万十町十川224-1,33.233596353503,132.85098823021,1,0,0,-,-,-,,,避難所
高知県,香南市,吉川西部集会所,高知県香南市吉川町吉原559-10,33.539437349587,133.70104113131,1,0,0,1,0,0,,,緊急避難場所
高知県,安芸郡芸西村,長谷寄ふれあいセンター,高知県安芸郡芸西村西分甲2202-1,33.521136625397,133.78905202093,1,0,0,-,-,-,58人,,１次避難所
高知県,安芸郡北川村,北部集会所,高知県安芸郡北川村大字島766-1,33.54167843824,134.11932613409,1,0,0,1,0,0,30人,,避難施設
高知県,香美市,楠目地区老人憩の家,高知県香美市土佐山田町楠目1045,33.610627581239,133.70314548916,1,0,0,-,-,-,,,避難場所
高知県,香南市,香南市大峰の里,高知県香南市夜須町坪井1-1,33.536638942344,133.75603641422,1,0,0,1,0,0,,,緊急避難場所
高知県,高知市,コーポ山?,高知市高須新町4丁目2-12,33.555919,133.578722,0,1,0,0,0,1,,,津波避難ビル
高知県,土佐郡土佐町,白石集会所,高知県土佐郡土佐町南泉572-2,33.723895224023,133.53359152436,1,0,0,1,0,0,,,避難所
高知県,吾川郡仁淀川町,長者保育所,高知県吾川郡仁淀川町,33.501474261223,133.13425552069,1,0,0,-,-,-,,,指定避難場所
高知県,高岡郡日高村,父原集会所,高知県高岡郡日高村本郷592-16,33.534096140405,133.36761953221,-,-,-,-,-,-,,,避難場所
高知県,土佐清水市,小方公会堂,高知県土佐清水市下ノ加江512-1(小方),32.873810901815,132.94633958518,1,0,0,-,-,-,,,避難所
高知県,安芸郡田野町,田野町第3津波避難タワー,高知県安芸郡田野町,33.426401788279,134.00519743811,-,-,-,1,0,1,,,緊急避難場所
高知県,高岡郡四万十町,弘見集会所,高知県高岡郡四万十町,33.230919302779,133.20190313399,1,0,0,-,-,-,,,１次避難所
高知県,土佐清水市,浜益野公会堂,高知県土佐清水市下益野1990,32.791318852625,132.88793681867,1,0,0,-,-,-,,,避難所
高知県,高知市,大津中学校,高知市大津乙740-1,33.5693,133.5959,1,1,0,1,1,1,1166人,,指定避難所，津波避難ビル
高知県,土佐清水市,市民体育館,高知県土佐清水市清水853-3,32.790758988246,132.96130427875,1,0,0,1,0,0,,,避難所
高知県,宿毛市,宿毛小学校,高知県宿毛市桜町8番5号,32.939438232064,132.72803498992,1,0,0,-,-,-,1657人,,指定避難所
高知県,香美市,片地保育園,高知県香美市土佐山田町神母ノ木253,33.614785446495,133.71592755158,1,0,0,-,-,-,,,避難場所
高知県,四万十市,西土佐中央公民館,高知県四万十市西土佐江川崎2445-2,33.173001876929,132.78791208234,1,0,0,1,0,0,,,避難所
高知県,南国市,国府小学校,高知県南国市国分1201-1,33.604517731252,133.64428765625,1,0,0,1,0,0,325人,,緊急避難場所・避難所
高知県,長岡郡本山町,東部集会所,高知県長岡郡本山町高角437-1,33.76057385572,133.61896485295,1,0,0,1,0,0,,,避難所
高知県,幡多郡大月町,旧中央中学校体育館,高知県幡多郡大月町頭集13,32.798921696729,132.68415526857,1,0,0,1,0,0,,,避難所
高知県,高知市,県立弓道場,高知市高そね12-1,33.574943,133.557527,0,1,0,0,0,1,,,津波避難ビル
高知県,高岡郡日高村,宇井集会所,高知県高岡郡日高村本郷3022-4,33.527527409496,133.35506795274,-,-,-,-,-,-,,,避難場所
高知県,香南市,浜口集会所,高知県香南市吉川町吉原652,33.539981666958,133.69901629557,1,0,0,-,-,-,,,緊急避難場所
高知県,高岡郡四万十町,弘瀬集会所,高知県高岡郡四万十町弘瀬459-5,33.168628680027,133.05498253005,1,0,0,1,0,0,,,１次避難所
高知県,幡多郡黒潮町,大方高校,高知県幡多郡黒潮町入野5507,33.026987996844,133.00832217553,1,0,0,1,0,0,,,避難所
高知県,高岡郡越知町,桐見川小学校,高知県高岡郡越知町桐見川866,33.5063175582,133.16570682685,1,0,0,1,0,0,,,一時避難所・拠点避難所
高知県,高岡郡中土佐町,長沢地区多目的集会所,高知県高岡郡中土佐町久礼1981-1,33.330302193293,133.22159425763,1,0,0,-,-,-,57人,,指定避難場所
高知県,香美市,片地小学校,高知県香美市土佐山田町宮ノ口9,33.618301768381,133.71730231816,1,0,0,1,0,0,,,避難場所
高知県,高知市,国土交通省四国地方整備局土佐国道事務所,高知市江陽町2-2,33.5677,133.5516,0,1,0,0,0,1,,,津波避難ビル
高知県,土佐郡土佐町,樺集会所,高知県土佐郡土佐町田井627-1,33.749181702236,133.55065938876,1,0,0,1,0,0,,,避難所
高知県,高岡郡檮原町,梼原小学校（跡）,高知県高岡郡檮原町梼原1212-2,33.39363945376,132.92859257597,1,0,0,1,0,0,,,避難所
高知県,長岡郡大豊町,西峰小学校,高知県長岡郡大豊町西峰2392-1,33.80881133061,133.83016035969,1,0,0,1,0,0,,,避難所
高知県,幡多郡黒潮町,小黒の川集会所,高知県幡多郡黒潮町小黒の川156,33.123200516741,133.12085219193,1,0,0,1,0,0,,,避難所
高知県,高岡郡四万十町,広井小学校体育館,高知県高岡郡四万十町広瀬583-13,33.20979612068,132.8490301161,1,0,0,1,0,0,,,避難所
高知県,吾川郡いの町,すこやかセンター伊野,高知県吾川郡いの町1400,33.546744496103,133.43186581669,1,0,0,1,0,0,,,避難所
高知県,高岡郡佐川町,中野公民館,高知県高岡郡佐川町中野,33.531838903609,133.28881346369,-,-,-,-,-,-,14人,,緊急避難場所
高知県,高知市,福井公園,高知市福井町1006-1,33.5647,133.5080,0,0,1,1,0,0,,,指定緊急避難場所
高知県,室戸市,愛宕山,高知県室戸市浮津,33.296599618958,134.14311847835,-,-,-,0,0,1,,,津波緊急避難場所
高知県,吾川郡いの町,藤ヶ瀬集会所,高知県吾川郡いの町枝川57-2,33.554504169559,133.44560125054,1,0,0,1,0,0,,,避難所
高知県,安芸郡北川村,和田公園管理棟,高知県安芸郡北川村大字和田813-8,33.488705703467,134.0816324177,1,0,0,-,-,-,10人,,避難施設
高知県,高岡郡四万十町,西川角公民館,高知県高岡郡四万十町,33.246565615325,133.13327580788,1,0,0,-,-,-,,,１次避難所
高知県,香南市,新浜緑地公園,高知県香南市吉川町吉原301,33.540515232637,133.70219039088,1,0,0,-,-,-,,,緊急避難場所
高知県,土佐清水市,松尾小学校,高知県土佐清水市松尾467-1,32.734393271055,132.98024522735,1,0,0,1,0,0,,,避難所
高知県,安芸郡東洋町,甲浦中町地区集会所,高知県安芸郡東洋町甲浦333-1,33.547965317338,134.29913532461,1,0,0,-,-,-,,,避難所
高知県,高知市,春野公民館弘岡中分館,高知市春野町弘岡中711,33.5054,133.4664,1,0,0,1,1,0,166人,,指定避難所
高知県,四万十市,藤ノ川小学校へき地集会室,高知県四万十市西土佐藤ノ川640-2,33.15895735855,132.83997566007,1,0,0,1,0,0,,,避難所
高知県,安芸郡芸西村,長谷集会所,高知県安芸郡芸西村西分甲2196-1,33.521114431391,133.78890763545,1,0,0,1,0,0,26人,,１次避難所
高知県,香美市,則友公会堂,高知県香美市物部町山崎2153,33.69351113513,133.92038540558,1,0,0,-,-,-,,,避難場所
高知県,安芸郡安田町,城集会所,高知県安芸郡安田町大字東島2571,33.444323754055,133.99543566234,1,0,0,1,0,0,,,避難所
高知県,幡多郡黒潮町,挙ノ川小学校,高知県幡多郡黒潮町挙ノ川243,33.145511351663,133.12101218992,1,0,0,1,0,0,,,避難所
高知県,南国市,大篠保育園,高知県南国市大そね甲2504,33.569234229643,133.63960104547,1,0,0,1,0,0,283人,,緊急避難場所・避難所
高知県,南国市,岩村ふれあいセンター,高知県南国市福船371-4,33.582198222778,133.67543769907,1,0,0,1,0,0,80人,,緊急避難場所・避難所
高知県,南国市,長岡西部保育所,高知県南国市幸町1-2-23,33.579097856311,133.64206242623,1,0,0,1,0,0,288人,,緊急避難場所・避難所
高知県,安芸郡安田町,東島老人憩いの家,高知県安芸郡安田町大字西島72-1,33.443037280619,133.98507710559,-,-,-,1,0,0,,,指定広域避難場所
高知県,須崎市,エムセテック高知第2工場,高知県須崎市大谷1117-1,33.383727109818,133.30433766205,1,0,0,1,0,1,,,避難所
高知県,高岡郡四万十町,東部地区交流センター,高知県高岡郡四万十町,33.198131955924,132.94825113538,1,0,0,-,-,-,,,１次避難所
高知県,安芸郡芸西村,叶木集会所,高知県安芸郡芸西村和食甲4646-80,33.517429696358,133.81681336361,1,0,0,1,0,0,12人,,１次避難所
高知県,幡多郡黒潮町,奥湊川老人憩いの家,高知県幡多郡黒潮町奥湊川3102,33.062431942927,133.02597165508,1,0,0,1,0,0,,,避難所
高知県,長岡郡本山町,吉野中学校,高知県長岡郡本山町吉野186,33.755574098048,133.55748847432,1,0,0,-,-,-,,,避難所
高知県,吾川郡いの町,レストランあおぎ,高知県吾川郡いの町勝賀瀬3192,33.576747072755,133.36533044046,1,0,0,1,0,0,,,避難所
高知県,香南市,菖蒲谷集会所,高知県香南市夜須町坪井1322-4,33.542104015081,133.75242814624,1,0,0,1,0,0,,,緊急避難場所
高知県,吾川郡仁淀川町,田村集会所,高知県吾川郡仁淀川町田村124,33.590551312164,133.15996341275,1,0,0,-,-,-,40人,,指定避難場所
高知県,香南市,西川公民館,高知県香南市香我美町口西川1689-4,33.596532804419,133.76883828922,1,0,0,-,-,-,,,緊急避難場所
高知県,高岡郡佐川町,健康センター和楽,高知県高岡郡佐川町甲1076-3,33.499830018048,133.29426476413,-,-,-,-,-,-,48人,,緊急避難場所
高知県,宿毛市,大島公民館,高知県宿毛市片島1番77号,32.916288960086,132.70386015079,1,0,0,-,-,-,128人,,指定避難所
高知県,土佐市,高知大学海洋生物教育研究センター,高知県土佐市宇佐町井尻194,33.438823769329,133.44296080953,1,0,0,-,-,-,81人,,避難所
高知県,高岡郡檮原町,神の山集会所（神の山高齢者合宿施設）,高知県高岡郡檮原町神の山325,33.446649167327,132.86080160524,1,0,0,1,0,0,,,避難所
高知県,安芸郡東洋町,甲浦東部長生会憩の家,高知県安芸郡東洋町甲浦19-4,33.549431851472,134.30284045721,1,0,0,-,-,-,,,避難所
高知県,高岡郡佐川町,松崎公民館,高知県高岡郡佐川町松崎,33.501931899854,133.28620031527,-,-,-,-,-,-,30人,,緊急避難場所
高知県,香南市,みどり野2丁目公民館,高知県香南市野市町みどり野2-3,33.563598108268,133.7146342089,1,0,0,-,-,-,,,緊急避難場所
高知県,高岡郡佐川町,文化センター,高知県高岡郡佐川町佐川町甲356-2,33.498793398822,133.3021195177,1,0,0,-,-,-,455人,,拠点避難所
高知県,安芸市,穴内小学校校庭,高知県安芸市穴内乙1674,33.51039118,133.86015910,0,1,1,1,1,1,1756人,（施設内）飲料水、食糧、毛布ほか,
高知県,南国市,白木谷小学校,高知県南国市白木谷761,33.62048158925,133.59420989177,1,0,0,1,0,0,225人,,緊急避難場所・避難所
高知県,吾川郡いの町,紙の博物館,高知県吾川郡いの町幸町110-1,33.547870716302,133.42337855448,1,0,0,1,0,0,,,避難所
高知県,吾川郡仁淀川町,旧久喜小学校運動場,高知県吾川郡仁淀川町久喜2748-3,33.564335863174,133.16331595186,1,0,0,-,-,-,,,指定避難場所
高知県,高岡郡日高村,暮月集会所,高知県高岡郡日高村下分1210,33.539595758408,133.3928879789,-,-,-,-,-,-,,,避難場所
高知県,安芸郡北川村,柏木交流センター,高知県安芸郡北川村大字柏木291,33.456386148024,134.05831000257,1,0,0,1,0,0,30人,,避難施設
高知県,香南市,岸本小学校,高知県香南市香我美町岸本30,33.542298258481,133.73385452135,1,0,0,1,0,0,,,緊急避難場所
高知県,幡多郡黒潮町,坂折集会所,高知県幡多郡黒潮町佐賀2560-6,33.084596235866,133.09666974602,1,0,0,1,0,0,,,避難所
高知県,高岡郡中土佐町,下ル川集落センター,高知県高岡郡中土佐町大野見下ル川1435,33.392886513794,133.15051348248,1,0,0,-,-,-,30人,,指定避難場所
高知県,安芸郡東洋町,野根地区公民館,高知県安芸郡東洋町野根丙1975,33.505080833816,134.26791670456,1,0,0,-,-,-,,,避難所
高知県,長岡郡大豊町,西峰公民館,高知県長岡郡大豊町西峰2403-2,33.808841036132,133.83060421853,1,0,0,1,0,0,,,避難所
高知県,吾川郡いの町,天理教伊野大教会,高知県吾川郡いの町元町3645,33.54865874864,133.42412846607,1,0,0,1,0,0,,,避難所
高知県,香美市,山田高等高校体育館,高知県香美市土佐山田町旭町3-1-3,33.604695266517,133.68918890777,1,0,0,1,0,0,,,避難場所
高知県,吾川郡いの町,寺野集会所,高知県吾川郡いの町上八川丙1183,33.651587717599,133.37152112321,1,0,0,1,0,0,,,避難所
高知県,幡多郡黒潮町,佐賀漁協,高知県幡多郡黒潮町佐賀381,33.077658537007,133.11048259934,1,0,0,-,-,-,,,避難所
高知県,高岡郡四万十町,家地川集会所,高知県高岡郡四万十町,33.162430060902,133.07857792303,1,0,0,-,-,-,,,１次避難所
高知県,土佐市,高知海洋高校,高知県土佐市宇佐町福島1-4,33.439262449025,133.43493656941,1,0,0,-,-,-,659人,,避難所
高知県,四万十市,井沢公園,高知県四万十市井沢,32.975716842889,132.96477317228,-,-,-,1,0,0,,,一時避難場所
高知県,香美市,黒代公会堂,高知県香美市物部町黒代295,33.737611554056,133.89322041829,1,0,0,-,-,-,,,避難場所
高知県,安芸郡東洋町,白浜自然休養村管理センター,高知県安芸郡東洋町白浜88-3,33.543343731875,134.29618839186,1,0,0,-,-,-,,,避難所
高知県,安芸郡北川村,北川小学校,高知県安芸郡北川村大字野友甲1545,33.447529928951,134.04169431929,1,0,0,1,0,0,300人,,避難施設
高知県,室戸市,羽根公民館,高知県室戸市羽根町乙1237、1242,33.365281652048,134.06023292644,1,0,0,-,-,-,385人,,避難所
高知県,香南市,元町集会所,高知県香南市香我美町岸本643-1,33.540667887957,133.7401990095,1,0,0,-,-,-,,,緊急避難場所
高知県,吾川郡仁淀川町,せいらん荘,高知県吾川郡仁淀川町,33.501425675375,133.13451129521,1,0,0,-,-,-,,,指定避難場所
高知県,宿毛市,貝礎老人憩の家,高知県宿毛市平田町戸内2344,32.961495010303,132.81480693746,1,0,0,1,0,1,37人,,指定避難所
高知県,高岡郡四万十町,口大道集会所,高知県高岡郡四万十町大道1256-3,33.267257534858,132.88031323899,1,0,0,1,0,0,,,１次避難所
高知県,香美市,安丸公会堂,高知県香美市物部町安丸1553,33.729445993578,133.89416170408,1,0,0,-,-,-,,,避難場所
高知県,長岡郡本山町,北山東公民館,高知県長岡郡本山町北山甲610-2,33.774667940257,133.60104882245,1,0,0,1,0,0,,,避難所
高知県,高岡郡四万十町,飯ノ川集会所,高知県高岡郡四万十町,33.235464398796,133.20772034281,1,0,0,-,-,-,,,１次避難所
高知県,高岡郡檮原町,下組集会所（下組高齢者合宿施設）,高知県高岡郡檮原町下組251,33.438682915633,132.87875483719,1,0,0,1,0,0,,,避難所
高知県,土佐市,船越公民館,高知県土佐市高岡町乙790-302,33.500412481339,133.40893213102,1,0,0,1,0,0,25人,,避難所
高知県,吾川郡仁淀川町,瓜生野集会所,高知県吾川郡仁淀川町用居丁440-1,33.636628351018,133.08844717343,1,0,0,-,-,-,1010人,,指定避難場所
高知県,高岡郡中土佐町,萩中集落センター,高知県高岡郡中土佐町大野見萩中1237,33.402556288337,133.1198670432,1,0,0,-,-,-,45人,,指定避難場所
高知県,安芸郡芸西村,下組集会所,高知県安芸郡芸西村和食甲1602,33.5203289336,133.81150549581,1,0,0,1,0,0,14人,,１次避難所
高知県,吾川郡いの町,中野川集会所,高知県吾川郡いの町中野川228-2,33.767639171676,133.28928344543,1,0,0,1,0,0,,,避難所
高知県,土佐市,波介小学校,高知県土佐市波介3346-3,33.478079224712,133.40235819743,1,0,0,1,0,0,272人,,避難所
高知県,高岡郡檮原町,四万川交流センター,高知県高岡郡檮原町六丁152,33.428967431609,132.8759387661,1,0,0,1,0,0,,,避難所
高知県,香美市,さくら保育園,高知県香美市土佐山田町117-14,33.609866929742,133.69087192173,1,0,0,-,-,-,,,避難場所
高知県,高岡郡佐川町,二ッ野公民館,高知県高岡郡佐川町二ツ野,33.538105230002,133.30613306505,-,-,-,-,-,-,14人,,緊急避難場所
高知県,香南市,大岩集会所,高知県香南市香我美町下分2423-1,33.57519188733,133.76197583764,1,0,0,-,-,-,,,緊急避難場所
高知県,高岡郡日高村,日高中学校,高知県高岡郡日高村本郷3611,33.529294022229,133.36504480688,1,0,0,1,0,0,460人,,避難場所・避難所
高知県,安芸郡芸西村,瓜生谷コミュニティーセンター,高知県安芸郡芸西村馬ノ上3481-4,33.542776285738,133.81041885448,-,-,-,1,0,0,360人,,避難場所
高知県,高岡郡四万十町,社会福祉センター,高知県高岡郡四万十町,33.209409267612,133.13280069319,1,0,0,-,-,-,,,１次避難所
高知県,室戸市,羽根小学校,高知県室戸市羽根町乙3793-3,33.367787498144,134.0560854571,1,0,0,-,-,-,270人,,避難所
高知県,吾川郡いの町,三瀬中学校,高知県吾川郡いの町楠瀬54,33.56377325563,133.35517039973,1,0,0,1,0,0,,,避難所
高知県,宿毛市,沖の島小中学校,高知県宿毛市沖の島町母島445,32.738795059872,132.55552478666,1,0,0,1,0,0,468人,,指定避難所
高知県,吾川郡仁淀川町,中宮集会所,高知県吾川郡仁淀川町川渡中宮,33.526096520088,133.13698601193,1,0,0,-,-,-,,,指定避難場所
高知県,香美市,秦山公園（ふれあい広場）,高知県香美市土佐山田町植1252-2,33.612469808934,133.67965666333,-,-,-,-,-,-,,,避難場所
高知県,長岡郡大豊町,大久保消防屯所,高知県長岡郡大豊町大砂子12-1,33.819182049316,133.77690928321,1,0,0,-,-,-,,,避難所
高知県,幡多郡三原村,皆尾公会堂,高知県幡多郡三原村皆尾1351,32.89384133031,132.84812023823,1,0,0,-,-,-,,,避難所
高知県,高岡郡四万十町,興津地区防災拠点施設（興津保育所）,高知県高岡郡四万十町,33.176888775877,133.20160574793,-,-,-,0,0,1,,,津波避難広場
高知県,四万十市,口屋内小学校へき地集会室,高知県四万十市西土佐口屋内280-1,33.097215284532,132.79927950649,1,0,0,1,0,0,,,避難所
高知県,土佐郡土佐町,大谷集会所,高知県土佐郡土佐町土居120,33.739066532561,133.53301563044,1,0,0,1,0,0,,,避難所
高知県,安芸郡芸西村,土居藪,高知県安芸郡芸西村馬ノ上660-1,33.534162452538,133.816219072,-,-,-,1,0,0,333人,,避難場所
高知県,香美市,大栃中学校,高知県香美市物部町大栃1800-イ,33.701152785986,133.87843503051,1,0,0,1,0,0,,,避難場所
高知県,幡多郡黒潮町,田野浦多目的研修集会所,高知県幡多郡黒潮町田野浦2706-1,32.996152004669,133.0041240379,1,0,0,-,-,-,,,避難所
高知県,幡多郡黒潮町,伴太郎集会所,高知県幡多郡黒潮町蜷川3713-13,33.098804039888,133.05204009966,1,0,0,1,0,0,,,避難所
高知県,高岡郡四万十町,柳瀬集会所,高知県高岡郡四万十町,33.254772515346,133.13925053496,1,0,0,-,-,-,,,１次避難所
高知県,高岡郡佐川町,野添公民館,高知県高岡郡佐川町野添,33.47112387682,133.28657541396,-,-,-,-,-,-,28人,,緊急避難場所
高知県,四万十市,久保川集会所,高知県四万十市久保川,33.06859636803,132.8205558841,1,0,0,1,0,0,,,一時避難場所・施設
高知県,土佐市,高石小学校,高知県土佐市中島279,33.490975211374,133.44232335904,1,0,0,1,0,0,751人,,避難所
高知県,安芸郡東洋町,内田集会所,高知県安芸郡東洋町野根丙105-2,33.522645882433,134.24805275132,1,0,0,1,0,0,,,避難所
高知県,吾川郡いの町,椙本神社,高知県吾川郡いの町大国町143,33.550467653392,133.42097774918,1,0,0,1,0,0,,,避難所
高知県,安芸郡安田町,井ノ岡集会所,高知県安芸郡安田町大字東島3674-7,33.456193796169,133.99018578817,1,0,0,1,0,0,,,避難所
高知県,室戸市,菜生市民館,高知県室戸市室戸岬町5775,33.277801942755,134.15521831119,1,0,0,-,-,-,217人,,避難所
高知県,高岡郡四万十町,寺野集会所,高知県高岡郡四万十町,33.21541450048,133.08161765703,1,0,0,-,-,-,,,１次避難所
高知県,吾川郡仁淀川町,宮首集会所,高知県吾川郡仁淀川町長者丁宮首,33.514758098147,133.13602366962,1,0,0,-,-,-,,,指定避難場所
高知県,香南市,天理教夜須分教会,高知県香南市夜須町坪井440-1,33.536888000532,133.75230339673,1,0,0,-,-,-,,,緊急避難場所
高知県,吾川郡いの町,天神集会所,高知県吾川郡いの町42061,33.543129484273,133.42793268291,1,0,0,1,0,0,,,避難所
高知県,土佐清水市,旧藤ノ川分校,高知県土佐清水市宗呂甲229,32.798491536472,132.77629215676,1,0,0,1,0,0,,,避難所
高知県,高岡郡四万十町,四万十町東又地区基幹集落センター,高知県高岡郡四万十町本堂791,33.223263127706,133.18745947162,1,0,0,1,0,0,,,避難所
高知県,須崎市,大谷漁協,高知県須崎市大谷235-52,33.383877192772,133.31831151418,1,0,0,-,-,-,,,避難所
高知県,高岡郡檮原町,横貝集会所,高知県高岡郡檮原町横貝148,33.438962209862,132.98096106395,1,0,0,1,0,0,,,避難所
高知県,高岡郡四万十町,志和浦地区避難広場(2)（薬師寺横）,高知県高岡郡四万十町,33.23275561121,133.24729380912,-,-,-,0,0,1,,,津波避難広場
高知県,土佐清水市,旧松山分校教員住宅,高知県土佐清水市貝ノ川4308(松山),32.795302941475,132.798673284,1,0,0,1,0,0,,,避難所
高知県,高岡郡中土佐町,竹原体育館,高知県高岡郡中土佐町大野見竹原689,33.330545237361,133.10619810782,1,0,0,1,0,0,200人,,指定避難場所・広域避難場所
高知県,室戸市,吉良川中学校,高知県室戸市吉良川町乙2000,33.33732637877,134.09582197728,1,0,0,-,-,-,267人,,避難所
高知県,土佐清水市,松尾公会堂,高知県土佐清水市松尾209-14,32.733415799396,132.9842420056,1,0,0,1,0,0,,,避難所
高知県,土佐清水市,清水中学校体育館,高知県土佐清水市浦尻4-1,32.785124620934,132.95821668122,1,0,0,-,-,-,,,避難所
高知県,吾川郡いの町,奈呂集会所,高知県吾川郡いの町神谷3715-5,33.552888919047,133.38893452808,1,0,0,1,0,0,,,避難所
高知県,吾川郡仁淀川町,大渡防災センター,高知県吾川郡仁淀川町,33.54180082935,133.12782112772,1,0,0,-,-,-,30人,,指定避難場所
高知県,吾川郡いの町,旧町田工業倉庫,高知県吾川郡いの町鹿敷523-1,33.568003551444,133.36708312938,1,0,0,1,0,0,,,避難所
高知県,南国市,岡豊保育所,高知県南国市岡豊町八幡978-1,33.595371264158,133.62587235872,1,0,0,1,0,0,226人,,緊急避難場所・避難所
高知県,高岡郡四万十町,秋丸集会所,高知県高岡郡四万十町,33.184218718101,133.07422494424,1,0,0,-,-,-,,,１次避難所
高知県,安芸郡安田町,薬師第一集会所,高知県安芸郡安田町大字安田2752-52,33.43849556166,133.97554911821,1,0,0,-,-,-,,,避難所
高知県,高岡郡日高村,宮ノ谷集会所,高知県高岡郡日高村宮ノ谷577-1,33.557053923876,133.33033685173,-,-,-,-,-,-,,,避難場所
高知県,安芸郡北川村,北川村社会体育館,高知県安芸郡北川村大字野友甲1565-1,33.447677121623,134.04109988308,1,0,0,-,-,-,,,避難施設
高知県,安芸市,森澤病院,高知県安芸市本町2丁目13-32,33.49866865,133.90855774,0,1,0,1,0,1,900人,,
高知県,幡多郡黒潮町,旧上川口保育所,高知県幡多郡黒潮町上川口564-2,33.041521658236,133.0579720649,1,0,0,-,-,-,,,避難所
高知県,南国市,里保育所,高知県南国市里改田1026,33.546962262861,133.64125120088,1,0,0,1,0,0,165人,,緊急避難場所・避難所
高知県,安芸郡芸西村,西分八王子神社前,高知県安芸郡芸西村西分甲672,33.532944723494,133.80548262143,-,-,-,1,0,0,666人,,避難場所
高知県,香南市,香我美市民館,高知県香南市香我美町徳王子2220-1,33.560418235518,133.7372815055,1,0,0,-,-,-,,,緊急避難場所
高知県,安芸郡芸西村,郷西集会所,高知県安芸郡芸西村西分甲1145,33.528813225534,133.80113955782,1,0,0,1,0,0,40人,,１次避難所
高知県,四万十市,下田小学校体育館,高知県四万十市下田1542,32.944697603769,132.98707708161,1,0,0,1,0,0,,,一時避難場所・施設
高知県,長岡郡本山町,瓜生野公民館,高知県長岡郡本山町瓜生野544-1,33.802297268061,133.55839115686,1,0,0,1,0,0,,,避難所
高知県,吾川郡仁淀川町,下北川集会所,高知県吾川郡仁淀川町下北川15,33.570155418649,133.12121844136,1,0,0,-,-,-,50人,,指定避難場所
高知県,安芸郡芸西村,長谷集会所前,高知県安芸郡芸西村西分甲2196-1,33.521039640278,133.78894543442,-,-,-,1,0,0,613人,,避難場所
高知県,香南市,岡公民館,高知県香南市香我美町上分883-1,33.565467888081,133.75199679215,1,0,0,-,-,-,,,緊急避難場所
高知県,安芸郡安田町,西島老人里の家,高知県安芸郡安田町大字西島392,33.446641808964,133.98327955293,1,0,0,1,0,0,,,避難所
高知県,安芸郡安田町,中村西集会所,高知県安芸郡安田町大字東島868-2,33.449032794814,133.98653157624,1,0,0,1,0,0,,,避難所
高知県,高岡郡四万十町,興津町民館,高知県高岡郡四万十町興津,33.161472608938,133.20859860652,1,0,0,-,-,-,,,１次避難所
高知県,土佐市,中央公民館、市民会館,高知県土佐市高岡町乙3451-1,33.49899054344,133.42731634738,1,0,0,1,0,0,853人,,避難所
高知県,安芸郡奈半利町,奈半利町民会館,高知県安芸郡奈半利町乙1297-2,33.424002815678,134.01963319672,1,0,0,1,0,0,180人,,避難所
高知県,安芸郡北川村,北川村民会館,高知県安芸郡北川村大字野友甲618,33.446655125533,134.03803087525,1,0,0,1,0,0,200人,,避難施設
高知県,高岡郡檮原町,坪野田集会所,高知県高岡郡檮原町坪野田209,33.441787575793,132.84784408649,1,0,0,1,0,0,,,避難所
高知県,安芸郡北川村,小島集会所,高知県安芸郡北川村大字小島96-1,33.497186602659,134.0998519871,1,0,0,1,0,0,100人,,避難施設
高知県,幡多郡大月町,旧柏島小学校体育館,高知県幡多郡大月町柏島297,32.77160031398,132.62476791593,1,0,0,1,0,0,,,避難所
高知県,安芸市,伊尾木保育所園庭,高知県安芸市伊尾木818,33.49396427,133.93057993,0,1,1,1,1,1,1242人,（施設内）飲料水、食糧、毛布ほか,
高知県,高岡郡日高村,鍛冶屋集会所,高知県高岡郡日高村下分3866-1,33.537323688856,133.38002159567,-,-,-,-,-,-,,,避難場所
高知県,吾川郡いの町,葛原集会所,高知県吾川郡いの町葛原10-1,33.774950297106,133.32552197515,1,0,0,1,0,0,,,避難所
高知県,安芸郡北川村,久木体育館,高知県安芸郡北川村,33.57648512661,134.10428010356,1,0,0,-,-,-,50人,,避難施設
高知県,宿毛市,大島小学校,高知県宿毛市片島5番54号,32.919134138959,132.70095925699,1,0,0,-,-,-,1047人,,指定避難所
高知県,高岡郡越知町,柴尾集会所,高知県高岡郡越知町柴尾,33.541680855009,133.26166106018,1,0,0,-,-,-,30人,,一時避難所
高知県,南国市,大篠小学校,高知県南国市大そね甲2073,33.570696407752,133.64349973873,1,0,0,1,0,0,404人,,緊急避難場所・避難所
高知県,四万十市,ふれあい会館,高知県四万十市古津賀,32.98516521815,132.95321670381,1,0,0,1,0,0,,,一時避難場所・施設
高知県,高岡郡四万十町,川口小学校,高知県高岡郡四万十町南川口108,33.2001530459,133.08182496539,1,0,0,1,0,0,,,避難所
高知県,土佐清水市,中央公民館,高知県土佐清水市幸町4-12,32.780588211394,132.95292497963,1,0,0,-,-,-,,,避難所
高知県,土佐清水市,松崎福祉センター,高知県土佐清水市加久見1466-42,32.786633092153,132.91836536074,1,0,0,-,-,-,,,避難所
高知県,須崎市,安和小学校,高知県須崎市安和206,33.369503115249,133.25619544371,1,0,0,-,-,-,,,避難所
高知県,吾川郡仁淀川町,旧長渕小学校庭,高知県吾川郡仁淀川町大尾,33.545773164718,133.09574754423,1,0,0,-,-,-,,,指定避難場所
高知県,高岡郡佐川町,黒岩小学校,高知県高岡郡佐川町黒原482,33.546179648138,133.27955150076,1,0,0,1,0,0,206人,,拠点避難所
高知県,土佐清水市,下ノ加江市民センター,高知県土佐清水市下ノ加江240-5,32.867100439273,132.95433067923,1,0,0,-,-,-,,,避難所
高知県,長岡郡本山町,大石公民館,高知県長岡郡本山町大石355,33.747918910018,133.59885286787,1,0,0,1,0,0,,,避難所
高知県,高岡郡越知町,後山複合集会所,高知県高岡郡越知町後山,33.545654353811,133.24036301368,1,0,0,-,-,-,40人,,一時避難所
高知県,幡多郡黒潮町,大方町民館,高知県幡多郡黒潮町入野833-1,33.018497274021,133.00815311356,1,0,0,-,-,-,,,避難所
高知県,香南市,赤岡中学校,高知県香南市赤岡町1611,33.546200541536,133.72284752284,1,0,0,1,0,0,,,緊急避難場所
高知県,吾川郡いの町,住吉神社,高知県吾川郡いの町勝賀瀬西の谷,33.578043670396,133.35360737679,1,0,0,1,0,0,,,避難所
高知県,四万十市,奥屋内小学校へき地集会室,高知県四万十市西土佐奥屋内955-1,33.111673796224,132.7068202493,1,0,0,1,0,0,,,避難所
高知県,安芸郡田野町,大野地区集会所,高知県安芸郡田野町,33.433372259899,133.9948766889,1,0,0,1,0,1,,,避難所
高知県,土佐郡土佐町,さめうら町民体育館,高知県土佐郡土佐町田井182,33.750055021804,133.54315520128,1,0,0,1,0,0,,,避難所
高知県,吾川郡仁淀川町,消防用居分団屯所,高知県吾川郡仁淀川町用居甲399,33.640823260976,133.12698140603,1,0,0,-,-,-,15人,,指定避難場所
高知県,高岡郡日高村,岩目地東部集会所,高知県高岡郡日高村岩目地419-2,33.526124420934,133.33423676323,-,-,-,-,-,-,,,避難場所
高知県,安芸郡東洋町,白浜地区第1防災避難タワー,高知県安芸郡東洋町白浜69-4,33.544240807219,134.29298318844,-,-,-,-,-,-,,,一時避難場所
高知県,高岡郡四万十町,四万十町影野町民会館,高知県高岡郡四万十町影野661-1,33.275370555511,133.17180767678,1,0,0,1,0,0,,,避難所
高知県,高岡郡佐川町,原公民館,高知県高岡郡佐川町原,33.544235841791,133.28528109856,-,-,-,-,-,-,24人,,緊急避難場所
高知県,安芸市,畑山公民館広場,高知県安芸市畑山乙381,33.62225341,133.92428281,0,1,1,1,1,1,1818人,（施設内）飲料水、食糧、毛布ほか※予定,
高知県,安芸郡芸西村,井ノ上集会所前,高知県安芸郡芸西村馬ノ上833,33.53197728962,133.81403493428,-,-,-,1,0,0,133人,,避難場所
高知県,南国市,後免野田保育園,高知県南国市西野田町2-5-18,33.576937194993,133.64942846229,1,0,0,1,0,0,245人,,緊急避難場所・避難所
高知県,香南市,平井西公民館,高知県香南市野市町東野1895,33.551061011695,133.71341760264,1,0,0,-,-,-,,,緊急避難場所
高知県,安芸郡安田町,日浦集会所,高知県安芸郡安田町大字正弘1386,33.489162664793,134.00166365445,1,0,0,1,0,0,,,避難所
高知県,香南市,下分公民館,高知県香南市野市町東佐古45-1,33.589574117812,133.70774826295,1,0,0,-,-,-,,,緊急避難場所
高知県,高岡郡越知町,栗ノ木集会所,高知県高岡郡越知町栗ノ木,33.563668135684,133.22586707382,1,0,0,-,-,-,10人,,一時避難所
高知県,吾川郡いの町,伊野商業高等学校,高知県吾川郡いの町枝川332-1,33.551355640411,133.4457484584,1,0,0,1,0,0,,,避難所
高知県,香南市,東中筋南公民館,高知県香南市野市町西野2392-2,33.555221432195,133.7015214179,1,0,0,-,-,-,,,緊急避難場所
高知県,安芸郡東洋町,中島地区集会所,高知県安芸郡東洋町野根丙846-1,33.511733925858,134.25352340131,1,0,0,1,0,0,,,避難所
高知県,安芸市,NTT西日本安芸電話交換所,高知県安芸市寿町3-32,33.49899630,133.90377203,0,1,0,1,0,1,100人,,
高知県,安芸郡芸西村,馬ノ上ふれあいセンター,高知県安芸郡芸西村馬ノ上1201-3,33.532341187943,133.8111468905,1,0,0,1,0,0,133人,,避難場所・１次避難所
高知県,高岡郡日高村,日高村社会福祉センター,高知県高岡郡日高村沖名5,33.532010404222,133.37506902728,1,0,0,1,0,0,300人,,避難場所・避難所
高知県,土佐清水市,足摺岬小学校,高知県土佐清水市足摺岬579-1,32.725075988651,133.01075075822,1,0,0,1,0,0,,,避難所
高知県,高岡郡越知町,越知町民会館,高知県高岡郡越知町越知甲2562,33.526794808949,133.25341506241,1,0,0,1,0,0,,,拠点避難所
高知県,高岡郡四万十町,川ノ内集会所,高知県高岡郡四万十町江師795-130,33.219670770994,132.98629644337,1,0,0,-,-,-,,,１次避難所
高知県,吾川郡仁淀川町,中央公民館,高知県吾川郡仁淀川町大崎460-1,33.574289476576,133.16774897738,1,0,0,-,-,-,250人,,指定避難場所
高知県,高岡郡四万十町,避難タワー4号塔（多目的集会所付近）,高知県高岡郡四万十町,33.170423431458,133.20446095216,-,-,-,0,0,1,,,津波避難広場
高知県,土佐清水市,窪津小学校校,高知県土佐清水市窪津1421,32.780816507827,133.00153060194,1,0,0,1,0,0,,,避難所
高知県,安芸郡芸西村,芸西郵便局前,高知県安芸郡芸西村和食甲1583-1,33.519792721001,133.81013894173,-,-,-,1,0,0,633人,,避難場所
高知県,高岡郡四万十町,四万十高校,高知県高岡郡四万十町大正590-1,33.196242691977,132.97434262398,1,0,0,1,0,0,,,避難所
高知県,長岡郡大豊町,戸手野交流庵,高知県長岡郡大豊町戸手野1387,33.687185327517,133.69099402601,1,0,0,-,-,-,,,避難所
高知県,高岡郡四万十町,土居集会所,高知県高岡郡四万十町,33.240739018088,133.19328762529,1,0,0,-,-,-,,,１次避難所
高知県,宿毛市,橋上中学校,高知県宿毛市橋上町奥奈路103,32.984976235385,132.76537840412,1,0,0,1,0,0,779人,,指定避難所
高知県,須崎市,新荘小学校,高知県須崎市下分甲584-1,33.392217795243,133.26927399105,1,0,0,-,-,-,,,避難所
高知県,香南市,香我美高齢者生活福祉センター,高知県香南市香我美町下分2645-1,33.572061172365,133.74100369255,1,0,0,1,0,0,,,緊急避難場所
高知県,吾川郡仁淀川町,旧別枝小学校グラウンド,高知県吾川郡仁淀川町,33.513563531444,133.05322263823,-,-,-,1,0,0,,,指定避難場所
高知県,安芸郡芸西村,極楽・白髪集会所,高知県安芸郡芸西村和食甲5812-8,33.523303943876,133.81797699812,1,0,0,1,0,0,9人,,１次避難所
高知県,高岡郡津野町,新土居健康管理センター,高知県高岡郡津野町新土居400-2,33.433640231207,133.22999186838,1,0,0,-,-,-,,,避難所
高知県,吾川郡いの町,高薮二区集会所,高知県吾川郡いの町高薮224-23,33.782691559241,133.34926413607,1,0,0,1,0,0,,,避難所
高知県,高岡郡四万十町,浦分地区避難広場(1),高知県高岡郡四万十町興津,33.16557485306,133.21269136099,-,-,-,1,0,1,,,津波避難広場
高知県,安芸郡東洋町,別役集会所,高知県安芸郡東洋町野根丁222-8,33.494223313341,134.23697578141,1,0,0,1,0,0,,,避難所
高知県,安芸郡安田町,北大野工業団地,高知県安芸郡安田町大字安田,33.441326931443,133.98886575056,-,-,-,-,-,-,,,指定広域避難場所
高知県,香南市,住吉高台,高知県香南市夜須町手結山1616-1北歩道,33.521428752535,133.76483806719,1,0,0,-,-,-,,,緊急避難場所
高知県,吾川郡いの町,下八川小学校体育館,高知県吾川郡いの町下八川丁3800,33.606236486248,133.29698314609,1,0,0,1,0,0,,,避難所
高知県,高岡郡四万十町,広瀬集会所,高知県高岡郡四万十町広瀬582-1,33.209601649372,132.84919121295,1,0,0,1,0,0,,,避難所
高知県,南国市,岡豊高等学校,高知県南国市岡豊町中島511-1,33.581816479644,133.61121226516,1,0,0,1,0,1,780人,,津波避難ビル・緊急避難場所・指定避難所
高知県,高岡郡中土佐町,大北集会場,高知県高岡郡中土佐町久礼3954,33.346882364497,133.20773494853,1,0,0,-,-,-,81人,,指定避難場所
高知県,四万十市,手洗川集会所,高知県四万十市手洗川,33.019911966268,132.84644244619,-,-,-,1,0,0,,,一時避難場所
高知県,高岡郡日高村,西部福祉館,高知県高岡郡日高村本郷3492-3,33.528441294793,133.36233954285,-,-,-,1,0,0,,,避難場所
高知県,高岡郡檮原町,旧四万川東小学校校庭,高知県高岡郡檮原町下組251,33.438636024702,132.87892292238,1,0,0,1,0,0,,,避難所
高知県,香南市,東川公民館,高知県香南市香我美町末清195,33.590887748426,133.79460236655,1,0,0,1,0,0,,,緊急避難場所
高知県,土佐清水市,布小学校,高知県土佐清水市布1810-1,32.869408665978,132.98244104655,1,0,0,-,-,-,,,避難所
高知県,四万十市,利岡小学校,高知県四万十市利岡,33.021996923238,132.90488298884,1,0,0,1,0,0,,,一時避難場所・施設
高知県,安芸郡安田町,東谷集会所,高知県安芸郡安田町大字唐浜1131,33.445712139151,133.97009883421,1,0,0,1,0,0,,,避難所
高知県,四万十市,中村中学校体育館,高知県四万十市中村東町2-1-30,32.995844676435,132.93719852059,1,0,0,1,0,0,,,一時避難場所
高知県,香南市,老人憩の家白岩荘,高知県香南市野市町東佐古727-2,33.584777735996,133.71118425,1,0,0,1,0,0,,,緊急避難場所
高知県,吾川郡いの町,柳瀬複合集会所,高知県吾川郡いの町柳瀬本村929-1,33.562703447199,133.33571122475,1,0,0,1,0,0,,,避難所
高知県,須崎市,桑田山消防コミュニティセンター,高知県須崎市桑田山乙665番5,33.435617573464,133.27996291149,1,0,0,1,0,1,,,避難所
高知県,香美市,香北武道館,高知県香美市香北町美良布908-1,33.65192459654,133.78015921653,1,0,0,1,0,0,,,避難場所
高知県,長岡郡本山町,下関公民館,高知県長岡郡本山町下関203-1,33.768074771782,133.62154190918,1,0,0,1,0,0,,,避難所
高知県,吾川郡いの町,枝川コミュニティセンター,高知県吾川郡いの町枝川2462,33.552743717915,133.45660870253,1,0,0,1,0,0,,,避難所
高知県,幡多郡黒潮町,旧上田の口保育所,高知県幡多郡黒潮町上田の口107,33.010278011184,132.98617499719,1,0,0,-,-,-,,,避難所
高知県,香南市,坪井集会所,高知県香南市夜須町坪井1044-1,33.537918364785,133.75165345243,1,0,0,1,0,0,,,緊急避難場所
高知県,香南市,手結会館,高知県香南市夜須町手結282,33.5283225091,133.75716107722,1,0,0,-,-,-,,,緊急避難場所
高知県,高岡郡日高村,中村集会所,高知県高岡郡日高村下分6376-2,33.543509212839,133.38811284859,-,-,-,-,-,-,,,避難場所
高知県,香南市,香南市夜須福祉センター,高知県香南市夜須町坪井16-1,33.537457447837,133.75602498688,1,0,0,1,0,0,,,緊急避難場所
高知県,宿毛市,片島公民館,高知県宿毛市片島1番77号,32.924736241599,132.70230325486,1,0,0,-,-,-,217人,,指定避難所
高知県,土佐郡土佐町,田井多目的集会施設,高知県土佐郡土佐町田井1377-16,33.74592120868,133.55810888425,1,0,0,1,0,0,,,避難所
高知県,高岡郡越知町,中村集会所,高知県高岡郡越知町17区1,33.557047411362,133.20292053228,1,0,0,-,-,-,30人,,一時避難所
高知県,安芸郡安田町,唐浜集会所,高知県安芸郡安田町大字唐浜815,33.442436691719,133.96601247018,1,0,0,-,-,-,,,避難所
高知県,吾川郡いの町,駅南老人里の家,高知県吾川郡いの町1407-1,33.546325626994,133.43132787802,1,0,0,1,0,0,,,避難所
高知県,幡多郡黒潮町,伊与喜小学校,高知県幡多郡黒潮町伊与喜78,33.105230788523,133.10021295723,1,0,0,1,0,0,,,避難所
高知県,高岡郡日高村,光岩集会所,高知県高岡郡日高村下分1999-2,33.542370639038,133.40079552849,-,-,-,-,-,-,,,避難場所
高知県,安芸郡北川村,北川村役場庁舎,高知県安芸郡北川村,33.447874276327,134.04201646844,1,0,0,-,-,-,50人,,避難施設
高知県,土佐清水市,旧出合小学校,高知県土佐清水市宗呂丙83-1,32.827820051182,132.7967455195,1,0,0,1,0,0,,,避難所
高知県,高岡郡四万十町,大正体育館,高知県高岡郡四万十町大正291,33.195751177908,132.97695354571,1,0,0,1,0,0,,,避難所
高知県,香南市,吉川小学校,高知県香南市吉川町吉原70,33.543366574429,133.70003969493,1,0,0,1,0,0,,,緊急避難場所
高知県,土佐郡土佐町,峰石原集会所,高知県土佐郡土佐町東石原2140-1,33.695347517533,133.45170102751,1,0,0,1,0,0,,,避難所
高知県,高岡郡四万十町,井細の郷里檜生原,高知県高岡郡四万十町,33.232384532086,133.06819286841,1,0,0,-,-,-,,,１次避難所
高知県,高岡郡四万十町,見付町民館,高知県高岡郡四万十町,33.20659875133,133.14852724167,1,0,0,-,-,-,,,１次避難所
高知県,高岡郡四万十町,小室地区避難広場(2),高知県高岡郡四万十町興津,33.161939574301,133.21010452943,-,-,-,1,0,1,,,津波避難広場
高知県,高岡郡檮原町,雲の上清流苑（飯母集会所）,高知県高岡郡檮原町飯母3045,33.38726904309,132.92522692586,1,0,0,1,0,0,,,避難所
高知県,高岡郡四万十町,興津中央集会所,高知県高岡郡四万十町,33.166684332702,133.20965891551,1,0,0,-,-,-,,,１次避難所
高知県,高岡郡四万十町,仁井田小学校,高知県高岡郡四万十町仁井田1920,33.24575436768,133.16056441481,1,0,0,1,0,0,,,避難所
高知県,高岡郡四万十町,四万十町デイサービスセンター緑林荘,高知県高岡郡四万十町仕出原496-1,33.222425861639,133.1252106583,1,0,0,1,0,0,,,避難所
高知県,四万十市,中村南小学校体育館,高知県四万十市不破上町1949,32.986092707157,132.93540190504,1,0,0,1,0,0,,,一時避難場所・施設
高知県,高岡郡檮原町,若人交流館,高知県高岡郡檮原町川西路2100,33.392856100592,132.92117950903,1,0,0,1,0,0,,,避難所
高知県,吾川郡いの町,中追小学校,高知県吾川郡いの町中追2929,33.609298418756,133.37651810512,1,0,0,1,0,0,,,避難所
高知県,幡多郡黒潮町,緑野集会所,高知県幡多郡黒潮町下田の口822-142,33.017688611192,132.99697083505,1,0,0,1,0,0,,,避難所
高知県,高岡郡檮原町,初瀬本村集会所（初瀬高齢者合宿施設）,高知県高岡郡檮原町初瀬本村111,33.36003347795,132.95272529349,1,0,0,1,0,0,,,避難所
高知県,安芸郡安田町,唐浜東集会所,高知県安芸郡安田町大字唐浜2376-1,33.441164386479,133.96927280075,-,-,-,-,-,-,,,指定広域避難場所
高知県,吾川郡仁淀川町,大渡ダム公園運動広場,高知県吾川郡仁淀川町高瀬3869,33.542531176636,133.11432259721,1,0,0,-,-,-,,,指定避難場所
高知県,高岡郡越知町,横畠西部老人里の家,高知県高岡郡越知町薬師堂,33.5664486644,133.22777304069,1,0,0,-,-,-,20人,,一時避難所
高知県,高岡郡四万十町,六反地老人里の家,高知県高岡郡四万十町,33.258360854297,133.16644603016,1,0,0,-,-,-,,,１次避難所
高知県,高岡郡檮原町,上成集会所,高知県高岡郡檮原町上成1213,33.415991316758,132.88195800442,1,0,0,1,0,0,,,避難所
高知県,高岡郡四万十町,七里集会所,高知県高岡郡四万十町,33.260123915546,133.12166089985,1,0,0,-,-,-,,,１次避難所
高知県,吾川郡いの町,高知県中部教育事務所,高知県吾川郡いの町枝川2410-7,33.552858758508,133.45801719279,1,0,0,1,0,0,,,避難所
高知県,土佐郡土佐町,南境集会所,高知県土佐郡土佐町境60-1,33.738993684677,133.53958255642,1,0,0,1,0,0,,,避難所
高知県,土佐郡土佐町,相川町民体育館,高知県土佐郡土佐町高須305,33.712574173856,133.52353409016,1,0,0,1,0,0,,,避難所
高知県,香美市,香北体育センター,高知県香美市香北町吉野1188,33.654274837803,133.8064480802,1,0,0,1,0,0,,,避難場所
高知県,吾川郡いの町,伊野公民館,高知県吾川郡いの町3597,33.548762095936,133.42608013233,1,0,0,1,0,0,,,避難所
高知県,安芸郡安田町,安田保育所,高知県安芸郡安田町大字西島2-1,33.442268183429,133.98365928468,1,0,0,1,0,0,,,避難所
高知県,安芸郡奈半利町,加領郷漁民センター,高知県安芸郡奈半利町甲84-12,33.383655086609,134.03757192297,1,0,0,1,0,0,110人,,避難所
高知県,高岡郡佐川町,茅ヶ森集会所,高知県高岡郡佐川町永野2618-1,33.493801884098,133.30839426115,1,0,0,-,-,-,,,拠点避難所
高知県,高岡郡津野町,葉山中学校,高知県高岡郡津野町白石丙155,33.445837973074,133.18635932959,1,0,0,1,0,0,,,２次避難所
高知県,長岡郡本山町,本山町プラチナセンター,高知県長岡郡本山町本山569-1,33.759039438773,133.58935580961,1,0,0,1,0,0,,,避難所
高知県,安芸郡東洋町,河内老人憩の家,高知県安芸郡東洋町河内1071-1,33.543421406279,134.29026956969,1,0,0,-,-,-,,,避難所
高知県,高岡郡四万十町,小室地区避難広場(1),高知県高岡郡四万十町興津,33.16506849119,133.21008252603,-,-,-,1,0,1,,,津波避難広場
高知県,吾川郡いの町,大八十集会所,高知県吾川郡いの町大内310-2,33.536422058239,133.42559764233,1,0,0,1,0,0,,,避難所
高知県,高岡郡中土佐町,大川内集会所,高知県高岡郡中土佐町上ノ加江5558,33.277955426497,133.23300193061,1,0,0,-,-,-,25人,,指定避難場所
高知県,四万十市,（旧）権谷小学校へき地集会室,高知県四万十市西土佐江川2940,33.233055356506,132.78948898271,1,0,0,1,0,0,,,避難所
高知県,宿毛市,山里の家,高知県宿毛市橋上町楠山41-1,33.038943703916,132.6996150684,1,0,0,1,0,0,288人,,指定避難所
高知県,香美市,山田小学校,高知県香美市土佐山田町西本町2-4-5,33.605983878105,133.68319914451,1,0,0,1,0,0,,,避難場所
高知県,高岡郡佐川町,上郷公民館,高知県高岡郡佐川町上郷,33.501380749078,133.29966609629,-,-,-,-,-,-,42人,,緊急避難場所
高知県,南国市,瓶岩体育館,高知県南国市亀岩166,33.630676860677,133.63412148836,1,0,0,1,0,0,195人,,避難所
高知県,南国市,スポーツセンター,高知県南国市前浜1344-3,33.540347344764,133.6548502205,1,0,0,1,0,0,1297人,,緊急避難場所・避難所
高知県,高岡郡越知町,黒石小学校,高知県高岡郡越知町鎌井田本村6082,33.574979978634,133.24492534095,1,0,0,1,0,0,,,拠点避難所
高知県,香南市,国兼公民館,高知県香南市香我美町口西川439,33.588115199581,133.75766486384,1,0,0,-,-,-,,,緊急避難場所
高知県,四万十市,五月公園,高知県四万十市右山五月町,32.988321767035,132.93981786022,-,-,-,1,0,0,,,一時避難場所
高知県,安芸郡東洋町,大斗集会所,高知県安芸郡東洋町野根乙2318,33.539670095966,134.24756678051,1,0,0,1,0,0,,,避難所
高知県,宿毛市,幡多希望の家,高知県宿毛市平田町中山867,32.961024103706,132.78168579426,-,-,-,1,0,1,50人,,福祉避難所
高知県,室戸市,室戸岬小学校,高知県室戸市室戸岬町4414-1,33.262076386555,134.16883345901,1,0,0,1,0,1,,,津波緊急避難場所・避難所
高知県,高岡郡佐川町,馬の原公民館,高知県高岡郡佐川町乙4634,33.52476207491,133.28679369373,-,-,-,-,-,-,19人,,緊急避難場所
高知県,高岡郡四万十町,数家老人憩いの家,高知県高岡郡四万十町,33.226184724679,133.17354117046,1,0,0,-,-,-,,,１次避難所
高知県,土佐市,土佐市役所,高知県土佐市高岡町甲2017-1,33.496049315413,133.42529708399,1,0,0,1,0,0,170人,,避難所
高知県,香美市,大栃区長事務所,高知県香美市物部町大栃,33.699551088532,133.87565420092,1,0,0,-,-,-,,,避難場所
高知県,高岡郡四万十町,四万十町仁井田町民会館,高知県高岡郡四万十町仁井田763-1,33.246098839526,133.16099776491,1,0,0,1,0,0,,,避難所
高知県,長岡郡大豊町,豊永保育所,高知県長岡郡大豊町東土居237-3,33.795187383198,133.75842682334,1,0,0,1,0,0,,,避難所
高知県,香南市,包石奥谷集会所,高知県香南市香我美町口西川79,33.58789842816,133.75462655339,1,0,0,-,-,-,,,緊急避難場所
高知県,安芸郡馬路村,金林寺,高知県安芸郡馬路村大字馬路4281,33.550477770459,134.04672211308,1,0,0,1,0,0,,,避難所
高知県,土佐市,戸波中学校,高知県土佐市家俊1074,33.46256410317,133.34794125862,1,0,0,1,0,0,420人,,避難所
高知県,四万十市,中村高等学校体育館,高知県四万十市中村丸の内24,32.998141608683,132.93240710872,1,0,0,1,0,0,,,一時避難場所
高知県,安芸市,オーシャンプラザ,高知県安芸市矢ノ丸3丁目12-30,33.50300976,133.91088525,0,1,0,1,0,1,160人,,
高知県,香南市,西上野公民館,高知県香南市野市町西野854-1,33.57534579548,133.69433862488,1,0,0,-,-,-,,,緊急避難場所
高知県,香美市,平井公会堂,高知県香美市物部町柳瀬1359、1360,33.720644355557,133.8890369113,1,0,0,-,-,-,,,避難場所
高知県,長岡郡大豊町,大杉保育所,高知県長岡郡大豊町杉50-1,33.755091174646,133.66424684622,1,0,0,1,0,0,,,避難所
高知県,土佐市,戸波小学校,高知県土佐市家俊2478,33.462416759919,133.34507761309,1,0,0,1,0,0,800人,,避難所
高知県,高岡郡檮原町,仲間集会所,高知県高岡郡檮原町仲間72,33.374850117812,132.90114861683,1,0,0,1,0,0,,,避難所
高知県,安芸郡安田町,旧薬師団地跡地,高知県安芸郡安田町大字唐浜2273-1,33.440079561596,133.97489422401,-,-,-,1,0,0,,,指定広域避難場所
高知県,高岡郡佐川町,四ツ白太刀踊保存伝承館,高知県高岡郡佐川町四ツ白718-4,33.55031848134,133.31074113968,-,-,-,-,-,-,33人,,緊急避難場所
高知県,高岡郡中土佐町,槇野々集会所,高知県高岡郡中土佐町大野見槇野々245,33.341172631469,133.12175443942,1,0,0,-,-,-,50人,,指定避難場所
高知県,高岡郡中土佐町,矢井賀小学校体育館,高知県高岡郡中土佐町矢井賀甲435,33.244889210815,133.24192145405,1,0,0,-,-,-,190人,,指定避難場所・広域避難場所
高知県,高岡郡日高村,西田老人憩いの家,高知県高岡郡日高村下分1603-5,33.539076424572,133.39573799328,-,-,-,-,-,-,,,避難場所
高知県,土佐清水市,清水小学校,高知県土佐清水市幸町7-1,32.78201293728,132.95236672505,1,0,0,1,0,0,,,避難所
高知県,安芸郡安田町,中芸広域体育館,高知県安芸郡安田町大字東島2017,33.440633957159,134.00531800396,1,0,0,1,0,0,,,避難所
高知県,高岡郡中土佐町,神母野集落センター,高知県高岡郡中土佐町大野見神母野1025-1,33.366663943394,133.1333120844,1,0,0,-,-,-,50人,,指定避難場所
高知県,高岡郡日高村,梅ヶ坂集会所,高知県高岡郡日高村本郷1391-1,33.532690709458,133.35880363262,-,-,-,-,-,-,,,避難場所
高知県,須崎市,妙見山交流会館,高知県須崎市妙見町9-1,33.413965571297,133.29385124648,1,0,0,-,-,-,,,避難所
高知県,四万十市,森沢集会所,高知県四万十市森沢,32.969351779443,132.89960799396,1,0,0,1,0,0,,,一時避難場所・施設
高知県,高岡郡四万十町,四万十町小野農業構造改善センター,高知県高岡郡四万十町小野428-2,33.230872517772,132.87228110885,1,0,0,1,0,0,,,避難所
高知県,長岡郡本山町,本山町社会福祉センター,高知県長岡郡本山町本山1041,33.75285840577,133.5750239661,1,0,0,1,0,0,,,避難所
高知県,香南市,野市総合体育館,高知県香南市野市町大谷736,33.569266441256,133.70438247336,1,0,0,1,0,0,,,緊急避難場所
高知県,香南市,野市小学校,高知県香南市野市町西野618,33.563675575533,133.69721635796,1,0,0,1,0,0,,,緊急避難場所
高知県,吾川郡いの町,図書館,高知県吾川郡いの町元町41,33.549254007731,133.42502006128,1,0,0,1,0,0,,,避難所
高知県,長岡郡大豊町,川口南公会堂,高知県長岡郡大豊町川口2054-1,33.770923741759,133.65683781835,1,0,0,1,0,0,,,避難所
高知県,香南市,明神新町集会所,高知県香南市香我美町岸本217,33.540365082218,133.73185802887,1,0,0,-,-,-,,,緊急避難場所
高知県,吾川郡仁淀川町,長者複合集会施設,高知県吾川郡仁淀川町長者乙2502-4,33.501187103314,133.13444910681,1,0,0,-,-,-,,,指定避難場所
高知県,吾川郡仁淀川町,池川保健福祉センター,高知県吾川郡仁淀川町土居甲921-1,33.608266164123,133.1702367924,1,0,0,-,-,-,,,指定避難場所
高知県,高岡郡檮原町,井高集会所,高知県高岡郡檮原町井高309,33.456697898414,132.83954730887,1,0,0,1,0,0,,,避難所
高知県,吾川郡いの町,石見老人里の家,高知県吾川郡いの町柳瀬石見1209,33.569375768929,133.32816666124,1,0,0,1,0,0,,,避難所
高知県,安芸郡田野町,八王子宮,高知県安芸郡田野町,33.435538014234,134.01705889138,1,0,0,1,0,1,,,緊急避難場所・避難所
高知県,高岡郡四万十町,大保木集会所,高知県高岡郡四万十町,33.225205428708,132.88666548531,1,0,0,-,-,-,,,１次避難所
高知県,香南市,観音山,高知県香南市夜須町坪井1049,33.537705417661,133.75261881098,1,0,0,-,-,-,,,緊急避難場所
高知県,幡多郡黒潮町,旧伊田保育所,高知県幡多郡黒潮町伊田808,33.03558404321,133.07714290025,1,0,0,-,-,-,,,避難所
高知県,高岡郡越知町,堂林集会所,高知県高岡郡越知町堂林,33.488705113425,133.15171727056,1,0,0,-,-,-,20人,,一時避難所
高知県,吾川郡いの町,吾北小学校体育館,高知県吾川郡いの町小川西津賀才553,33.631030563971,133.28382843553,1,0,0,1,0,0,,,避難所
高知県,高岡郡四万十町,四手崎集会所,高知県高岡郡四万十町,33.202097188043,132.90670459149,1,0,0,-,-,-,,,１次避難所
高知県,安芸市,高知高須病院附属安芸診療所,高知県安芸市港町2丁目7-635,33.50091012,133.91340713,0,1,0,1,0,1,390人,,
高知県,四万十市,大川筋中学校体育館,高知県四万十市川登1106-10,33.030597651906,132.85339119768,1,0,0,1,0,0,,,一時避難場所・施設
高知県,高岡郡四万十町,中神の川公民館,高知県高岡郡四万十町,33.224948667625,133.09793224462,1,0,0,-,-,-,,,１次避難所
高知県,香美市,繁藤地区コミュニティセンター,高知県香美市土佐山田町繁藤3-1,33.679793722416,133.68561401801,1,0,0,1,0,0,,,避難場所
高知県,吾川郡いの町,高知ニュードライバー学院,高知県吾川郡いの町枝川282,33.553748844074,133.45013418183,1,0,0,1,0,0,,,避難所
高知県,高岡郡四万十町,避難タワー2号塔（沖ノ下）,高知県高岡郡四万十町,33.169461829201,133.20242320551,-,-,-,0,0,1,,,津波避難広場
高知県,香南市,母代寺東公民館,高知県香南市野市町母代寺394-21,33.579670074006,133.7061792709,1,0,0,-,-,-,,,緊急避難場所
高知県,土佐市,新居小学校,高知県土佐市新居1189-1,33.460104922973,133.46446668623,1,0,0,-,-,-,948人,,避難所
高知県,長岡郡大豊町,奥大田集会所,高知県長岡郡大豊町奥大田112,33.824772227565,133.72708653391,1,0,0,1,0,0,,,避難所
高知県,吾川郡いの町,青少年体育館,高知県吾川郡いの町八田1767,33.528006854532,133.44269582202,1,0,0,1,0,0,,,避難所
高知県,香美市,中央公民館,高知県香美市土佐山田町宝町2-1-27,33.604134487147,133.68466447882,1,0,0,1,0,0,,,避難場所
高知県,香美市,旧谷相小学校グラウンド,高知県香美市香北町谷相2478,33.673365944157,133.79559512902,-,-,-,-,-,-,,,避難場所
高知県,土佐市,JAとさし宇佐支所,高知県土佐市宇佐町宇佐1804,33.45197217851,133.44197740552,1,0,0,-,-,-,36人,,避難所
高知県,香南市,奈良公民館,高知県香南市香我美町奥西川乙3491,33.6161200109,133.82386119434,1,0,0,-,-,-,,,緊急避難場所
高知県,高岡郡四万十町,米奥集会所,高知県高岡郡四万十町米奥240-1,33.282734386403,133.1078846843,1,0,0,1,0,0,,,１次避難所
高知県,高岡郡檮原町,梼原小学校、中学校,高知県高岡郡檮原町川西路2370,33.391659067283,132.92215441056,1,0,0,1,0,0,,,避難所
高知県,幡多郡大月町,旧月灘小学校体育館,高知県幡多郡大月町才角748,32.767043804431,132.76648092873,1,0,0,1,0,0,,,避難所
高知県,安芸郡奈半利町,福祉センター,高知県安芸郡奈半利町乙1032-1,33.421378140736,134.02214686266,1,0,0,1,0,0,100人,,避難所
高知県,四万十市,（旧）竹屋敷中学校体育館,高知県四万十市竹屋敷931,33.097214390498,132.90065868981,1,0,0,1,0,0,,,一時避難場所
高知県,安芸郡東洋町,押野地区集会所,高知県安芸郡東洋町野根甲366-1,33.505491994284,134.24932329688,1,0,0,1,0,0,,,避難所
高知県,宿毛市,石原集会所,高知県宿毛市小筑紫町石原120,32.858351587199,132.74366864028,1,0,0,1,0,1,78人,,指定避難所
高知県,幡多郡黒潮町,加持本村集会所,高知県幡多郡黒潮町加持2186-4,33.049993718315,133.00609348295,1,0,0,-,-,-,,,避難所
高知県,安芸郡安田町,安田町ほたるの里河川公園,高知県安芸郡安田町大字内京坊23,33.472809944982,133.99348297637,-,-,-,-,-,-,,,指定広域避難場所
高知県,土佐清水市,爪白公会堂,高知県土佐清水市爪白487-2,32.789311320739,132.85646337232,1,0,0,1,0,0,,,避難所
高知県,高岡郡津野町,桂集落センター,高知県高岡郡津野町船戸3588-5,33.4269707425,133.10464434766,1,0,0,1,0,0,,,１次避難所
高知県,長岡郡大豊町,大豊町中学校,高知県長岡郡大豊町中村大王1057,33.753638598568,133.66573278509,1,0,0,1,0,0,,,避難所
高知県,香美市,じんざん保育園,高知県香美市土佐山田町秦山町3-4-14,33.607729121704,133.67589055621,1,0,0,-,-,-,,,避難場所
高知県,香南市,塩谷高台,高知県香南市夜須町手結山1304西高台,33.520740122699,133.7586771473,1,0,0,-,-,-,,,緊急避難場所
高知県,高岡郡四万十町,避難タワー3号塔（松崎）,高知県高岡郡四万十町,33.168381973487,133.21582096547,-,-,-,0,0,1,,,津波避難広場
高知県,香南市,行間集会所,高知県香南市夜須町坪井1356-23,33.544095481138,133.75210580477,1,0,0,1,0,0,,,緊急避難場所
高知県,香美市,沼井公会堂,高知県香美市物部町久保沼井241,33.767236567814,133.94897548025,1,0,0,-,-,-,,,避難場所
高知県,安芸郡芸西村,土居集会所,高知県安芸郡芸西村馬ノ上732,33.533566300943,133.81579912704,1,0,0,1,0,0,13人,,１次避難所
高知県,長岡郡大豊町,郷の家,高知県長岡郡大豊町角茂谷163-3,33.698183478679,133.69266798628,1,0,0,-,-,-,,,避難所
高知県,土佐市,高岡高校,高知県土佐市高岡町甲2200,33.495102124797,133.41931162648,1,0,0,-,-,-,806人,,避難所
高知県,吾川郡仁淀川町,月美荘前広場,高知県吾川郡仁淀川町日浦186,33.613512658166,133.19566060681,1,0,0,-,-,-,858人,,指定避難場所
高知県,香美市,大北公会堂,高知県香美市物部町大栃2236,33.70504663465,133.88134583499,1,0,0,-,-,-,,,避難場所
高知県,高岡郡四万十町,南町集会所,高知県高岡郡四万十町,33.192661508927,132.9734585611,1,0,0,-,-,-,,,１次避難所
高知県,吾川郡いの町,寺川老人憩の家,高知県吾川郡いの町寺川36,33.751255795196,133.21074262528,1,0,0,1,0,0,,,避難所
高知県,安芸郡東洋町,文化会館,高知県安芸郡東洋町野根丙1963-2,33.50474200595,134.26992406825,1,0,0,1,0,0,,,避難所
高知県,安芸郡北川村,電源開発(株)厚生館,高知県安芸郡北川村,33.447834581016,134.04204566656,1,0,0,-,-,-,50人,,避難施設
高知県,高岡郡日高村,日下保育園（能津）,高知県高岡郡日高村宮ノ谷668,33.557415088845,133.33389767342,-,-,-,-,-,-,,,避難場所
高知県,須崎市,浦ノ内小学校,高知県須崎市浦ノ内塩間779-1,33.44532503932,133.40357568607,1,0,0,-,-,-,,,避難所
高知県,吾川郡いの町,波川公民館,高知県吾川郡いの町波川606-2,33.546270569043,133.41183837452,1,0,0,1,0,0,,,避難所
高知県,南国市,稲生ふれあい館,高知県南国市稲生542,33.546937088116,133.62344202566,1,0,0,1,0,0,68人,,緊急避難場所・避難所
高知県,須崎市,須崎工業高校体育館・武道館,高知県須崎市多ノ郷甲4167-3,33.406846869727,133.28163026996,1,0,0,1,0,1,,,避難所
高知県,幡多郡黒潮町,伊田郷集会所,高知県幡多郡黒潮町伊田郷871-1,33.036270124982,133.0785011655,1,0,0,-,-,-,,,避難所
高知県,幡多郡黒潮町,黒潮町総合センター,高知県幡多郡黒潮町佐賀1080-1,33.07959980673,133.10274157117,1,0,0,-,-,-,,,避難所
高知県,香南市,本村公民館,高知県香南市香我美町徳王子1671,33.556410414315,133.73483517381,1,0,0,-,-,-,,,緊急避難場所
高知県,四万十市,中村小学校体育館,高知県四万十市中村新町3-20,32.995619685642,132.93618190885,1,0,0,1,0,0,,,一時避難場所
高知県,幡多郡黒潮町,米原集会所,高知県幡多郡黒潮町蜷川2630,33.08841420489,133.06744450307,1,0,0,1,0,0,,,避難所
高知県,香南市,東中筋北公民館,高知県香南市野市町西野2586,33.558782007406,133.70197420783,1,0,0,-,-,-,,,緊急避難場所
高知県,幡多郡黒潮町,下田の口コミュニティーセンター,高知県幡多郡黒潮町下田の口72,33.013078121378,133.00105403169,1,0,0,-,-,-,,,避難所
高知県,須崎市,上分公民館,高知県須崎市上分丙344-2,33.411281880805,133.23840203744,1,0,0,-,-,-,,,避難所
高知県,高岡郡佐川町,荷稲公民館,高知県高岡郡佐川町荷稲,33.513245204756,133.29411515231,-,-,-,-,-,-,24人,,緊急避難場所
高知県,南国市,久礼田小学校,高知県南国市久礼田532,33.616230027628,133.65169544273,1,0,0,1,0,0,276人,,緊急避難場所・避難所
高知県,高岡郡四万十町,田野々小学校,高知県高岡郡四万十町大正93,33.193862431135,132.97147618837,1,0,0,1,0,0,,,避難所
高知県,高岡郡四万十町,轟農林業共同館,高知県高岡郡四万十町昭和甲110-1,33.21691667104,132.90666196707,1,0,0,1,0,0,,,１次避難所
高知県,吾川郡いの町,上東小学校,高知県吾川郡いの町上八川丙4904,33.67118923348,133.41486110117,1,0,0,1,0,0,,,避難所
高知県,高岡郡四万十町,四万十町江師生活改善センター,高知県高岡郡四万十町江師178-7,33.215579356692,132.97142561553,1,0,0,1,0,0,,,避難所
高知県,高岡郡日高村,日高養護学校,高知県高岡郡日高村下分60,33.539076305493,133.38157978807,1,0,0,1,0,0,260人,,避難場所・避難所
高知県,吾川郡仁淀川町,消防狩山分団屯所,高知県吾川郡仁淀川町日浦579,33.614143741653,133.19911489206,1,0,0,-,-,-,,,指定避難場所
高知県,宿毛市,咸陽小学校,高知県宿毛市樺407-4,32.927932492453,132.67632256469,1,0,0,-,-,-,1119人,,指定避難所
高知県,高岡郡四万十町,四万十町デイサービスセンターさくら貝,高知県高岡郡四万十町興津2520-1,33.167455464796,133.20364704188,1,0,0,1,0,0,,,避難所
高知県,高岡郡中土佐町,上ノ加江老人憩いの家,高知県高岡郡中土佐町上ノ加江2742-3,33.277463950283,133.23967378014,1,0,0,-,-,-,34人,,指定避難場所
高知県,高岡郡佐川町,室原公民館,高知県高岡郡佐川町ムロハラ262,33.490860598784,133.27713721063,-,-,-,-,-,-,27人,,緊急避難場所
高知県,幡多郡三原村,三原村農業構造改善センター,高知県幡多郡三原村宮ノ川1130,32.912992298482,132.84510584613,1,0,0,1,0,0,,,避難所
高知県,安芸郡芸西村,小松美樹夫宅前,高知県安芸郡芸西村和食乙1075,33.530676327511,133.83771663276,-,-,-,1,0,0,66人,,避難場所
高知県,高岡郡四万十町,興津地区多目的集会所,高知県高岡郡四万十町興津1408-1,33.169882131352,133.20517039363,1,0,0,1,0,0,,,１次避難所
高知県,安芸郡東洋町,東町地区教育集会所,高知県安芸郡東洋町野根丙2115-1,33.5073723843,134.2721711532,1,0,0,-,-,-,,,避難所
高知県,吾川郡仁淀川町,森山集会所,高知県吾川郡仁淀川町森山200,33.545893345865,133.10450469422,1,0,0,-,-,-,40人,,指定避難場所
高知県,吾川郡いの町,槙老人里の家,高知県吾川郡いの町槙582-4,33.566074185575,133.4320383491,1,0,0,1,0,0,,,避難所
高知県,高岡郡四万十町,十川集会所,高知県高岡郡四万十町,33.233569947742,132.85077513797,1,0,0,-,-,-,,,１次避難所
高知県,高岡郡越知町,保健福祉センター,高知県高岡郡越知町越知甲2457,33.532574552027,133.24688520164,1,0,0,1,0,0,,,拠点避難所
高知県,高岡郡佐川町,長竹公民館,高知県高岡郡佐川町加茂3238,33.512052573773,133.3255469172,-,-,-,-,-,-,30人,,緊急避難場所
高知県,高岡郡檮原町,越知面小学校（跡）,高知県高岡郡檮原町田野々1285,33.432920620789,132.94471206495,1,0,0,1,0,0,,,避難所
高知県,高岡郡佐川町,佐川地場産センター,高知県高岡郡佐川町甲1532,33.499657245653,133.28782382933,-,-,-,-,-,-,336人,,緊急避難場所
高知県,土佐清水市,土佐清水市役所下ノ加江支所,高知県土佐清水市下川口240-5,32.784351982412,132.84479772483,1,0,0,-,-,-,,,避難所
高知県,安芸郡東洋町,籠葛集会所,高知県安芸郡東洋町野根甲725-1,33.516420383662,134.24498062723,1,0,0,1,0,0,,,避難所
高知県,高岡郡日高村,加茂保育園,高知県高岡郡日高村岩目地640,33.527235420642,133.33576163295,-,-,-,-,-,-,,,避難場所
高知県,吾川郡いの町,清水公民館,高知県吾川郡いの町清水下分1000,33.677313890746,133.33917001004,1,0,0,1,0,0,,,避難所
高知県,高岡郡日高村,石田集会所,高知県高岡郡日高村沖名4084-2,33.522247884935,133.37935758472,-,-,-,-,-,-,,,避難場所
高知県,高岡郡佐川町,虎杖野公民館,高知県高岡郡佐川町乙1552,33.505175189764,133.27706076615,-,-,-,-,-,-,14人,,緊急避難場所
高知県,南国市,あけぼの保育所,高知県南国市田村乙2231-2,33.56415807693,133.66828369553,1,0,0,1,0,0,168人,,緊急避難場所・避難所
高知県,幡多郡大月町,旧姫ノ井小学校体育館,高知県幡多郡大月町姫ノ井882,32.793099129677,132.74032129748,1,0,0,1,0,0,,,避難所
高知県,高岡郡四万十町,木屋ヶ内集会所,高知県高岡郡四万十町木屋ヶ内220-2,33.241701396617,132.9839902059,1,0,0,1,0,0,,,１次避難所
高知県,高岡郡佐川町,健康福祉センターかわせみ,高知県高岡郡佐川町乙2310,33.505528619223,133.28732657249,1,0,0,1,0,0,,,拠点避難所
高知県,高岡郡四万十町,四万十町コンベンションホール「きらら大正」,高知県高岡郡四万十町大正200-1,33.193412528912,132.9741093977,1,0,0,1,0,0,,,避難所
高知県,高岡郡佐川町,二ノ部公民館,高知県高岡郡佐川町二ノ部,33.479091781742,133.28219084623,-,-,-,-,-,-,25人,,緊急避難場所
高知県,幡多郡黒潮町,大屋敷集会所,高知県幡多郡黒潮町加持川853,33.057145253994,132.9972744172,1,0,0,1,0,0,,,避難所
高知県,香美市,新改北部構造改善センター,高知県香美市土佐山田町平山484-1,33.651017291133,133.68862461789,1,0,0,-,-,-,,,避難場所
高知県,幡多郡黒潮町,伊与喜集会所,高知県幡多郡黒潮町伊与喜354,33.10764061284,133.09558523342,1,0,0,1,0,0,,,避難所
高知県,高岡郡中土佐町,大野見庁舎,高知県高岡郡中土佐町大野見吉野12,33.337312322015,133.14030790847,1,0,0,-,-,-,250人,,広域避難場所
高知県,高岡郡四万十町,大正北ノ川多目的集会所,高知県高岡郡四万十町,33.187315585014,133.04745491494,1,0,0,-,-,-,,,１次避難所
高知県,香南市,錦集会所,高知県香南市吉川町吉原1095-口,33.546605788958,133.69286674013,1,0,0,-,-,-,,,緊急避難場所
高知県,宿毛市,坂本集会所,高知県宿毛市橋上町坂本字アサセ177-1,33.018422182942,132.74447887747,1,0,0,1,0,0,64人,,指定避難所
高知県,安芸郡東洋町,甲浦小学校,高知県安芸郡東洋町河内27,33.54533787105,134.29610506092,1,0,0,1,0,0,,,避難所
高知県,高岡郡四万十町,小野川集会所,高知県高岡郡四万十町七里甲1238-1,33.263293323229,133.13132072136,1,0,0,1,0,0,,,避難所
高知県,安芸郡芸西村,ウエルプラザ洋寿荘前駐車場,高知県安芸郡芸西村西分乙297,33.516336757734,133.77281585989,-,-,-,1,0,0,480人,,避難場所
高知県,高岡郡檮原町,旧初瀬西小学校校庭,高知県高岡郡檮原町初瀬本村111,33.359892987822,132.95229533335,1,0,0,1,0,0,,,避難所
高知県,高岡郡佐川町,本村東公民館,高知県高岡郡佐川町本村東,33.522703982076,133.31625231139,-,-,-,-,-,-,25人,,緊急避難場所
高知県,土佐市,グランディール,高知県土佐市高岡町甲730-1,33.496696437544,133.43344348972,1,0,0,-,-,-,346人,,避難所
高知県,高岡郡日高村,柱谷集会所,高知県高岡郡日高村柱谷48-4,33.559351686409,133.3639362591,-,-,-,-,-,-,,,避難場所
高知県,四万十市,渡川第二緑地,高知県四万十市中村大橋通1,32.989939507761,132.92914114466,-,-,-,-,-,-,,,一時避難場所
高知県,高岡郡佐川町,紫円公民館,高知県高岡郡佐川町甲1220,33.496287552151,133.29437837424,-,-,-,-,-,-,17人,,緊急避難場所
高知県,高岡郡越知町,谷ノ内高齢者活動促進施設,高知県高岡郡越知町谷ノ内,33.586036947779,133.27302925908,1,0,0,-,-,-,50人,,一時避難所
高知県,高岡郡津野町,津野町老人福祉センター,高知県高岡郡津野町芳生野甲111,33.39436657507,133.0230526016,1,0,0,1,0,0,,,１次避難所
高知県,香南市,上高田公民館,高知県香南市野市町下井732-2,33.555235257919,133.69025032139,1,0,0,-,-,-,,,緊急避難場所
高知県,幡多郡三原村,上下長谷集会所,高知県幡多郡三原村上下長谷155-1,32.908095753577,132.86073230942,1,0,0,-,-,-,,,避難所
高知県,高岡郡四万十町,下呉地集会所,高知県高岡郡四万十町,33.273024059928,133.16776531726,1,0,0,-,-,-,,,１次避難所
高知県,安芸市,マリンプラザ,高知県安芸市川北甲943-31,33.49890235,133.92462786,0,1,0,1,0,1,304人,,
高知県,高岡郡日高村,渋川集会所,高知県高岡郡日高村沖名3275,33.518353886885,133.37249692651,-,-,-,-,-,-,,,避難場所
高知県,高岡郡越知町,山室農林協同館,高知県高岡郡越知町山室,33.512379432874,133.24462815794,1,0,0,-,-,-,10人,,一時避難所
高知県,土佐清水市,しみず幼稚園,高知県土佐清水市グリ-ンハイツ16-4,32.789129193861,132.97200835455,1,0,0,-,-,-,,,避難所
高知県,須崎市,エムセテック高知工場,高知県須崎市妙見町378,33.415226522069,133.29739550326,1,0,0,1,0,1,,,避難所
高知県,香南市,正延集会所,高知県香南市香我美町正延606,33.596484398885,133.8017737598,1,0,0,-,-,-,,,緊急避難場所
高知県,幡多郡黒潮町,橘川集落所,高知県幡多郡黒潮町佐賀橘川773,33.149209341342,133.13231969258,1,0,0,1,0,0,,,避難所
高知県,高岡郡四万十町,八木集会所,高知県高岡郡四万十町大井川1806-2,33.19898986268,132.87529247851,1,0,0,1,0,0,,,１次避難所
高知県,安芸郡奈半利町,消防団第一分団屯所,高知県安芸郡奈半利町乙1644-1,33.425424829995,134.0198748667,1,0,0,-,-,-,,,避難所
高知県,高岡郡四万十町,四万十町十和林業研修センター,高知県高岡郡四万十町昭和672-3,33.221593612755,132.89433779112,1,0,0,-,-,-,,,避難所
高知県,高岡郡四万十町,若井川集会所,高知県高岡郡四万十町,33.17661796538,133.12201193681,1,0,0,-,-,-,,,１次避難所
高知県,吾川郡いの町,保木集会所,高知県吾川郡いの町神谷739,33.553063887803,133.38767897625,1,0,0,1,0,0,,,避難所
高知県,安芸市,朝霧公園,高知県安芸市矢ノ丸1丁目11,33.50207934,133.91116299,0,1,0,0,1,0,1843人,,
高知県,高岡郡津野町,桑ヶ市複合集会施設,高知県高岡郡津野町桑ケ市336-1,33.38931057743,133.09695960913,1,0,0,1,0,0,,,１次避難所
高知県,吾川郡いの町,伊野小学校,高知県吾川郡いの町柳町12,33.550244127912,133.42609293797,1,0,0,1,0,0,,,避難所
高知県,南国市,岡豊高等学校,高知県南国市岡豊町中島511-1,33.581816479644,133.61121226516,-,-,-,0,0,1,1984人,,津波避難ビル
高知県,土佐市,JAとさし高石支所,高知県土佐市用石486,33.490431381172,133.44185591938,1,0,0,1,0,0,64人,,避難所
高知県,高岡郡越知町,デイサービスセンターコスモス荘,高知県高岡郡越知町1区,33.533269548034,133.25773703106,-,-,-,-,-,-,30人,,福祉避難所
高知県,高岡郡四万十町,大井川住民センター,高知県高岡郡四万十町大井川788-4,33.213863554505,132.8832832245,1,0,0,1,0,0,,,１次避難所
高知県,高岡郡佐川町,下山公民館,高知県高岡郡佐川町乙6099,33.51881063023,133.29291419412,-,-,-,-,-,-,26人,,緊急避難場所
高知県,高岡郡中土佐町,せせらぎ園,高知県高岡郡中土佐町大野見栂ノ川57,33.324807025582,133.10778968355,1,0,0,-,-,-,50人,,指定避難場所
高知県,安芸郡芸西村,旧西分小学校校庭周辺,高知県安芸郡芸西村和食甲1188,33.527449915606,133.80748348328,-,-,-,1,0,0,400人,,避難場所
高知県,安芸郡芸西村,第二集会所,高知県安芸郡芸西村西分甲5082-3,33.517998165548,133.78797172722,1,0,0,1,0,0,21人,,１次避難所
高知県,宿毛市,鵜来島離島センター,高知県宿毛市沖の島町鵜来島78-2,32.799283519717,132.49372408656,1,0,0,1,0,0,403人,,指定避難所
高知県,長岡郡本山町,吉野小学校,高知県長岡郡本山町吉野161,33.754341235021,133.5568265677,1,0,0,1,0,0,,,避難所
高知県,香南市,宇佐八幡宮,高知県香南市吉川町吉原214-1,33.540270574162,133.70358257344,1,0,0,-,-,-,,,緊急避難場所
高知県,高岡郡四万十町,大井野集会所,高知県高岡郡四万十町,33.205919927674,133.12259973265,1,0,0,-,-,-,,,１次避難所
高知県,吾川郡仁淀川町,実間集会所,高知県吾川郡仁淀川町,33.517565146644,133.13226062291,1,0,0,-,-,-,,,指定避難場所
高知県,土佐市,中央西農業振興センター,高知県土佐市高岡町乙3229,33.505498117845,133.42632753934,1,0,0,1,0,0,86人,,避難所
高知県,四万十市,中筋中学校体育館,高知県四万十市有岡1008,32.961973078225,132.83012161363,1,0,0,1,0,0,,,一時避難場所・施設
高知県,安芸郡北川村,菅ノ上集会所,高知県安芸郡北川村大字菅ノ上283,33.529440770192,134.1781968322,1,0,0,-,-,-,20人,,避難施設
高知県,高岡郡四万十町,米奥小学校,高知県高岡郡四万十町米奥149,33.282337359218,133.11030934541,1,0,0,1,0,0,,,避難所
高知県,香美市,舟入小学校,高知県香美市土佐山田町山田1218,33.596587680043,133.68914724103,1,0,0,1,0,0,,,避難場所
高知県,高岡郡四万十町,旧丸山小学校（体育館）,高知県高岡郡四万十町,33.238861031858,133.1272774199,1,0,0,-,-,-,,,１次避難所
高知県,幡多郡黒潮町,鈴消防屯所,高知県幡多郡黒潮町鈴317-3,33.127375946903,133.15392257951,1,0,0,1,0,0,,,避難所
高知県,須崎市,浦ノ内東部コミュニティセンター,高知県須崎市浦ノ内塩間49-3,33.444358606306,133.41348590841,1,0,0,-,-,-,,,避難所
高知県,宿毛市,東部支所,高知県宿毛市平田町戸内2093-2,32.966185783722,132.8081382373,1,0,0,1,0,0,14人,,指定避難所
高知県,土佐郡土佐町,平石消防屯所,高知県土佐郡土佐町地蔵寺3050-1,33.716022889086,133.48805082956,1,0,0,1,0,0,,,避難所
高知県,幡多郡黒潮町,荷稲集会所,高知県幡多郡黒潮町荷稲472-2,33.132874184233,133.11989360242,1,0,0,1,0,0,,,避難所
高知県,香南市,香我美幼稚園,高知県香南市香我美町下分710-1,33.573913753241,133.7420812423,1,0,0,1,0,0,,,緊急避難場所
高知県,吾川郡仁淀川町,長者農村広場,高知県吾川郡仁淀川町長者丙798,33.500649866507,133.13103086846,1,0,0,-,-,-,,,指定避難場所
高知県,土佐清水市,高知県漁協清水統括支所,高知県土佐清水市市場町11-4,32.774769963979,132.95609137565,1,0,0,-,-,-,,,避難所
高知県,高岡郡日高村,竜石集会所,高知県高岡郡日高村岩目地746-3,33.525791334531,133.34297479452,-,-,-,-,-,-,,,避難場所
高知県,高岡郡佐川町,木戸集会所（古用地集会所）,高知県高岡郡佐川町古用地,33.496064949298,133.3021805836,-,-,-,-,-,-,35人,,緊急避難場所
高知県,四万十市,自由ヶ丘第2公園,高知県四万十市具同,32.986424901302,132.91300431053,-,-,-,1,0,0,,,一時避難場所
高知県,室戸市,室戸市中央公園グラウンド,高知県室戸市室戸岬町6811,33.286628930337,134.15832029459,-,-,-,1,0,1,200人,,津波緊急避難場所・広域避難場所
高知県,高岡郡四万十町,市生原地区集落センター,高知県高岡郡四万十町,33.276071154575,133.11300334418,1,0,0,-,-,-,,,１次避難所
高知県,高岡郡日高村,日高村総合運動公園管理棟,高知県高岡郡日高村本郷2670,33.521597228416,133.34629744368,-,-,-,1,0,0,,,避難場所
高知県,高岡郡佐川町,旧佐川中学校武道館,高知県高岡郡佐川町甲1233,33.497727324476,133.29373041482,-,-,-,-,-,-,113人,,緊急避難場所
高知県,四万十市,中村養護学校体育館,高知県四万十市古津賀3091,32.99070693207,132.96999638935,1,0,0,1,0,0,,,一時避難場所・施設
高知県,香南市,香南市役所吉川庁舎,高知県香南市吉川町吉原95,33.541889751395,133.70021332613,1,0,0,-,-,-,,,緊急避難場所
高知県,高岡郡四万十町,十川小中学校体育館,高知県高岡郡四万十町十和川口484,33.234293476417,132.84839394241,1,0,0,1,0,0,,,避難所
高知県,高岡郡越知町,越知幼稚園,高知県高岡郡越知町越知甲1055,33.531489012254,133.26075034878,1,0,0,1,0,0,,,一時避難所・拠点避難所
高知県,長岡郡大豊町,大田口小学校,高知県長岡郡大豊町黒石363-5,33.787299525952,133.7245189763,1,0,0,1,0,0,,,避難所
高知県,安芸郡奈半利町,消防団第三分団屯所,高知県安芸郡奈半利町甲84-2,33.383502405073,134.03776349166,1,0,0,-,-,-,,,避難所
高知県,香南市,夜須保育所,高知県香南市夜須町坪井1577-1,33.542209807118,133.75959367971,1,0,0,1,0,0,,,緊急避難場所
高知県,高岡郡日高村,本郷ふれあいプラザ,高知県高岡郡日高村,33.528421797361,133.36234724239,1,0,0,-,-,-,53人,,避難所
高知県,須崎市,市役所（総合保健福祉センター）,高知県須崎市山手町1-7,33.40074484784,133.28295820255,1,0,0,-,-,-,,,避難所
高知県,南国市,高知東工業高等学校,高知県南国市篠原1590,33.57408953116,133.63748195667,1,0,0,1,0,0,536人,,緊急避難場所・避難所
高知県,室戸市,佐喜浜防災コミュニティセンター,高知県室戸市佐喜浜町1334-2,33.393091034568,134.20522627409,1,0,0,1,0,0,30人,,避難所
高知県,香南市,東石家公民館,高知県香南市野市町東野889,33.561203935374,133.70960962267,1,0,0,-,-,-,,,緊急避難場所
高知県,安芸郡芸西村,中村集会所,高知県安芸郡芸西村和食甲1327,33.525764163409,133.8093222532,1,0,0,1,0,0,13人,,１次避難所
高知県,長岡郡大豊町,大杉小学校,高知県長岡郡大豊町杉92,33.755438314772,133.6631941746,1,0,0,1,0,0,,,避難所
高知県,長岡郡本山町,一区集会所,高知県長岡郡本山町本山143-4,33.755751033918,133.59318625246,1,0,0,1,0,0,,,避難所
高知県,幡多郡黒潮町,市野々川集会所,高知県幡多郡黒潮町市野々川828,33.123395362734,133.09990365896,1,0,0,1,0,0,,,避難所
高知県,長岡郡本山町,冬の瀬休養センター,高知県長岡郡本山町七戸656,33.817569849858,133.55415820727,1,0,0,1,0,0,,,避難所
高知県,宿毛市,手代岡隣保館,高知県宿毛市山奈町山田892-16,32.973940701381,132.82002249061,1,0,0,1,0,1,240人,,指定避難所
高知県,土佐清水市,三崎市民センター,高知県土佐清水市三崎浦1-1,32.791061938747,132.88058906031,1,0,0,-,-,-,,,避難所
高知県,長岡郡本山町,五区集会所,高知県長岡郡本山町本山1086-イ,33.752296861221,133.57384629024,1,0,0,1,0,0,,,避難所
高知県,高岡郡檮原町,旧上成小学校校庭,高知県高岡郡檮原町上成1213,33.415856632684,132.88197520746,1,0,0,1,0,0,,,避難所
高知県,安芸郡安田町,薬師第二集会所,高知県安芸郡安田町大字唐浜2259-1,33.44108223544,133.97361560574,1,0,0,-,-,-,,,避難所
高知県,高岡郡四万十町,宮内集会所,高知県高岡郡四万十町宮内,33.227775219486,133.12765466722,1,0,0,1,0,0,,,１次避難所
高知県,高岡郡四万十町,南川口集会所,高知県高岡郡四万十町,33.199052888333,133.08174201486,1,0,0,-,-,-,,,１次避難所
高知県,長岡郡大豊町,ふるさと館,高知県長岡郡大豊町怒田584,33.783266535952,133.7835610285,1,0,0,1,0,0,,,避難所
高知県,高岡郡四万十町,大向公民館,高知県高岡郡四万十町,33.183205331726,133.09997418819,1,0,0,-,-,-,,,１次避難所
高知県,土佐市,天理教高岡大教会,高知県土佐市高岡町乙244,33.50009259246,133.42376781362,1,0,0,1,0,0,789人,,避難所
高知県,高岡郡佐川町,薄木公民館,高知県高岡郡佐川町薄木,33.469853880712,133.29272080873,-,-,-,-,-,-,24人,,緊急避難場所
高知県,香美市,影仙頭集落センター,高知県香美市物部町仙頭902,33.697159391551,133.89922196102,1,0,0,-,-,-,,,避難場所
高知県,安芸市,栃ノ木公民館広場,高知県安芸市栃ノ木54-2,33.55552266,133.90058384,0,1,1,1,1,1,2000人,,
高知県,安芸郡芸西村,瓜生谷コミュニティーセンター,高知県安芸郡芸西村馬ノ上3481-4,33.542776285738,133.81041885448,1,0,0,1,0,0,61人,,１次避難所
高知県,吾川郡仁淀川町,高齢者総合福祉施設「明神ランド」,高知県吾川郡仁淀川町上名野川617,33.576531006013,133.07567008234,1,0,0,-,-,-,,,指定避難場所
高知県,香南市,北地公民館,高知県香南市野市町下井555-2,33.562075956287,133.68667572942,1,0,0,1,0,0,,,緊急避難場所
高知県,高岡郡四万十町,相去集会所,高知県高岡郡四万十町相去293-1,33.210345388959,133.0523198574,1,0,0,1,0,0,,,１次避難所
高知県,吾川郡いの町,清雲寺,高知県吾川郡いの町小川東津賀才191,33.628164087437,133.30310228817,1,0,0,1,0,0,,,避難所
高知県,香美市,旧五王堂小学校,高知県香美市物部町五王堂1115,33.740716607105,133.90362789593,1,0,0,-,-,-,,,避難場所
高知県,高岡郡四万十町,願成寺,高知県高岡郡四万十町小野598,33.230850234315,132.87026749169,1,0,0,1,0,0,,,避難所
高知県,幡多郡三原村,三原中学校,高知県幡多郡三原村宮ノ川1035,32.911350846793,132.8445448679,1,0,0,1,0,0,,,避難所
高知県,長岡郡大豊町,東豊永生涯学習センター,高知県長岡郡大豊町大滝498-6,33.791484145119,133.78047580422,1,0,0,1,0,0,,,避難所
高知県,高岡郡佐川町,尾川地区住民センター,高知県高岡郡佐川町本郷耕1897-6,33.494129603636,133.25211341626,-,-,-,-,-,-,30人,,緊急避難場所
高知県,香南市,夜須駅プラットホーム,高知県香南市夜須町千切573-39,33.534446668394,133.75425311541,1,0,0,-,-,-,,,緊急避難場所
高知県,安芸郡安田町,唐浜駅前広場,高知県安芸郡安田町大字唐浜,33.446266826183,133.96592612544,1,0,0,1,0,0,,,避難所
高知県,四万十市,名鹿集会所,高知県四万十市名鹿,32.918384051565,133.00011668909,1,0,0,1,0,1,,,一時避難場所・施設
高知県,香南市,江見集会所,高知県香南市赤岡町1042,33.540795619495,133.72844718953,1,0,0,1,0,0,,,緊急避難場所
高知県,宿毛市,宿毛市防災センター,高知県宿毛市和田1412-1,32.93847217148,132.74107285677,1,0,0,-,-,-,262人,,指定避難所
高知県,南国市,禅師峰寺,高知県南国市十市3084,33.526723969255,133.61137489036,-,-,-,1,0,1,2250人,,緊急避難場所
高知県,幡多郡黒潮町,不破原集会所,高知県幡多郡黒潮町不破原425-3,33.109457475474,133.10986212245,1,0,0,1,0,0,,,避難所
高知県,香美市,市宇公会堂,高知県香美市物部町市宇470-1,33.743892889807,134.00020676889,1,0,0,-,-,-,,,避難場所
高知県,幡多郡黒潮町,拳ノ川集会所,高知県幡多郡黒潮町拳ノ川233-1,33.144255945042,133.12160938199,1,0,0,1,0,0,,,避難所
高知県,高岡郡四万十町,つづら川集会所,高知県高岡郡四万十町大正1407-1,33.162521059439,132.95883634639,1,0,0,1,0,0,,,１次避難所
高知県,幡多郡黒潮町,入野本村集会所,高知県幡多郡黒潮町入野1510-8,33.021869121599,133.00803905582,1,0,0,-,-,-,,,避難所
高知県,土佐清水市,三崎小学校庭,高知県土佐清水市三崎1640,32.794794407843,132.87270083631,1,0,0,-,-,-,,,避難所
高知県,四万十市,東中筋中学校体育館,高知県四万十市国見222,32.977817714375,132.88308682289,1,0,0,1,0,0,,,一時避難場所・施設
高知県,香南市,下地ふれあい館,高知県香南市野市町中ノ村1392-1,33.560515221697,133.72110311167,1,0,0,1,0,0,,,緊急避難場所
高知県,高岡郡越知町,栂ノ森集会所,高知県高岡郡越知町栂ノ森,33.552405138852,133.2387926035,1,0,0,-,-,-,10人,,一時避難所
高知県,安芸郡安田町,アユおどる清流キャンプ場,高知県安芸郡安田町大字船倉500,33.514584195117,134.02293486782,1,0,0,1,0,0,,,避難所
高知県,安芸郡安田町,和田集会所,高知県安芸郡安田町大字正弘60,33.48316388746,134.00105964679,1,0,0,1,0,0,,,避難所
高知県,高岡郡中土佐町,大股農業共同館,高知県高岡郡中土佐町大野見大股619,33.381115030777,133.11785910309,1,0,0,-,-,-,30人,,指定避難場所
高知県,安芸市,清和団地A棟,高知県安芸市清和町3-28,33.50027659,133.89814745,0,1,0,1,0,1,180人,,
高知県,長岡郡大豊町,岩原老人憩の家,高知県長岡郡大豊町岩原10,33.823249223097,133.78832692282,1,0,0,1,0,0,,,避難所
高知県,室戸市,室戸岬スカイライン,高知県室戸市,33.250168972995,134.17449990078,-,-,-,0,0,1,,,津波緊急避難場所
高知県,高岡郡中土佐町,中土佐町民交流会館,高知県高岡郡中土佐町久礼6584,33.327141761808,133.2279963287,1,0,0,-,-,-,152人,,指定避難場所
高知県,香南市,久保田公民館,高知県香南市香我美町下分575,33.567392350543,133.73917897091,1,0,0,-,-,-,,,緊急避難場所
高知県,高岡郡四万十町,天満宮本社,高知県高岡郡四万十町志和,33.229231696851,133.24318216562,-,-,-,1,0,0,,,避難広場
高知県,吾川郡仁淀川町,多目的研修施設グラウンド,高知県吾川郡仁淀川町,33.640871984586,133.19606578663,-,-,-,1,0,0,1328人,,指定避難場所
高知県,吾川郡仁淀川町,舟形集会所,高知県吾川郡仁淀川町用居甲1017,33.642455859655,133.11017973078,1,0,0,-,-,-,20人,,指定避難場所
高知県,長岡郡大豊町,西峰中学校,高知県長岡郡大豊町西峰2392-1,33.808758537197,133.83022255247,1,0,0,1,0,0,,,避難所
高知県,土佐市,市民体育館,高知県土佐市高岡町甲2165-1,33.494366432478,133.42100927422,1,0,0,1,0,0,1369人,,避難所
高知県,幡多郡黒潮町,下馬荷集落センター,高知県幡多郡黒潮町馬荷3239-1,33.041285042044,132.97138556165,1,0,0,1,0,0,,,避難所
高知県,長岡郡本山町,屋所集会所,高知県長岡郡本山町屋所147,33.784776566901,133.55078824526,1,0,0,1,0,0,,,避難所
高知県,安芸市,クレール久世,高知県安芸市久世町6-15,33.50192090,133.90370531,0,1,0,1,0,1,40人,,
高知県,香南市,夜須中央公民館,高知県香南市夜須町坪井219,33.537699096999,133.75524729961,1,0,0,1,0,0,,,緊急避難場所
高知県,吾川郡仁淀川町,泉集会所,高知県吾川郡仁淀川町泉314,33.498982106603,133.09961948113,1,0,0,-,-,-,,,指定避難場所
高知県,安芸市,清香園,高知県安芸市川北甲3731,33.50958170,133.93342914,0,1,0,1,0,1,190人,（施設内）飲料水、食糧、毛布ほか※予定,
高知県,香南市,野地東公民館,高知県香南市野市町東野549-5,33.560140254736,133.71825335724,1,0,0,-,-,-,,,緊急避難場所
高知県,香美市,保健福祉センター香北,高知県香美市香北町韮生野336-1,33.648554445287,133.7838756928,1,0,0,-,-,-,,,避難場所
高知県,宿毛市,宿毛中学校,高知県宿毛市桜町18番19号,32.941146496053,132.72892641687,1,0,0,-,-,-,1679人,,指定避難所
高知県,高岡郡檮原町,佐渡集会所,高知県高岡郡檮原町佐渡500,33.349411024705,132.94919749738,1,0,0,1,0,0,,,避難所
高知県,香美市,大栃多目的集会所,高知県香美市物部町大栃1092-5,33.699561286813,133.87564640164,1,0,0,-,-,-,,,避難場所
高知県,高岡郡四万十町,奥大道生活改善センター,高知県高岡郡四万十町大道377-2,33.281250543159,132.89457339082,1,0,0,1,0,0,,,１次避難所
高知県,吾川郡仁淀川町,川渡コミュニティセンター,高知県吾川郡仁淀川町川渡95,33.528530517458,133.12964345627,1,0,0,-,-,-,,,指定避難場所
高知県,幡多郡黒潮町,蜷川ふれあいセンター,高知県幡多郡黒潮町蜷川666,33.059585848534,133.04322002522,1,0,0,1,0,0,,,避難所
高知県,土佐郡土佐町,伊勢川集会所,高知県土佐郡土佐町田井4331,33.717224860318,133.56485623957,1,0,0,1,0,0,,,避難所
高知県,長岡郡大豊町,立川生活改善センター,高知県長岡郡大豊町立川下名493-5,33.834813989263,133.6582611924,1,0,0,1,0,0,,,避難所
高知県,幡多郡黒潮町,旧早咲保育所,高知県幡多郡黒潮町入野3803-2,33.034561053651,133.01533015037,1,0,0,-,-,-,,,避難所
高知県,土佐郡土佐町,和田町民体育館,高知県土佐郡土佐町和田1085,33.744028541003,133.50882889771,1,0,0,1,0,0,,,避難所
高知県,土佐郡土佐町,南川会館,高知県土佐郡土佐町南川1226,33.755768331458,133.45703647919,1,0,0,1,0,0,,,避難所
高知県,土佐郡大川村,自然教育センター白滝,高知県土佐郡大川村朝谷26,33.818855410017,133.46667674199,1,0,0,1,0,0,,,避難所
高知県,吾川郡いの町,大森集会所,高知県吾川郡いの町大森170-2,33.709349430638,133.30820166891,1,0,0,1,0,0,,,避難所
高知県,安芸郡北川村,北川村農業センター,高知県安芸郡北川村大字加茂288,33.453758868809,134.03648023683,1,0,0,1,0,0,,,避難施設
高知県,四万十市,（旧）常六小学校校舎,高知県四万十市常六272-10,33.129126703694,133.01349321397,1,0,0,1,0,0,,,一時避難場所・施設
高知県,高岡郡日高村,日高村岩目地ふれあいプラザ,高知県高岡郡日高村岩目地631-1,33.528807418495,133.33551167926,1,0,0,1,0,0,,,避難場所・避難所
高知県,香南市,佐古保育所,高知県香南市野市町母代寺180-1,33.581683436737,133.70405713096,1,0,0,1,0,0,,,緊急避難場所
高知県,吾川郡仁淀川町,大屋集会所,高知県吾川郡仁淀川町大屋383,33.654713673008,133.19515692489,1,0,0,-,-,-,,,指定避難場所
高知県,吾川郡仁淀川町,旧下名野川小学校グラウンド,高知県吾川郡仁淀川町下名野川619,33.569046862391,133.10036026719,-,-,-,-,-,-,433人,,指定避難場所
高知県,須崎市,吾桑公民館,高知県須崎市吾井郷乙497-1,33.43048607036,133.2913789704,1,0,0,-,-,-,,,避難所
高知県,香南市,徳善集会所,高知県香南市香我美町徳王子1261,33.551205622211,133.74552864955,1,0,0,-,-,-,,,緊急避難場所
高知県,室戸市,室戸小学校,高知県室戸市浮津115,33.291828268176,134.15124251971,1,0,0,1,0,1,,,津波緊急避難場所・避難所
高知県,吾川郡いの町,天理教渦の谷教会,高知県吾川郡いの町加田1655-2,33.553475450867,133.41360188737,1,0,0,1,0,0,,,避難所
高知県,高岡郡越知町,南ノ川2区集会所,高知県高岡郡越知町南ノ川2区,33.489245138422,133.15571767669,1,0,0,-,-,-,10人,,一時避難所
高知県,香美市,大宮小学校,高知県香美市香北町美良布654-ロ,33.65194952874,133.77773449279,1,0,0,1,0,0,,,避難場所
高知県,吾川郡いの町,音竹老人憩の家,高知県吾川郡いの町5217,33.539779432579,133.43382697516,1,0,0,1,0,0,,,避難所
高知県,香南市,西山公民館,高知県香南市香我美町徳王子2404,33.557868661427,133.74291482372,1,0,0,-,-,-,,,緊急避難場所
高知県,須崎市,浦ノ内市民交流会館,高知県須崎市浦ノ内東分168-32,33.427259637357,133.36321033892,1,0,0,-,-,-,,,避難所
高知県,南国市,長岡西部体育館,高知県南国市元町2-4-2,33.58024500569,133.64002639876,1,0,0,1,0,0,196人,,避難所
高知県,長岡郡大豊町,久寿軒老人憩の家,高知県長岡郡大豊町久寿軒624,33.727734412248,133.70348401778,1,0,0,1,0,0,,,避難所
高知県,幡多郡黒潮町,上田の口保育所,高知県幡多郡黒潮町田ノロ107,33.010285509982,132.98615969799,1,0,0,-,-,-,,,避難所
高知県,土佐清水市,益野小学校,高知県土佐清水市下益野888-1,32.808001680454,132.89583656087,1,0,0,-,-,-,,,避難所
高知県,高岡郡越知町,桑薮集会所,高知県高岡郡越知町桑薮,33.596454355884,133.25428760142,1,0,0,-,-,-,40人,,一時避難所
高知県,香南市,高知職業能力開発短期大学校,高知県香南市野市町西野1595-1,33.563506283157,133.68978099615,1,0,0,1,0,0,,,緊急避難場所
高知県,幡多郡大月町,旧中央小学校体育館,高知県幡多郡大月町古満目131-1,32.790348064437,132.68459276653,1,0,0,1,0,0,,,避難所
高知県,香美市,白石多目的運動公園,高知県香美市香北町白石434,33.675908771507,133.8364883887,-,-,-,-,-,-,,,避難場所
高知県,高岡郡四万十町,上秋丸集会所,高知県高岡郡四万十町,33.303603549951,133.10680748167,1,0,0,-,-,-,,,１次避難所
高知県,安芸郡馬路村,魚梁瀬小・中学校（体育館・運動場）,高知県安芸郡馬路村大字魚梁瀬10-149,33.617644796205,134.1096089406,1,0,0,1,0,0,,,避難所
高知県,高岡郡檮原町,大越グラウンド,高知県高岡郡檮原町広野657-1,33.398968715294,132.89711515674,-,-,-,1,0,0,,,避難所
高知県,吾川郡仁淀川町,池川山村広場,高知県吾川郡仁淀川町土居甲662-2,33.606448971602,133.16421909246,1,0,0,-,-,-,5731人,,指定避難場所
高知県,高岡郡佐川町,尾川中学校,高知県高岡郡佐川町本郷耕1884,33.49416037953,133.25099331044,1,0,0,1,0,0,,,拠点避難所
高知県,高岡郡四万十町,土場集会所,高知県高岡郡四万十町,33.197859176166,132.97271441303,1,0,0,-,-,-,,,１次避難所
高知県,吾川郡仁淀川町,古田集会所,高知県吾川郡仁淀川町長者丁古田,33.511817683223,133.12712360686,1,0,0,-,-,-,,,指定避難場所
高知県,高岡郡四万十町,四万十町窪川運動場,高知県高岡郡四万十町金上野949,33.191310638153,133.14264568562,1,0,0,1,0,0,,,避難所
高知県,土佐清水市,デイサービスセンターひまわり,高知県土佐清水市浦尻452,32.788793411757,132.9767464497,1,0,0,1,0,0,,,避難所
高知県,高岡郡佐川町,岡崎公民館,高知県高岡郡佐川町岡崎,33.498332286096,133.27874916141,-,-,-,-,-,-,25人,,緊急避難場所
高知県,四万十市,旧西南病院（梼の木福祉会）,高知県四万十市右山,32.978580642925,132.94546316129,1,0,0,-,-,-,,,一時避難施設
高知県,香南市,西佐古公民館,高知県香南市野市町西佐古503,33.590607074937,133.70228203232,1,0,0,-,-,-,,,緊急避難場所
高知県,高岡郡四万十町,大正公民館,高知県高岡郡四万十町大正377-5,33.196784350095,132.97685073239,1,0,0,1,0,0,,,１次避難所
高知県,香美市,日ノ地公会堂,高知県香美市物部町仙頭371-11,33.701408571055,133.89172266327,1,0,0,-,-,-,,,避難場所
高知県,四万十市,公民館鴨川分館,高知県四万十市奥鴨川2550,33.06793862943,132.87349863588,1,0,0,1,0,0,,,一時避難場所
高知県,香南市,香南市サイクリングターミナル,高知県香南市夜須町手結山1304,33.520953804831,133.75883042369,1,0,0,1,0,0,,,緊急避難場所
高知県,高岡郡四万十町,薬師堂避難広場,高知県高岡郡四万十町,33.232733150269,133.24821453582,-,-,-,0,0,1,,,津波避難広場
高知県,高岡郡四万十町,荒神様,高知県高岡郡四万十町志和,33.231721528042,133.24689302525,-,-,-,1,0,0,,,避難広場
高知県,香南市,のいちふれあいセンター,高知県香南市野市町西野534-1,33.563983948209,133.69935226808,1,0,0,1,0,0,,,緊急避難場所
高知県,幡多郡黒潮町,旧鈴小学校,高知県幡多郡黒潮町鈴218,33.126811991011,133.15673364294,1,0,0,-,-,-,,,避難所
高知県,安芸市,清水ヶ丘中学校校庭,高知県安芸市川北甲5685,33.51178943,133.91967804,0,1,1,1,1,1,12619人,（施設内）飲料水、食糧、毛布ほか,
高知県,土佐郡土佐町,地蔵寺町民体育館,高知県土佐郡土佐町地蔵寺1212,33.706670605595,133.5032056144,1,0,0,1,0,0,,,避難所
高知県,安芸市,安芸第一小学校校庭,高知県安芸市久世町4-13,33.50112102,133.90406085,0,0,1,1,1,1,2911人,（施設内）飲料水、食糧、毛布ほか,
高知県,四万十市,天神公園,高知県四万十市右山天神町,32.985388452543,132.94268776921,-,-,-,1,0,0,,,一時避難場所
高知県,高岡郡中土佐町,矢井賀高齢者コミュニティセンター,高知県高岡郡中土佐町矢井賀甲184-2,33.243325673042,133.24461296974,1,0,0,-,-,-,57人,,指定避難場所
高知県,高岡郡四万十町,沖代部落集会所,高知県高岡郡四万十町,33.256633268115,133.13385900344,1,0,0,-,-,-,,,１次避難所
高知県,土佐郡土佐町,東境集会所,高知県土佐郡土佐町境299-2,33.742754414721,133.54207395925,1,0,0,1,0,0,,,避難所
高知県,室戸市,佐喜浜中学校,高知県室戸市佐喜浜町3848,33.401430420847,134.21043280861,1,0,0,-,-,-,231人,,避難所
高知県,吾川郡仁淀川町,ふたば保育所園庭,高知県吾川郡仁淀川町森,33.537073251658,133.13178250792,1,0,0,-,-,-,,,指定避難場所
高知県,吾川郡仁淀川町,明神ランド広場,高知県吾川郡仁淀川町上名野川617,33.576528206154,133.07566458296,1,0,0,-,-,-,814人,,指定避難場所
高知県,高岡郡四万十町,六反地集会所,高知県高岡郡四万十町,33.260673648935,133.16888205365,1,0,0,-,-,-,,,１次避難所
高知県,高岡郡四万十町,河内集会所,高知県高岡郡四万十町河内185-2,33.217498766529,132.86830107156,1,0,0,1,0,0,,,１次避難所
高知県,安芸郡馬路村,コミュニティセンター馬路,高知県安芸郡馬路村大字馬路3564-1,33.556677090328,134.04919674153,1,0,0,1,0,0,,,避難所
高知県,高岡郡佐川町,九反田公民館,高知県高岡郡佐川町九反田,33.508845496096,133.27741930837,-,-,-,-,-,-,21人,,緊急避難場所
高知県,宿毛市,楠山多目的集会所,高知県宿毛市橋上町楠山31-2,33.038963071932,132.69862624682,1,0,0,1,0,1,66人,,指定避難所
高知県,高岡郡四万十町,奈路集会所,高知県高岡郡四万十町,33.233689145968,133.18662305491,1,0,0,-,-,-,,,１次避難所
高知県,吾川郡いの町,本川プラチナ交流センター,高知県吾川郡いの町長沢123-8,33.725561342954,133.3070737671,1,0,0,1,0,0,,,避難所
高知県,南国市,奈路小学校,高知県南国市奈路721,33.638302471028,133.60819922759,1,0,0,1,0,0,195人,,緊急避難場所・避難所
高知県,土佐郡土佐町,土佐町児童館,高知県土佐郡土佐町土居989-1,33.727803171313,133.52276594134,1,0,0,1,0,0,,,避難所
高知県,高岡郡四万十町,大正老人福祉センター,高知県高岡郡四万十町大正32-1,33.183666310476,132.97239306348,1,0,0,1,0,0,,,避難所
高知県,高岡郡四万十町,興津小学校,高知県高岡郡四万十町興津1572,33.167824091914,133.20702576272,1,0,0,1,0,0,,,１次避難所
高知県,香南市,富家防災コミュニティセンター,高知県香南市野市町兎田55-1,33.571735789492,133.7237389443,1,0,0,1,0,0,,,緊急避難場所
高知県,高岡郡日高村,西越老人憩いの家,高知県高岡郡日高村本郷3492-1,33.528319111423,133.36241453723,-,-,-,-,-,-,,,避難場所
高知県,高岡郡佐川町,柳瀬公民館,高知県高岡郡佐川町丙3727-2,33.510172296913,133.2815936126,-,-,-,-,-,-,21人,,緊急避難場所
高知県,幡多郡黒潮町,上川口小学校,高知県幡多郡黒潮町上川口569,33.041446639668,133.05724434427,1,0,0,-,-,-,,,避難所
高知県,安芸郡安田町,安田川アユおどる清流,高知県安芸郡安田町,33.51495794734,134.02287148513,-,-,-,1,0,0,,,指定広域避難場所
高知県,南国市,錦城公園,高知県南国市緑ヶ丘2-2401,33.533485609397,133.60832043192,-,-,-,-,-,-,5750人,,緊急避難場所
高知県,室戸市,室戸中学校,高知県室戸市浮津三番町92,33.292969747271,134.14252940339,1,0,0,-,-,-,290人,,避難所
高知県,高岡郡四万十町,親ヶ内集会所,高知県高岡郡四万十町,33.214926751179,133.1830459631,1,0,0,-,-,-,,,１次避難所
高知県,高岡郡佐川町,川原田公民館,高知県高岡郡佐川町川原田,33.485821443506,133.30503243514,-,-,-,-,-,-,23人,,緊急避難場所
高知県,高岡郡越知町,栃ノ木集会所,高知県高岡郡越知町桐見川3区,33.512226090379,133.17079519188,1,0,0,-,-,-,20人,,一時避難所
高知県,香南市,惣田北公民館,高知県香南市香我美町山北1141,33.579823887426,133.7369597085,1,0,0,-,-,-,,,緊急避難場所
高知県,幡多郡黒潮町,仲分川集会所,高知県幡多郡黒潮町蜷川3649-1,33.076361602077,133.0375977472,1,0,0,1,0,0,,,避難所
高知県,幡多郡黒潮町,上分集会所,高知県幡多郡黒潮町佐賀1604,33.091031615274,133.09903320438,1,0,0,1,0,0,,,避難所
高知県,安芸郡田野町,中芸高校,高知県安芸郡田野町1208,33.433494421025,134.01198033141,1,0,0,1,0,0,,,緊急避難場所・避難所
高知県,香美市,宝町体育館,高知県香美市土佐山田町宝町2-7-15,33.602112455369,133.68512553139,1,0,0,-,-,-,,,避難場所
高知県,室戸市,船場山,高知県室戸市羽根町,33.363480906354,134.06416313781,-,-,-,0,0,1,,,津波緊急避難場所
高知県,安芸市,グループホームひのでの館,高知県安芸市日ノ出町7,33.49753547,133.90812167,0,1,0,1,0,1,103人,,
高知県,香美市,中谷川公会堂,高知県香美市物部町中谷川318,33.683168655091,133.85506246793,1,0,0,-,-,-,,,避難場所
高知県,土佐郡大川村,大薮コミュニティセンター,高知県土佐郡大川村大薮137-6,33.796045672584,133.36402379322,1,0,0,1,0,0,,,避難所
高知県,高岡郡檮原町,下本村集会所,高知県高岡郡檮原町下本村552,33.434172380122,132.95281297473,1,0,0,1,0,0,,,避難所
高知県,香南市,古川集会所,高知県香南市吉川町古川686-1,33.544850705665,133.71165937905,1,0,0,1,0,0,,,緊急避難場所
高知県,土佐郡大川村,大川小中学校体育館,高知県土佐郡大川村中切517-2,33.78008207065,133.46962430598,1,0,0,1,0,0,,,避難所
高知県,香美市,旧久保小学校,高知県香美市物部町久保沼井207,33.767107357054,133.94804398278,1,0,0,-,-,-,,,避難場所
高知県,吾川郡いの町,枝川小学校,高知県吾川郡いの町枝川2964-1,33.553955866161,133.45928457035,1,0,0,1,0,0,,,避難所
高知県,高岡郡佐川町,本村西公民館,高知県高岡郡佐川町本村西,33.522073869788,133.31040272331,-,-,-,-,-,-,25人,,緊急避難場所
高知県,土佐清水市,津呂公会堂,高知県土佐清水市津呂137,32.763770612019,133.01036582984,1,0,0,1,0,0,,,避難所
高知県,安芸郡安田町,小川集会所,高知県安芸郡安田町大字小川48-2,33.510301385413,134.01250246744,1,0,0,1,0,0,,,避難所
高知県,高岡郡四万十町,立西町民会館,高知県高岡郡四万十町,33.199811384071,133.08158890674,1,0,0,-,-,-,,,１次避難所
高知県,四万十市,市民スポーツセンター,高知県四万十市安並4129,33.004732774757,132.94066178069,1,0,0,1,0,0,,,避難所
高知県,高岡郡越知町,楠神集会所,高知県高岡郡越知町13区,33.540236922628,133.22606691039,1,0,0,-,-,-,20人,,一時避難所
高知県,香南市,西中筋公民館,高知県香南市野市町西野1764-6,33.561853747515,133.69156694264,1,0,0,-,-,-,,,緊急避難場所
高知県,吾川郡仁淀川町,池川中学校運動場,高知県吾川郡仁淀川町竹ノ谷940,33.609341020974,133.16861311372,1,0,0,-,-,-,6660人,,指定避難場所
高知県,高岡郡佐川町,加茂住民センター,高知県高岡郡佐川町加茂674-10,33.522985494022,133.32079610066,-,-,-,-,-,-,50人,,緊急避難場所
高知県,高岡郡佐川町,山瀬公民館,高知県高岡郡佐川町山瀬,33.469188231917,133.27302723643,-,-,-,-,-,-,20人,,緊急避難場所
高知県,吾川郡いの町,森木組事務所,高知県吾川郡いの町26299,33.538085662892,133.43777361851,1,0,0,1,0,0,,,避難所
高知県,香美市,香美農林合同庁舎,高知県香美市土佐山田町加茂777,33.610327737149,133.72012459608,1,0,0,-,-,-,,,避難場所
高知県,高岡郡檮原町,宮野々集会所,高知県高岡郡檮原町宮野々89-1,33.400651530736,132.88391658296,1,0,0,1,0,0,,,避難所
高知県,吾川郡仁淀川町,大見槍集会所,高知県吾川郡仁淀川町別枝大見槍,33.534453519795,133.08692951086,1,0,0,-,-,-,,,指定避難場所
高知県,高岡郡日高村,小村集会所（日下公民館《下分分館》,高知県高岡郡日高村下分1882-1,33.541323401195,133.39432663522,-,-,-,-,-,-,,,避難場所
高知県,高岡郡四万十町,野地集会所,高知県高岡郡四万十町,33.173249203058,133.06796291371,1,0,0,-,-,-,,,１次避難所
高知県,室戸市,元小学校,高知県室戸市元甲1854,33.301760236035,134.12375035848,1,0,0,1,0,1,,,津波緊急避難場所・避難所
高知県,高岡郡津野町,津野町高齢者コミュニティーセンター,高知県高岡郡津野町白石甲3260,33.437506426329,133.13428875197,1,0,0,1,0,0,,,１次避難所
高知県,高岡郡四万十町,岩本寺,高知県高岡郡四万十町茂串町3-13,33.208252830143,133.13476550456,1,0,0,1,0,0,,,１次避難所
高知県,四万十市,岡の下公園,高知県四万十市右山元町3,32.982179212113,132.94186377548,-,-,-,1,0,0,,,一時避難場所
高知県,吾川郡いの町,清水第二小学校,高知県吾川郡いの町清水上分2106,33.689530526916,133.38196712409,1,0,0,1,0,0,,,避難所
高知県,土佐市,戸波総合市民センター,高知県土佐市家俊1901-1,33.461255952373,133.35298799672,1,0,0,1,0,0,210人,,避難所
高知県,室戸市,上段老人憩の家,高知県室戸市羽根町乙2755,33.373281146789,134.04468916107,1,0,0,1,0,0,20人,,避難所
高知県,吾川郡いの町,三水小学校,高知県吾川郡いの町上八川甲7270,33.673186577528,133.31930700013,1,0,0,1,0,0,,,避難所
高知県,吾川郡仁淀川町,川内谷集会所,高知県吾川郡仁淀川町川内谷7-2,33.611305000899,133.18382420848,1,0,0,-,-,-,20人,,指定避難場所
高知県,高岡郡四万十町,影山集会所,高知県高岡郡四万十町,33.25648337411,133.12637447811,1,0,0,-,-,-,,,１次避難所
高知県,幡多郡黒潮町,旧鈴保育所,高知県幡多郡黒潮町鈴444,33.127492365245,133.15533098931,1,0,0,1,0,0,,,避難所
高知県,安芸郡田野町,ふれあいセンター,高知県安芸郡田野町,33.428041871752,134.00800544009,1,0,0,-,-,-,,,避難所
高知県,宿毛市,宿毛授産園,高知県宿毛市貝塚19-21,32.938768982068,132.71576165051,-,-,-,1,0,1,27人,,福祉避難所
高知県,高岡郡四万十町,地吉生活改善センター,高知県高岡郡四万十町地吉415,33.25194216724,132.81343228633,1,0,0,1,0,0,,,１次避難所
高知県,四万十市,（旧）片魚小学校校舎,高知県四万十市片魚317,33.133201207872,132.98498163646,1,0,0,1,0,0,,,一時避難場所・施設
高知県,幡多郡黒潮町,中馬荷集落センター,高知県幡多郡黒潮町馬荷2854-4,33.048820285496,132.97068531251,1,0,0,1,0,0,,,避難所
高知県,南国市,図書館,高知県南国市篠原1801-5,33.576050611498,133.63840136603,1,0,0,1,0,0,205人,,避難所
高知県,高岡郡越知町,今成集会所,高知県高岡郡越知町今成,33.541120344267,133.24611672228,1,0,0,-,-,-,50人,,一時避難所
高知県,吾川郡仁淀川町,桂集会所,高知県吾川郡仁淀川町高瀬桂,33.532537644086,133.10011473603,1,0,0,-,-,-,,,指定避難場所
高知県,四万十市,横瀬集会所,高知県四万十市横瀬,32.984307874569,132.83134888574,1,0,0,1,0,0,,,一時避難施設
高知県,高岡郡越知町,老人保健施設ライブリーハウス輝,高知県高岡郡越知町5区,33.530782460406,133.253079748,-,-,-,-,-,-,50人,,福祉避難所
高知県,香美市,浦山公会堂,高知県香美市物部町仙頭1854-3,33.672740024616,133.87935163848,1,0,0,-,-,-,,,避難場所
高知県,吾川郡仁淀川町,谷山集会所,高知県吾川郡仁淀川町,33.53133908587,133.14024805944,1,0,0,-,-,-,,,指定避難場所
高知県,高岡郡四万十町,古城下組集会所,高知県高岡郡四万十町,33.244868729565,132.83132297269,1,0,0,-,-,-,,,１次避難所
高知県,香南市,西町21区公民館,高知県香南市野市町西野1158-2,33.567233446342,133.68998091898,1,0,0,-,-,-,,,緊急避難場所
高知県,吾川郡仁淀川町,池川体育館,高知県吾川郡仁淀川町土居甲835,33.608823283244,133.16897506876,1,0,0,-,-,-,,,指定避難場所
高知県,四万十市,八束中学校,高知県四万十市実崎1230,32.955657172387,132.96853932592,1,0,0,1,0,0,,,一時避難場所・施設
高知県,吾川郡仁淀川町,仁淀高等学校グラウンド,高知県吾川郡仁淀川町大渡183,33.541408190381,133.12816029974,-,-,-,-,-,-,,,指定避難場所
高知県,高岡郡四万十町,見付老人憩いの家,高知県高岡郡四万十町,33.20660155059,133.14850804364,1,0,0,-,-,-,,,１次避難所
高知県,香南市,本村公民館,高知県香南市野市町本村851-2,33.576974069071,133.73025215911,1,0,0,-,-,-,,,緊急避難場所
高知県,幡多郡三原村,来栖野公会堂,高知県幡多郡三原村来栖野240-1,32.902696063168,132.84682558392,1,0,0,-,-,-,,,避難所
高知県,香南市,つきみ野公民館,高知県香南市野市町東佐古360,33.591046294931,133.71145358982,1,0,0,1,0,0,,,緊急避難場所
高知県,高岡郡佐川町,茅ケ森集会所（南谷集会所）,高知県高岡郡佐川町南谷,33.49380358369,133.30838976154,-,-,-,-,-,-,35人,,緊急避難場所
高知県,高岡郡四万十町,十川地区防災活動拠点施設,高知県高岡郡四万十町,33.233857152816,132.84915580552,1,0,0,-,-,-,,,１次避難所
高知県,高岡郡四万十町,農村環境改善センター,高知県高岡郡四万十町,33.211316901952,133.13867103158,1,0,0,-,-,-,,,１次避難所
高知県,吾川郡いの町,東浦老人憩の家,高知県吾川郡いの町枝川1945-1,33.550974614746,133.46298320465,1,0,0,1,0,0,,,避難所
高知県,香美市,農山村コミュニティセンター,高知県香美市土佐山田町須江36-1,33.62157409222,133.67776777033,1,0,0,-,-,-,,,避難場所
高知県,須崎市,須崎市社会福祉センター,高知県須崎市南古市町6-14,33.388462741026,133.28852486397,1,0,0,-,-,-,,,避難所
高知県,土佐郡土佐町,三島多目的集会施設,高知県土佐郡土佐町田井503-3,33.744162602962,133.54372943269,1,0,0,1,0,0,,,避難所
高知県,安芸郡田野町,土生岡集会所,高知県安芸郡田野町,33.439881492714,134.01927142642,1,0,0,1,0,1,,,避難所
高知県,香美市,市民グラウンド,高知県香美市土佐山田町楠目831,33.611022009711,133.69769166034,-,-,-,-,-,-,,,避難場所
高知県,高岡郡日高村,大川内集会所,高知県高岡郡日高村沖名4691-2,33.527094545694,133.38134088764,-,-,-,-,-,-,,,避難場所
高知県,香南市,吉川市民館,高知県香南市吉川町吉原352,33.540790787044,133.70078160975,1,0,0,-,-,-,,,緊急避難場所
高知県,高岡郡佐川町,黒岩多目的集会所,高知県高岡郡佐川町黒原402-1,33.545665889535,133.278518266,-,-,-,-,-,-,75人,,緊急避難場所
高知県,高岡郡津野町,東津野中学校,高知県高岡郡津野町力石2813,33.395230462434,133.02616071114,1,0,0,1,0,0,,,２次避難所
高知県,香美市,香美市基幹集落センター,高知県香美市香北町美良布1097,33.650841311682,133.78024810738,1,0,0,1,0,0,,,避難場所
高知県,高岡郡四万十町,汢ノ川集会所,高知県高岡郡四万十町,33.251308911038,133.16756221986,1,0,0,-,-,-,,,１次避難所
高知県,香南市,赤岡保健センター,高知県香南市赤岡町1327,33.543753542982,133.72203373122,1,0,0,1,0,0,,,緊急避難場所
高知県,須崎市,須崎公民館,高知県須崎市西古市町6-15,33.389048789852,133.28553348432,1,0,0,-,-,-,,,避難所
高知県,吾川郡仁淀川町,大渡コミュニティセンター,高知県吾川郡仁淀川町大渡186-1,33.542125781321,133.12774052894,1,0,0,-,-,-,,,指定避難場所
高知県,高岡郡四万十町,四万十町十和東部地区交流センター,高知県高岡郡四万十町浦越108,33.198144754553,132.94825023519,1,0,0,1,0,0,,,避難所
高知県,高岡郡四万十町,四万十町十和隣保館,高知県高岡郡四万十町大井川954-1,33.216957867815,132.88879942691,1,0,0,1,0,0,,,避難所
高知県,土佐市,波介コミュニティーセンター,高知県土佐市波介4369,33.47648218426,133.39926682237,1,0,0,1,0,0,64人,,避難所
高知県,幡多郡黒潮町,大方あかつき館,高知県幡多郡黒潮町入野6931-3,33.022449737045,133.01321087304,1,0,0,-,-,-,,,避難所
高知県,安芸郡芸西村,琴ヶ浜ふれあいセンター,高知県安芸郡芸西村和食甲84,33.518320747509,133.81026117018,1,0,0,-,-,-,50人,,１次避難所
高知県,南国市,後免町公民館,高知県南国市後免町2-1-12,33.575987111132,133.6463953295,1,0,0,1,0,0,55人,,避難所
高知県,四万十市,山路集会所,高知県四万十市山路,32.970278729058,132.95374663462,1,0,0,1,0,0,,,一時避難施設
高知県,香南市,青少年センター,高知県香南市野市町西野303-1,33.578214560641,133.69881313574,1,0,0,1,0,0,,,緊急避難場所
高知県,高岡郡四万十町,里川入会林総合利用センター,高知県高岡郡四万十町,33.187563307349,132.94761751316,1,0,0,-,-,-,,,１次避難所
高知県,長岡郡大豊町,東豊永小学校,高知県長岡郡大豊町西川980,33.791913801642,133.77352161032,1,0,0,1,0,0,,,避難所
高知県,南国市,北陵中学校,高知県南国市岡豊町笠ノ川848-1,33.610521877271,133.63438547195,1,0,0,1,0,0,567人,,緊急避難場所・避難所
高知県,高岡郡四万十町,西ノ川事業所集会所,高知県高岡郡四万十町西ノ川,33.228892558166,132.97816799986,1,0,0,-,-,-,,,避難所
高知県,高岡郡四万十町,興津保育所,高知県高岡郡四万十町興津2520-1,33.176886476121,133.20160104852,1,0,0,1,0,0,,,避難所
高知県,室戸市,吉良川公民館,高知県室戸市吉良川町甲2393、2396,33.332738910546,134.10023959636,1,0,0,1,0,0,428人,,避難所
高知県,宿毛市,宿毛育成園,高知県宿毛市貝塚19-10,32.938274015625,132.71517566417,-,-,-,1,0,1,38人,,福祉避難所
高知県,香美市,押谷公会堂,高知県香美市物部町押谷367-2,33.708563120068,133.90300207371,1,0,0,-,-,-,,,避難場所
高知県,吾川郡仁淀川町,宮ヶ平集会所,高知県吾川郡仁淀川町宮ヶ平246-12,33.646459466837,133.19691516559,1,0,0,-,-,-,20人,,指定避難場所
高知県,高岡郡越知町,片岡集会所,高知県高岡郡越知町片岡,33.573132505006,133.28432532861,1,0,0,-,-,-,30人,,一時避難所
高知県,土佐清水市,宗呂小学校,高知県土佐清水市宗呂丙1977-1,32.796311482642,132.82204180304,1,0,0,1,0,0,,,避難所
高知県,高岡郡津野町,郷小学校,高知県高岡郡津野町芳生野乙810,33.449685459177,133.01998069573,1,0,0,1,0,0,,,２次避難所
高知県,四万十市,下田中学校体育館,高知県四万十市下田3216-1,32.944972689112,132.99113224873,1,0,0,1,0,0,,,一時避難場所・施設
高知県,安芸郡奈半利町,奈半利小学校,高知県安芸郡奈半利町乙1648-2,33.42479720842,134.0203081268,1,0,0,1,0,0,500人,,避難所
高知県,高岡郡佐川町,木戸集会所,高知県高岡郡佐川町永野3050,33.496049651953,133.30218668297,1,0,0,-,-,-,,,拠点避難所
高知県,高岡郡四万十町,金上野下集会所,高知県高岡郡四万十町,33.198147559275,133.14292458747,1,0,0,-,-,-,,,１次避難所
高知県,香南市,中浜集会所,高知県香南市赤岡町705-1,33.539376382958,133.72642518295,1,0,0,1,0,0,,,緊急避難場所
高知県,高岡郡四万十町,鶴津線避難広場,高知県高岡郡四万十町,33.227344946958,133.24840256929,-,-,-,0,0,1,,,津波避難広場
高知県,高岡郡日高村,沖名集会所,高知県高岡郡日高村沖名753-3,33.521489511056,133.36865837819,-,-,-,-,-,-,,,避難場所
高知県,安芸郡芸西村,井上集会所,高知県安芸郡芸西村馬ノ上815-2,33.531908096667,133.81401883774,1,0,0,1,0,0,10人,,１次避難所
高知県,南国市,前浜津波避難施設,高知県南国市前浜12-2,33.534190132057,133.66690507539,1,0,0,1,0,1,200人,,緊急避難場所・避難所
高知県,吾川郡いの町,東谷公民館,高知県吾川郡いの町小川樅ノ木山10,33.657965286566,133.27857263475,1,0,0,1,0,0,,,避難所
高知県,四万十市,文化センター,高知県四万十市中村桜町,32.995364677241,132.93315526284,1,0,0,-,-,-,,,一時避難施設
高知県,吾川郡仁淀川町,太田集会所,高知県吾川郡仁淀川町別枝太田,33.528129468636,133.07107325209,1,0,0,-,-,-,,,指定避難場所
高知県,高岡郡四万十町,新町集会所,高知県高岡郡四万十町,33.194963756753,132.97513449137,1,0,0,-,-,-,,,１次避難所
高知県,高岡郡津野町,津野町東津野B＆G海洋センター,高知県高岡郡津野町芳生野甲200-5,33.398860634022,133.02293319062,1,0,0,1,0,0,,,２次避難所
高知県,高岡郡佐川町,桂公民館,高知県高岡郡佐川町桂,33.501876842348,133.27139142521,-,-,-,-,-,-,14人,,緊急避難場所
高知県,高岡郡日高村,長畑集会所,高知県高岡郡日高村長畑778-3,33.564242087383,133.32578980105,-,-,-,-,-,-,,,避難場所
高知県,高岡郡日高村,本郷消防屯所,高知県高岡郡日高村本郷1476-1,33.531924040643,133.3548540683,-,-,-,-,-,-,,,避難場所
高知県,土佐市,北原小学校,高知県土佐市北地606-2,33.487802706318,133.38118501962,1,0,0,1,0,0,399人,,避難所
高知県,高岡郡四万十町,十和隣保館,高知県高岡郡四万十町,33.217000862928,132.88879692595,1,0,0,-,-,-,,,１次避難所
高知県,吾川郡仁淀川町,坂本地区多目的集会施設,高知県吾川郡仁淀川町坂本536-1,33.605202125987,133.1429325612,1,0,0,-,-,-,50人,,指定避難場所
高知県,高岡郡四万十町,中津川集会所,高知県高岡郡四万十町大正中津川,33.268554286257,132.98966635562,1,0,0,1,0,0,,,１次避難所
高知県,安芸郡安田町,中山公民館,高知県安芸郡安田町大字正弘716-イ,33.481833493412,134.00107357234,-,-,-,-,-,-,,,指定広域避難場所
高知県,四万十市,具同小学校体育館,高知県四万十市具同田黒1-4-1,32.989933902631,132.92018630768,1,0,0,1,0,0,,,一時避難場所・施設
高知県,高岡郡四万十町,北ノ川中学校,高知県高岡郡四万十町大正北ノ川358-20,33.187937193262,133.04719632119,1,0,0,1,0,0,,,避難所
高知県,高岡郡四万十町,北の川集会所,高知県高岡郡四万十町,33.232854680416,132.91345640069,1,0,0,-,-,-,,,１次避難所
高知県,香南市,東上野公民館,高知県香南市野市町西野460-1,33.572129647844,133.6976245001,1,0,0,-,-,-,,,緊急避難場所
高知県,高岡郡越知町,筏津集会所,高知県高岡郡越知町筏津,33.563257681101,133.21366307258,1,0,0,-,-,-,30人,,一時避難所
高知県,高岡郡四万十町,八千数集会所,高知県高岡郡四万十町,33.211035532786,133.17823595132,1,0,0,-,-,-,,,１次避難所
高知県,高岡郡檮原町,松原ふれあいセンター,高知県高岡郡檮原町松原572,33.312028121168,132.97424198399,1,0,0,1,0,0,,,避難所
高知県,高岡郡日高村,猿田集会所,高知県高岡郡日高村沖名2026-ロ,33.515620687746,133.35757325845,-,-,-,-,-,-,,,避難場所
高知県,高岡郡津野町,中央小学校,高知県高岡郡津野町芳生野甲200-1,33.398471755335,133.02220545844,1,0,0,1,0,0,,,２次避難所
高知県,高岡郡四万十町,松葉川温泉,高知県高岡郡四万十町,33.313040820777,133.07158575777,1,0,0,-,-,-,,,１次避難所
高知県,幡多郡大月町,旧安満地小学校体育館,高知県幡多郡大月町安満地350-1,32.799940361959,132.65788831584,1,0,0,1,0,0,,,避難所
高知県,高岡郡佐川町,襟野々公民館,高知県高岡郡佐川町襟野々,33.489526770626,133.29955024062,-,-,-,-,-,-,30人,,緊急避難場所
高知県,香南市,野地公民館,高知県香南市野市町東野336-1,33.563031493425,133.7143287295,1,0,0,-,-,-,,,緊急避難場所
高知県,高岡郡四万十町,四万十町農村環境改善センター,高知県高岡郡四万十町榊山町571-7,33.211263308635,133.13866793389,1,0,0,1,0,0,,,避難所
高知県,吾川郡いの町,越裏門公民館,高知県吾川郡いの町越裏門246-6,33.728942381732,133.23441024286,1,0,0,1,0,0,,,避難所
高知県,吾川郡いの町,柏原集会所,高知県吾川郡いの町柳瀬上分184-2,33.576507227729,133.31282657383,1,0,0,1,0,0,,,避難所
高知県,南国市,香長中学校,高知県南国市大そね乙2038,33.558744990162,133.64416152709,1,0,0,1,0,0,646人,,緊急避難場所・避難所
高知県,高岡郡檮原町,中平集会所,高知県高岡郡檮原町中平327,33.330413547864,132.95510869925,1,0,0,1,0,0,,,避難所
高知県,土佐郡土佐町,和田小体育館,高知県土佐郡土佐町中和田,33.744034640224,133.50882469805,1,0,0,-,-,-,,,避難所
