都道府県,市区町村,避難所名,住所,緯度,経度,避難所,一時避難所,広域避難所,地震,風水害,津波,収容人数,備蓄品,備考
岩手県,岩手郡葛巻町,象鼻会館,岩手県岩手郡葛巻町葛巻第8地割39番地3,40.038101780814,141.44674215538,1,0,0,-,-,-,,,避難所
岩手県,釜石市,日向グランド,岩手県釜石市,39.323192460821,141.8813332529,-,-,-,1,0,0,,,緊急避難場所
岩手県,釜石市,小佐野小学校体育館,岩手県釜石市小佐野町3-5-37,39.263329881576,141.84089009491,1,0,0,1,0,1,600人,,緊急避難場所・避難者収容施設
岩手県,陸前高田市,鳴石が丘会館,岩手県陸前高田市高田町字鳴石51‐59,39.024167489778,141.63291058421,-,-,-,0,0,1,280人,,指定緊急避難場所
岩手県,北上市,藤根地区交流センター,岩手県北上市和賀町藤根14-147-3,39.316606489745,141.03057972009,1,0,0,-,-,-,60人,,震災時第１次収容避難所
岩手県,八幡平市,田山多目的グランド管理棟,岩手県八幡平市馬場下タ46-1,40.14116285501,140.95754449136,1,0,0,-,-,-,200人,,緊急避難場所
岩手県,遠野市,上宮守転作営農研修施設,岩手県遠野市宮守町上宮守1地割37番地,39.364048926166,141.41409839351,1,0,0,-,-,-,50人,,一時避難所・避難所
岩手県,久慈市,久慈市防災センター,岩手県久慈市長内町29-21-1,40.188090754301,141.78605383005,1,0,0,0,1,1,,,津波対応避難場所・指定避難場所
岩手県,陸前高田市,六ヶ浦地区（東）高台,岩手県陸前高田市広田町字六ヶ浦123‐1,38.96405559452,141.70731968229,-,-,-,0,0,1,100人,,指定緊急避難場所
岩手県,下閉伊郡岩泉町,宗得寺,岩手県下閉伊郡岩泉町小本字小本21番地イ,39.844112241213,141.96986324835,-,-,-,0,0,1,,,緊急避難場所・津波避難場所・緊急避難所
岩手県,釜石市,一の渡地区コミュニティ消防センター,岩手県釜石市甲子町第4地割177番地,39.250015617036,141.75831840809,1,0,0,0,1,1,40人,,避難者収容施設
岩手県,遠野市,上郷小学校,岩手県遠野市上郷町佐比内46-56-1,39.284743694802,141.59335457723,1,0,0,-,-,-,2410人,,避難所
岩手県,宮古市,小山田地区センター,岩手県宮古市小山田3丁目4番5号,39.631998252153,141.9400217801,1,0,0,0,1,1,,,避難所
岩手県,久慈市,山形老人福祉センター,岩手県久慈市山形町川井12-60-2,40.145180921629,141.56931777531,1,0,0,0,1,0,470人,,指定避難場所
岩手県,遠野市,小友地区センター,岩手県遠野市小友町16-105-1,39.270800999756,141.42370884894,1,0,0,-,-,-,615人,,避難所
岩手県,西磐井郡平泉町,上平泉公民館,岩手県西磐井郡平泉町平泉字善阿弥20-1,38.977851243695,141.09510141755,1,0,0,-,-,-,20人,,避難場所・避難所
岩手県,九戸郡洋野町,向田小学校,岩手県九戸郡洋野町上舘55-49-14,40.328284629159,141.60501855958,1,0,0,-,-,-,,,避難場所・指定避難所
岩手県,西磐井郡平泉町,長島小学校,岩手県西磐井郡平泉町長島字砂子沢33,38.996264715057,141.1499822461,1,0,0,1,0,0,300人,,緊急避難場所
岩手県,二戸郡一戸町,鳥越小学校体育館,岩手県二戸郡一戸町鳥越字中野平14-1,40.23864108997,141.2800254411,1,0,0,-,-,-,,,収容避難所
岩手県,二戸市,石切所小学校,岩手県二戸市石切所字田尻平4,40.257358827691,141.28791575638,1,0,0,-,-,-,,,一時避難場所・収容避難所
岩手県,下閉伊郡普代村,駅裏高台,岩手県下閉伊郡普代村,40.000813307219,141.88692567683,-,-,-,-,-,-,,,第１避難所
岩手県,大船渡市,碁石地区コミュニティーセンター,岩手県大船渡市末崎町字中森22,38.99408751164,141.7285476222,1,0,0,-,-,-,100人,,第二避難場所（避難所）
岩手県,胆沢郡金ケ崎町,三ケ尻幼稚園,岩手県胆沢郡金ケ崎町三ケ尻谷地中36-1,39.21507239434,141.10957422348,1,0,0,-,-,-,,,避難所
岩手県,釜石市,釜石中学校体育館,岩手県釜石市中妻町1丁目6番8号,39.272765191172,141.86175137286,1,0,0,1,1,1,750人,,緊急避難場所・避難者収容施設
岩手県,釜石市,君が洞高台,岩手県釜石市,39.241253615484,141.88266002871,-,-,-,0,0,1,,,緊急避難場所
岩手県,岩手郡葛巻町,星野ショートステイ事業所すみれ荘,岩手県岩手郡葛巻町,40.083820951905,141.44079426417,1,0,0,-,-,-,,,避難所
岩手県,大船渡市,吉浜地区拠点センター,岩手県大船渡市三陸町吉浜字上野93番地1,39.151165855616,141.83644557144,1,0,0,-,-,-,200人,,第一避難場所・第二避難場所（避難所）
岩手県,紫波郡矢巾町,南矢幅5区公民館,岩手県紫波郡矢巾町南矢幅11-8-4,39.605308101318,141.14823224018,1,0,0,-,-,-,,,避難所
岩手県,遠野市,土淵地区センター,岩手県遠野市土淵町土淵6-5-3,39.357348809085,141.56871234599,1,0,0,-,-,-,1100人,,避難所
岩手県,岩手郡岩手町,川口社会体育館（川口公民館）,岩手県岩手郡岩手町川口第9地割34番地,39.921492727715,141.2016054749,1,0,0,-,-,-,,,緊急避難場所
岩手県,上閉伊郡大槌町,多目的集会所,岩手県上閉伊郡大槌町小鎚第6地割17番1号,39.38459627862,141.82585209964,1,0,0,-,-,-,50人,,緊急避難場所・収容施設
岩手県,九戸郡洋野町,小子内地区センター,岩手県九戸郡洋野町小子内3-2,40.337655225613,141.76951078437,1,0,0,-,-,-,,,避難場所・指定避難所
岩手県,紫波郡紫波町,赤沢小学校,岩手県紫波郡紫波町遠山字中松原71-1,39.552055152503,141.21761893828,1,0,0,-,-,-,,,避難場所
岩手県,紫波郡矢巾町,矢巾町保健福祉交流センター,岩手県紫波郡矢巾町南矢幅14-78,39.605435580455,141.14047203574,1,0,0,-,-,-,,,避難所
岩手県,大船渡市,上山公民館,岩手県大船渡市大船渡町赤沢16-4,39.06524204164,141.71507163356,-,-,-,-,-,-,,,避難場所
岩手県,盛岡市,河北児童センター,岩手県盛岡市西下台町10番46号,39.713039969036,141.13506850379,1,0,0,-,-,-,60人,,収容避難場所
岩手県,九戸郡洋野町,種市体育館,岩手県九戸郡洋野町種市23-27,40.40785230503,141.7185862489,1,0,0,-,-,-,,,避難場所・指定避難所
岩手県,釜石市,甲子林業センター,岩手県釜石市甲子町第9地割34番地4,39.255151665787,141.79019745824,1,0,0,0,1,1,230人,,避難者収容施設
岩手県,宮古市,崎山中学校,岩手県宮古市大字崎山3字トロノ木1-1,39.678939832912,141.96160221402,1,0,0,0,0,1,,,避難所
岩手県,上閉伊郡大槌町,蓮乗寺裏山,岩手県上閉伊郡大槌町,39.36250231262,141.90265774173,-,-,-,0,1,0,,,緊急避難場所
岩手県,九戸郡野田村,沢口喜蔵様宅裏山,岩手県九戸郡野田村,40.052718350116,141.84056805985,-,-,-,-,-,-,,,緊急避難場所
岩手県,遠野市,遠野緑峰高等学校,岩手県遠野市松崎町白岩21-14-1,39.340103151609,141.55309214104,1,0,0,-,-,-,470人,,避難所
岩手県,釜石市,養護老人ホーム五葉寮,岩手県釜石市鵜住居町第2地割20番地1,39.344917424783,141.84739015672,1,0,0,0,0,1,,,避難者収容施設・福祉避難所
岩手県,下閉伊郡岩泉町,農業体験交流施設,岩手県下閉伊郡岩泉町上有芸字向平75番地,39.750700564303,141.75150904194,1,0,0,-,-,-,,,緊急避難場所・緊急避難所
岩手県,二戸市,梅田川地区生活改善センター,岩手県二戸市浄法寺町漆原14番地1,40.20593683042,141.11987530553,1,0,0,-,-,-,,,一時避難場所・収容避難所
岩手県,久慈市,田中公民館,岩手県久慈市大川目町27-117-4,40.192128470027,141.72599414721,1,0,0,0,1,0,297人,,指定避難場所
岩手県,陸前高田市,荒川地区高台,岩手県陸前高田市気仙町字町荒川69‐1,39.018234554175,141.6070694759,-,-,-,0,0,1,50人,,指定緊急避難場所
岩手県,大船渡市,鬼沢地区集会所付近,岩手県大船渡市,39.086852332043,141.80945570346,-,-,-,-,-,-,,,第一避難場所
岩手県,岩手郡葛巻町,水車の里交流館,岩手県岩手郡葛巻町江刈2-99,40.059030997017,141.49313585687,1,0,0,-,-,-,,,避難所
岩手県,上閉伊郡大槌町,吉里吉里小学校,岩手県上閉伊郡大槌町吉里吉里2-4-1,39.371796625297,141.94051982443,1,0,0,0,1,1,110人,,緊急避難場所・収容施設
岩手県,大船渡市,赤崎駅付近高台,岩手県大船渡市,39.074778737772,141.72729663037,-,-,-,-,-,-,,,第一避難場所
岩手県,二戸市,金田一コミュニティセンター舌崎分館,岩手県二戸市釜沢字高瀬1番地2,40.342163569045,141.27239218209,1,0,0,-,-,-,,,一時避難場所・収容避難所
岩手県,釜石市,尾崎神社境内,岩手県釜石市,39.280268195554,141.89357118265,-,-,-,0,0,1,,,緊急避難場所
岩手県,遠野市,鶯崎集会所,岩手県遠野市,39.328938997233,141.55014514564,-,-,-,-,-,-,,,一時避難所
岩手県,岩手郡雫石町,総合運動公園,岩手県岩手郡雫石町高前田104番地,39.700508133489,140.96418574499,-,-,-,-,-,-,,,避難場所
岩手県,気仙郡住田町,旧五葉小学校体育館,岩手県気仙郡住田町,39.201997472979,141.6502319569,1,0,0,-,-,-,,,第２次避難場所（収容所）
岩手県,宮古市,荒巻高台,岩手県宮古市,39.605802339235,142.02068863693,-,-,-,0,0,1,,,避難場所（高台）
岩手県,岩手郡雫石町,御所地区健康増進センター,岩手県岩手郡雫石町西安庭第40地割48番地9,39.661551792162,140.9678443344,-,-,-,-,-,-,,,避難場所
岩手県,下閉伊郡普代村,堀内地区漁村センター,岩手県下閉伊郡普代村,40.048405352805,141.86550099899,1,0,0,-,-,-,,,第１避難所・第２避難所
岩手県,下閉伊郡岩泉町,大川基幹集落センタ?,岩手県下閉伊郡岩泉町大川字下町117番地4,39.802012877599,141.65318478602,1,0,0,-,-,-,,,緊急避難場所・緊急避難所
岩手県,盛岡市,都南東小学校,岩手県盛岡市乙部12地割16番地1,39.61334186768,141.20136851563,1,0,0,-,-,-,5079人,,収容避難場所・広域避難広場
岩手県,紫波郡紫波町,長岡公民館,岩手県紫波郡紫波町東長岡字細工田6-8,39.583953835732,141.20245831434,1,0,0,-,-,-,,,避難場所
岩手県,和賀郡西和賀町,湯川地区公民館,岩手県和賀郡西和賀町,39.283728564453,140.77297872752,1,0,0,-,-,-,,,一次避難場所
岩手県,釜石市,愛の浜水海公園管理棟敷地,岩手県釜石市,39.298216008255,141.89490151517,-,-,-,0,0,1,,,緊急避難場所
岩手県,宮古市,大付月山神社高台,岩手県宮古市,39.67267837895,141.97411628214,-,-,-,0,0,1,,,避難場所（高台）
岩手県,北上市,江釣子勤労者体育センター,岩手県北上市北鬼柳22地割52番地3,39.291513293832,141.09706710369,1,0,0,-,-,-,200人,,震災時第１次収容避難所・震災時第２次収容避難所
岩手県,宮古市,高浜稲荷神社高台,岩手県宮古市,39.60893057857,141.95430788456,-,-,-,0,0,1,,,避難場所（高台）
岩手県,下閉伊郡岩泉町,安家小中学校,岩手県下閉伊郡岩泉町安家字松林166番地,39.986078356885,141.73749265901,1,0,0,-,-,-,,,緊急避難場所・緊急避難所
岩手県,宮古市,茂市小学校,岩手県宮古市茂市第3-80-1,39.6219823463,141.79498237192,1,0,0,0,1,0,,,避難所
岩手県,下閉伊郡岩泉町,釜津田保健福祉館,岩手県下閉伊郡岩泉町釜津田字中居村28番地,39.785412514658,141.55284683055,1,0,0,-,-,-,,,緊急避難場所・緊急避難所
岩手県,花巻市,土沢小学校,岩手県花巻市東和町土沢10-111,39.381725785631,141.24344838372,-,-,-,-,-,-,,,避難場所
岩手県,二戸郡一戸町,元平糠小学校,岩手県二戸郡一戸町平糠字東30-2,40.111017501994,141.31680219661,-,-,-,-,-,-,,,一時避難場所
岩手県,和賀郡西和賀町,本屋敷公民館,岩手県和賀郡西和賀町本屋敷48地割62番地,39.272279644034,140.85074476415,1,0,0,-,-,-,,,一次避難場所
岩手県,九戸郡九戸村,山根小学校体育館,岩手県九戸郡九戸村山根第10地割3番地4,40.188416201534,141.42660734265,1,0,0,-,-,-,,,収容避難所
岩手県,遠野市,野崎公民館,岩手県遠野市,39.365220146201,141.59325500961,-,-,-,-,-,-,,,一時避難所
岩手県,盛岡市,上田小学校,岩手県盛岡市上田三丁目16番45号,39.719003221825,141.13879022075,1,0,0,-,-,-,6105人,,指定避難場所・収容避難場所
岩手県,紫波郡紫波町,佐比内小学校,岩手県紫波郡紫波町佐比内字芳沢1,39.504697865209,141.24420172612,1,0,0,-,-,-,,,避難場所
岩手県,陸前高田市,双六公民館,岩手県陸前高田市気仙町字水上8‐2,38.98313147504,141.61988305467,-,-,-,0,0,1,60人,,指定緊急避難場所
岩手県,下閉伊郡山田町,田子の木生活改善センター,岩手県下閉伊郡山田町織笠25-72,39.442888360375,141.91343175528,1,0,0,0,1,0,12人,,避難所
岩手県,岩手郡滝沢村,滝沢村東部体育館,岩手県滝沢市大崎94-7,39.804685421756,141.14116231993,1,0,0,-,-,-,800人,,指定避難所
岩手県,大船渡市,市立博物館付近高台,岩手県大船渡市,38.988906836174,141.74190468628,-,-,-,-,-,-,,,第一避難場所
岩手県,久慈市,久慈市保健センター,岩手県久慈市川崎町11-1,40.190891602874,141.77134345446,1,0,0,0,1,0,253人,,指定避難場所
岩手県,北上市,黒岩小学校,岩手県北上市黒岩7地割47番地1,39.313473629666,141.16071899268,1,0,0,-,-,-,450人,,震災時第１次収容避難所・震災時第２次収容避難所・水害時収容避難所
岩手県,二戸市,宮向山地区転作営農研修センター,岩手県二戸市浄法寺町向田45番地2号,40.201797499434,141.17713426622,1,0,0,-,-,-,,,一時避難場所・収容避難所
岩手県,二戸郡一戸町,一戸小学校,岩手県二戸郡一戸町一戸字砂森149-13,40.210910942408,141.30039879252,1,0,0,-,-,-,,,一時避難場所・収容避難所
岩手県,紫波郡矢巾町,介護老人福祉施設悠和荘,岩手県紫波郡矢巾町広宮沢1-2-312,39.623267984621,141.08907338313,1,0,0,-,-,-,,,避難所
岩手県,九戸郡洋野町,柏木畑コミュニティセンター,岩手県九戸郡洋野町大野12-15-4,40.288767475464,141.6177248763,-,-,-,-,-,-,,,避難場所
岩手県,陸前高田市,古谷公民館,岩手県陸前高田市気仙町字古谷30,38.987758882173,141.62192426139,-,-,-,0,0,1,20人,,指定緊急避難場所
岩手県,遠野市,下組町コミュニティ消防センター,岩手県遠野市下組町6番3号,39.327311723612,141.51982903443,-,-,-,-,-,-,,,一時避難所
岩手県,大船渡市,立根小学校,岩手県大船渡市立根町字上ノ台19-2,39.114092025652,141.72058835744,1,0,0,-,-,-,300人,,第二避難場所（避難所）
岩手県,九戸郡九戸村,瀬月内集落センター,岩手県九戸郡九戸村戸田1-65-11,40.110862452301,141.44574050747,-,-,-,-,-,-,,,一時避難場所
岩手県,西磐井郡平泉町,滝ノ沢公民館,岩手県西磐井郡平泉町長島字滝の沢41,39.006668525762,141.13738807183,1,0,0,-,-,-,50人,,避難場所・避難所
岩手県,釜石市,大畑団地集会所,岩手県釜石市甲子町第9地割24番地168,39.249824841367,141.79254467216,1,0,0,0,1,1,60人,,避難者収容施設
岩手県,気仙郡住田町,天嶽コミュニティセンター,岩手県気仙郡住田町,39.188025795866,141.60694811205,-,-,-,-,-,-,,,第１次避難場所
岩手県,下閉伊郡普代村,太田名部砂防堰堤前広場・（旧大村耕一宅付近）,岩手県下閉伊郡普代村,40.008300059784,141.89850749352,-,-,-,-,-,-,,,第１避難所
岩手県,宮古市,宮古漁協ビル駐車場高台,岩手県宮古市,39.640687633258,141.96686856282,-,-,-,0,0,1,,,避難場所（高台）
岩手県,西磐井郡平泉町,16区公民館,岩手県西磐井郡平泉町長島字新田32-1,38.9977057517,141.14127155233,1,0,0,-,-,-,60人,,緊急避難場所
岩手県,遠野市,清養園クリーンセンター,岩手県遠野市綾織町新里18-75-1,39.320849883402,141.47470855505,1,0,0,-,-,-,409人,,避難所
岩手県,釜石市,栗林小学校体育館,岩手県釜石市栗林町16-46,39.35078314243,141.82770845456,1,0,0,1,1,1,350人,,緊急避難場所・避難者収容施設
岩手県,遠野市,ふるさと交流館,岩手県遠野市宮守町下鱒沢21-137-6,39.303696202755,141.37755335608,1,0,0,-,-,-,100人,,避難所
岩手県,下閉伊郡岩泉町,岩泉町保健センター,岩手県下閉伊郡岩泉町岩泉字松橋24番地11,39.84245603533,141.79534443573,1,0,0,-,-,-,,,緊急避難場所・緊急避難所
岩手県,岩手郡雫石町,七ツ森保育所,岩手県岩手郡雫石町板橋104番地1,39.695196408597,141.01610959532,-,-,-,-,-,-,,,避難場所
岩手県,宮古市,舘合近隣公園高台,岩手県宮古市,39.642480563321,141.94162455031,-,-,-,0,0,1,,,避難場所（高台）
岩手県,盛岡市,大新小学校,岩手県盛岡市南青山町6番10号,39.718228501157,141.11449405114,1,0,0,-,-,-,5687人,,指定避難場所・収容避難場所
岩手県,大船渡市,福祉の里センター,岩手県大船渡市立根町字田ノ上30-20,39.101896150911,141.71825591557,-,-,-,-,-,-,,,避難場所
岩手県,陸前高田市,二日市公民館,岩手県陸前高田市気仙町字丑沢30‐2,38.996782840162,141.61821591238,-,-,-,0,0,1,20人,,指定緊急避難場所
岩手県,久慈市,大川目北部公民館,岩手県久慈市大川目町13-104-2,40.181560034634,141.71472302292,1,0,0,0,1,0,,,指定避難場所
岩手県,盛岡市,芋田地区コミュニティセンター,岩手県盛岡市玉山区芋田字下芋田109番地2,39.866401174694,141.17703989062,1,0,0,-,-,-,39人,,収容避難場所
岩手県,紫波郡矢巾町,南矢幅4区公民館,岩手県紫波郡矢巾町南矢幅14-15-196,39.604830331723,141.14440766725,1,0,0,-,-,-,,,避難所
岩手県,宮古市,出羽神社高台,岩手県宮古市,39.736974681526,141.97808228357,-,-,-,0,0,1,,,避難場所（高台）
岩手県,釜石市,箱崎仮設市民相談所,岩手県釜石市箱崎町第8地割12番2,39.320869144263,141.91577973194,1,0,0,0,1,0,25人,,避難者収容施設
岩手県,二戸市,漆沢地区生活改善センター,岩手県二戸市浄法寺町漆沢下モ前田1番地2,40.205816478087,141.18332520382,1,0,0,-,-,-,,,一時避難場所・収容避難所
岩手県,釜石市,大松地区コミュニティ消防センター,岩手県釜石市甲子町第3地割162番地2,39.254012225594,141.74285073117,1,0,0,0,1,1,30人,,避難者収容施設
岩手県,西磐井郡平泉町,コミュニティセンター潤いの郷「悠悠」,岩手県西磐井郡平泉町長島字山谷62-3,38.989859701038,141.15311811673,1,0,0,-,-,-,50人,,避難場所・避難所
岩手県,宮古市,川井トレーニングセンター,岩手県宮古市,39.510858420384,141.67083931419,1,0,0,0,1,0,,,避難所
岩手県,花巻市,老人福祉センター,岩手県花巻市湯口字松原36-30,39.409856078452,141.01429893067,-,-,-,-,-,-,,,避難場所
岩手県,岩手郡滝沢村,滝沢勤労青少年ホーム,岩手県滝沢市滝沢字葉の木沢山460番地1号,39.776642514937,141.14194622415,1,0,0,-,-,-,200人,,指定避難所
岩手県,久慈市,小久慈小学校,岩手県久慈市小久慈町24-51,40.170636732442,141.74827912149,1,0,0,0,1,0,4277人,,指定避難場所
岩手県,八幡平市,鷲連寺,岩手県八幡平市,39.96125117308,141.05455712535,1,0,0,-,-,-,100人,,緊急避難場所
岩手県,花巻市,八日市いきいき交流館（八日市振興センター）,岩手県花巻市石鳥谷町大興寺8-157-4,39.477764247477,141.11849166547,1,0,0,-,-,-,,,拠点避難所・二次的な避難所/避難場所
岩手県,大船渡市,洞雲寺,岩手県大船渡市,39.082275295972,141.70644837818,1,0,0,-,-,-,150人,,第二避難場所（避難所）
岩手県,宮古市,和井内ふるさと会館,岩手県宮古市和井内第17地割64番地2,39.685428976373,141.71612088364,1,0,0,0,1,0,,,避難所
岩手県,陸前高田市,中陣地区高台,岩手県陸前高田市米崎町字脇の沢44‐3,39.00627754086,141.65790872832,-,-,-,0,0,1,200人,,指定緊急避難場所
岩手県,岩手郡雫石町,雫石中学校,岩手県岩手郡雫石町柿木74番地1,39.695981198101,140.96852897324,1,0,0,-,-,-,,,避難場所・避難所
岩手県,盛岡市,盛岡第一高等学校,岩手県盛岡市上田三丁目2番1号,39.713953956455,141.14206503419,1,0,0,0,1,0,4960人,,収容避難場所
岩手県,気仙郡住田町,天風バス停付近,岩手県気仙郡住田町,39.160561972243,141.54386456619,-,-,-,-,-,-,,,第１次避難場所
岩手県,上閉伊郡大槌町,迫又団地高台,岩手県上閉伊郡大槌町,39.370594653089,141.89817975768,-,-,-,0,1,1,,,緊急避難場所
岩手県,下閉伊郡普代村,中村良一宅付近,岩手県下閉伊郡普代村,40.000168268791,141.8813844574,-,-,-,-,-,-,,,第１避難所
岩手県,紫波郡矢巾町,煙山保育園,岩手県紫波郡矢巾町上矢次7-29-1,39.622783389773,141.14167708319,1,0,0,-,-,-,,,避難所
岩手県,上閉伊郡大槌町,勤労青少年体育センター,岩手県上閉伊郡大槌町小鎚第23地割22番,39.358063776937,141.88032582338,1,0,0,-,-,-,290人,,収容施設
岩手県,宮古市,鍬ヶ崎小学校,岩手県宮古市熊野町6-33,39.649754748164,141.96533853674,1,0,0,0,0,1,,,避難場所（高台）・避難所
岩手県,気仙郡住田町,住田町役場駐車場,岩手県気仙郡住田町,39.142089701659,141.57612141071,-,-,-,-,-,-,,,第１次避難場所
岩手県,釜石市,仙寿院,岩手県釜石市,39.277117322297,141.88343235829,-,-,-,1,0,1,,,緊急避難場所
岩手県,久慈市,大川目公民館,岩手県久慈市大川目町8-10-2,40.177032854927,141.71868127697,1,0,0,0,1,0,641人,,指定避難場所
岩手県,宮古市,花輪小学校,岩手県宮古市大字花輪4-26,39.608777631045,141.89901229194,1,0,0,0,1,1,,,避難所
岩手県,八幡平市,渋川小学校,岩手県八幡平市大更39-139,39.929494676411,141.12831799065,1,0,0,-,-,-,620人,,緊急避難場所
岩手県,遠野市,和野地区コミュニティ消防センター,岩手県遠野市附馬牛町下附馬牛19地割1番地2,39.426970127513,141.52924656544,-,-,-,-,-,-,,,一時避難所
岩手県,釜石市,花露辺漁村センター,岩手県釜石市,39.213174752634,141.89806579316,-,-,-,0,1,1,,,緊急避難場所
岩手県,盛岡市,乙部体育館,岩手県盛岡市乙部6地割79番1,39.616060182089,141.19314318443,1,0,0,-,-,-,154人,,収容避難場所
岩手県,和賀郡西和賀町,蛭子森公民館,岩手県和賀郡西和賀町沢内字泉沢2地割6番地4,39.470202794872,140.78236183114,1,0,0,-,-,-,,,一次避難場所
岩手県,久慈市,大神宮,岩手県久慈市八日町2-73,40.19097084413,141.76148044427,1,0,0,0,1,0,49人,,指定避難場所
岩手県,上閉伊郡大槌町,吉祥寺三光殿,岩手県上閉伊郡大槌町,39.373172801005,141.93652462437,1,0,0,-,-,-,150人,,収容施設
岩手県,陸前高田市,金剛寺高台,岩手県陸前高田市気仙町字町裏26‐1,39.011914362085,141.6140935741,-,-,-,0,0,1,50人,,指定緊急避難場所
岩手県,宮古市,総合福祉センター,岩手県宮古市小山田2-9-20,39.634945079287,141.93988562419,1,0,0,0,1,1,,,避難所
岩手県,北上市,羽山ふれあいセンター,岩手県北上市和賀町岩沢9地割1-3,39.301020935142,140.93147442781,1,0,0,-,-,-,50人,,震災時第１次収容避難所・震災時第２次収容避難所
岩手県,九戸郡洋野町,水沢生活改善センター,岩手県九戸郡洋野町水沢9-8-2,40.243151641211,141.65971645638,1,0,0,-,-,-,,,避難場所・指定避難所
岩手県,二戸市,金田一温泉公民館,岩手県二戸市,40.323905932422,141.31559008485,1,0,0,-,-,-,,,収容避難所
岩手県,釜石市,森団地高台,岩手県釜石市,39.331681682058,141.8805973855,-,-,-,0,0,1,,,緊急避難場所
岩手県,陸前高田市,NTT塔付近高台,岩手県陸前高田市矢作町字大嶋部162,39.026669931815,141.60779218285,-,-,-,0,0,1,30人,,指定緊急避難場所
岩手県,下閉伊郡岩泉町,大川地区総合交流センタ?,岩手県下閉伊郡岩泉町大川字下町65番地1,39.802693516976,141.65867036629,1,0,0,-,-,-,,,緊急避難場所・緊急避難所
岩手県,久慈市,へいのくち公民館,岩手県久慈市夏井町閉伊口7-12-7,40.217659786345,141.79022718744,1,0,0,0,1,1,,,津波対応避難場所・指定避難場所
岩手県,宮古市,杉下宅付近高台,岩手県宮古市,39.734906389831,141.96666089522,-,-,-,0,0,1,,,避難場所（高台）
岩手県,岩手郡岩手町,沼宮内保育所,岩手県岩手郡岩手町大字江刈内9-65-17,39.969237410879,141.22038200416,1,0,0,-,-,-,,,緊急避難場所
岩手県,北上市,黒沢尻西小学校,岩手県北上市本石町一丁目6番71号,39.29063599565,141.11327966407,1,0,0,-,-,-,900人,,震災時第１次収容避難所・震災時第２次収容避難所・水害時収容避難所
岩手県,九戸郡洋野町,大野小学校,岩手県九戸郡洋野町大野9-1-1,40.285476356262,141.62566586506,1,0,0,-,-,-,,,避難場所・指定避難所
岩手県,大船渡市,野形郷土文化保存伝習施設（野形不動七福会館）,岩手県大船渡市,39.055865427307,141.78766374599,1,0,0,-,-,-,50人,,第二避難場所（避難所）
岩手県,久慈市,立正寺,岩手県久慈市大沢9-40-10,40.188593092368,141.74935918075,1,0,0,0,1,0,70人,,指定避難場所
岩手県,北上市,和賀西中学校,岩手県北上市和賀町横川目13地割64番地1,39.311507428971,140.97726210807,1,0,0,-,-,-,650人,,震災時第１次収容避難所・震災時第２次収容避難所・水害時収容避難所
岩手県,岩手郡葛巻町,田代コミュニティセンタ?,岩手県岩手郡葛巻町葛巻第21地割95番地6,40.045691876457,141.41777723649,1,0,0,-,-,-,,,避難所
岩手県,和賀郡西和賀町,猿橋公民館,岩手県和賀郡西和賀町沢内字猿橋33地割84番地,39.445194483886,140.75887528592,1,0,0,-,-,-,,,一次避難場所
岩手県,二戸市,金田一中学校,岩手県二戸市金田一字野月55,40.313181963102,141.30224840933,1,0,0,-,-,-,,,一時避難場所・収容避難所
岩手県,岩手郡滝沢村,柳沢地区コミュニティセンター,岩手県滝沢市滝沢字大石渡1522番地6,39.803246439139,141.09354533833,1,0,0,-,-,-,100人,,指定避難所
岩手県,下閉伊郡岩泉町,いわいずみこども園,岩手県下閉伊郡岩泉町岩泉字三本松7-6,39.845727881206,141.79740805417,1,0,0,-,-,-,,,緊急避難場所・緊急避難所
岩手県,岩手郡雫石町,橋場小学校,岩手県岩手郡雫石町橋場安栖63番地2,39.694449240787,140.88910673446,1,0,0,-,-,-,,,避難場所・避難所
岩手県,釜石市,釜石市球技場（旧松倉グラウンド）,岩手県釜石市,39.254298674743,141.8083204516,-,-,-,1,0,0,,,緊急避難場所
岩手県,久慈市,夏井小学校,岩手県久慈市夏井町夏井3-57-1,40.224497626153,141.75232995627,1,0,0,-,-,-,1844人,,指定避難場所
岩手県,下閉伊郡岩泉町,小川生活改善センタ?,岩手県下閉伊郡岩泉町門字町66番地1,39.876995434052,141.64941323375,1,0,0,-,-,-,,,緊急避難場所・緊急避難所
岩手県,下閉伊郡岩泉町,小本農村婦人の家,岩手県下閉伊郡岩泉町小本字鈩244番地,39.845820319623,141.96065551277,1,0,0,0,0,1,,,緊急避難場所・緊急避難所
岩手県,盛岡市,薮川小学校,岩手県盛岡市玉山区薮川字町村98-2,39.84901880862,141.45147196998,1,0,0,-,-,-,3081人,,指定避難場所・収容避難場所
岩手県,紫波郡紫波町,水分公民館,岩手県紫波郡紫波町吉水字小深田69-1,39.568741343839,141.10527722246,1,0,0,-,-,-,,,避難場所
岩手県,宮古市,堀丁高台,岩手県宮古市,39.744280467737,141.97406034125,-,-,-,0,0,1,,,避難場所（高台）
岩手県,九戸郡野田村,障子上一男様宅,岩手県九戸郡野田村,40.102404190634,141.81645650916,-,-,-,-,-,-,,,緊急避難場所
岩手県,岩手郡葛巻町,葛巻町総合センター,岩手県岩手郡葛巻町葛巻第16地割1番地1,40.039923685479,141.43640666118,1,0,0,-,-,-,,,避難所
岩手県,遠野市,上鱒沢地区集会所,岩手県遠野市宮守町上鱒沢19地割105番地1,39.309757944596,141.42881283642,1,0,0,-,-,-,50人,,一時避難所・避難所
岩手県,大船渡市,吉野町公民館,岩手県大船渡市盛町字権現堂3-6,39.090541638187,141.70534369686,-,-,-,-,-,-,,,避難場所
岩手県,和賀郡西和賀町,鍵飯公民館,岩手県和賀郡西和賀町沢内字鍵飯18地割95番地2,39.408591929756,140.76308743554,1,0,0,-,-,-,,,一次避難場所
岩手県,八幡平市,大更小学校,岩手県八幡平市大更21-70,39.90850228605,141.10126309473,1,0,0,-,-,-,1400人,,緊急避難場所
岩手県,大船渡市,山村広場,岩手県大船渡市,39.11953143289,141.81759124534,-,-,-,-,-,-,,,第一避難場所
岩手県,遠野市,土淵中学校,岩手県遠野市土淵町土淵4-21-6,39.357226838872,141.57711708597,1,0,0,-,-,-,450人,,避難所
岩手県,上閉伊郡大槌町,吉里吉里中学校,岩手県上閉伊郡大槌町吉里吉里1-215,39.366041715651,141.9432615127,1,0,0,0,1,1,290人,,緊急避難場所・収容施設
岩手県,和賀郡西和賀町,新町地区公民館,岩手県和賀郡西和賀町沢内字新町11地割16番地5,39.398001570019,140.75614982385,1,0,0,-,-,-,,,一次避難場所
岩手県,陸前高田市,仲の沢公民館,岩手県陸前高田市竹駒町字仲の沢36,39.035611909576,141.61506485357,-,-,-,0,0,1,30人,,指定緊急避難場所
岩手県,宮古市,愛宕小学校,岩手県宮古市愛宕1-4-6,39.64372764818,141.96192511685,1,0,0,0,1,1,,,避難所
岩手県,釜石市,早栃集会所,岩手県釜石市橋野町第42地割8番地1,39.350973791396,141.7838285834,1,0,0,0,1,1,50人,,避難者収容施設
岩手県,九戸郡洋野町,小橋公民館,岩手県九戸郡洋野町種市23-169,40.417054032976,141.71337532211,-,-,-,-,-,-,,,避難場所
岩手県,遠野市,駒木地区コミュニティ消防センター,岩手県遠野市松崎町駒木6地割84番地5,39.374330060816,141.55882637755,-,-,-,-,-,-,,,一時避難所
岩手県,紫波郡紫波町,日詰こどもの家,岩手県紫波郡紫波町日詰西一丁目2-9,39.553581376444,141.16664064998,1,0,0,-,-,-,,,避難場所
岩手県,盛岡市,大ヶ生ふるさと学習センター,岩手県盛岡市大ケ生24地割73番12,39.614637092499,141.23481222965,-,-,-,-,-,-,3814人,,指定避難場所
岩手県,大船渡市,大豆沢高台,岩手県大船渡市,38.99060935906,141.73513148018,-,-,-,-,-,-,,,第一避難場所
岩手県,大船渡市,大船渡地区公民館,岩手県大船渡市大船渡町字明神前10-14,39.061900671918,141.7132274252,1,0,0,-,-,-,300人,,第一避難場所・第二避難場所（避難所）
岩手県,北上市,村崎野体育館,岩手県北上市北工業団地1地割7番地,39.329782084984,141.12164435307,1,0,0,-,-,-,350人,,震災時第１次収容避難所・水害時収容避難所
岩手県,西磐井郡平泉町,下達谷公民館,岩手県西磐井郡平泉町平泉字北沖3-1,38.972973230373,141.07670601069,1,0,0,-,-,-,40人,,緊急避難場所
岩手県,久慈市,来内地区集落センター,岩手県久慈市山形町来内22-49-6,40.110969516631,141.50315850312,1,0,0,0,1,0,200人,,指定避難場所
岩手県,下閉伊郡山田町,田名部林業担い手センター,岩手県下閉伊郡山田町豊間根10-26-1,39.514680978114,141.93778847587,1,0,0,0,1,0,,,避難所
岩手県,下閉伊郡岩泉町,老人憩の家栢白荘,岩手県下閉伊郡岩泉町袰綿字本町66番地5,39.853940488108,141.68810406167,1,0,0,-,-,-,,,緊急避難場所・緊急避難所
岩手県,釜石市,荒川消防屯所,岩手県釜石市,39.193273194575,141.8601714656,-,-,-,0,0,1,,,緊急避難場所
岩手県,宮古市,八幡神社高台,岩手県宮古市,39.53520685315,141.65044700339,-,-,-,0,0,1,,,避難場所（高台）
岩手県,久慈市,桑畑漁村センター,岩手県久慈市侍浜町桑畑5-1-2,40.288508117667,141.79061486089,1,0,0,0,1,0,193人,,指定避難場所
岩手県,下閉伊郡山田町,B&G山田海洋センター,岩手県下閉伊郡山田町船越9-10-1,39.440023607876,141.98298133381,1,0,0,0,0,1,60人,,避難場所・避難所
岩手県,陸前高田市,市立長部保育所,岩手県陸前高田市気仙町字牧田8,38.98795597507,141.61936898123,-,-,-,0,0,1,400人,,指定緊急避難場所
岩手県,九戸郡九戸村,泥の木地区集落センター,岩手県九戸郡九戸村戸田21-49-5,40.143262938961,141.42317766493,-,-,-,-,-,-,,,一時避難場所
岩手県,下閉伊郡岩泉町,岩泉小学校,岩手県下閉伊郡岩泉町岩泉字和川原4番地2,39.849105046353,141.78988913646,1,0,0,-,-,-,,,緊急避難場所・緊急避難所
岩手県,北上市,江釣子小学校,岩手県北上市上江釣子16地割200番地,39.299592534358,141.0718547194,1,0,0,-,-,-,900人,,震災時第１次収容避難所・震災時第２次収容避難所
岩手県,九戸郡九戸村,江刺家小学校体育館,岩手県九戸郡九戸村江刺家第10地割2番地2,40.253806053382,141.41175903735,1,0,0,-,-,-,,,収容避難所
岩手県,盛岡市,山王児童センター・山王老人福祉センター,岩手県盛岡市山王町10番25号,39.700147823204,141.16503562341,1,0,0,-,-,-,115人,,収容避難場所
岩手県,陸前高田市,長部地区コミュニティセンター（漁村センター）,岩手県陸前高田市気仙町字牧田17,38.988314266813,141.61725195098,1,0,0,-,-,-,215人,,指定避難所
岩手県,陸前高田市,八坂神社,岩手県陸前高田市気仙町字要谷32,38.980817942349,141.62381049048,-,-,-,0,0,1,40人,,指定緊急避難場所
岩手県,釜石市,仮宿高台,岩手県釜石市,39.317750740998,141.94427113054,-,-,-,0,0,1,,,緊急避難場所
岩手県,岩手郡滝沢村,滝沢第二中学校,岩手県滝沢市滝沢字巣子152-91,39.798979349984,141.1378617,1,0,0,-,-,-,700人,,指定避難所
岩手県,陸前高田市,平畑公民館,岩手県陸前高田市広田町字平畑178,38.963072250199,141.70595874335,-,-,-,0,0,1,30人,,指定緊急避難場所
岩手県,西磐井郡平泉町,平泉小学校,岩手県西磐井郡平泉町平泉字倉町155,38.986247937852,141.10915553477,1,0,0,1,0,0,300人,,緊急避難場所
岩手県,盛岡市,好摩小学校,岩手県盛岡市玉山区好摩字夏間木70-60,39.873533034124,141.16876787364,1,0,0,-,-,-,4150人,,指定避難場所・収容避難場所
岩手県,大船渡市,坂本沢林業構造改善センター（坂本沢地域公民館）,岩手県大船渡市日頃市町字坂本沢104番地3,39.130222154422,141.6614180324,1,0,0,-,-,-,30人,,第二避難場所（避難所）
岩手県,釜石市,花露辺集会所,岩手県釜石市,39.210342599596,141.89266382927,-,-,-,0,0,1,,,緊急避難場所
岩手県,盛岡市,乙部児童センター,岩手県盛岡市乙部8地割3番4号,39.61478885285,141.2005129736,1,0,0,-,-,-,67人,,収容避難場所
岩手県,遠野市,新張7区自治会館,岩手県遠野市,39.342738006421,141.53782530939,-,-,-,-,-,-,,,一時避難所
岩手県,九戸郡洋野町,平内公民館,岩手県九戸郡洋野町種市34-73,40.423249864084,141.6955354957,1,0,0,-,-,-,,,避難場所・指定避難所
岩手県,大船渡市,県立大船渡病院,岩手県大船渡市大船渡町字山馬越10-1,39.072710311954,141.70738041179,-,-,-,-,-,-,,,避難場所
岩手県,下閉伊郡岩泉町,肘葛地区生涯学習センター,岩手県下閉伊郡岩泉町下有芸字肘葛11番地,39.766530837354,141.87642362028,1,0,0,-,-,-,,,緊急避難場所・緊急避難所
岩手県,遠野市,鷹鳥屋地区コミュニティ消防センター,岩手県遠野市小友町43-201-1,39.288569753739,141.46338844157,1,0,0,-,-,-,98人,,一時避難所・避難所
岩手県,宮古市,宮古小学校,岩手県宮古市横町5-1,39.64505230796,141.94914021183,1,0,0,0,1,1,,,避難所
岩手県,大船渡市,立根保育園,岩手県大船渡市,39.114553637347,141.71926795275,1,0,0,-,-,-,50人,,第二避難場所（避難所）
岩手県,久慈市,生平公民館,岩手県久慈市夏井町夏井4-28-1,40.228163708162,141.74397490243,1,0,0,-,-,-,52人,,指定避難場所
岩手県,大船渡市,南区公民館,岩手県大船渡市,39.116709042361,141.8086190864,1,0,0,-,-,-,30人,,第一避難場所・第二避難場所（避難所）
岩手県,陸前高田市,光照寺,岩手県陸前高田市高田町字寒風60,39.018919120389,141.63784645633,-,-,-,0,0,1,540人,,指定緊急避難場所
岩手県,花巻市,浮田振興センター,岩手県花巻市東和町上浮田2-140,39.324204064775,141.21994149548,1,0,0,-,-,-,,,拠点避難所・二次的な避難所/避難場所
岩手県,遠野市,山谷地区コミュニティ消防センター,岩手県遠野市,39.276608375395,141.43524023194,-,-,-,-,-,-,,,一時避難所
岩手県,気仙郡住田町,中井公民館,岩手県気仙郡住田町,39.148847629097,141.46891104364,-,-,-,-,-,-,,,第１次避難場所
岩手県,二戸市,御返地生活改善センター,岩手県二戸市安比字上大簗平4-2,40.233628164491,141.22090057637,1,0,0,-,-,-,,,一時避難場所・収容避難所
岩手県,盛岡市,玉山商工会館,岩手県盛岡市玉山区好摩字芋田向85-29,39.864651145945,141.1672632272,1,0,0,-,-,-,50人,,収容避難場所
岩手県,下閉伊郡岩泉町,龍ちゃんドーム,岩手県下閉伊郡岩泉町岩泉字中野8番地2,39.843650150013,141.78969769799,1,0,0,-,-,-,,,緊急避難場所・緊急避難所
岩手県,西磐井郡平泉町,4区ふれあいセンター,岩手県西磐井郡平泉町平泉字上窟44-2,38.967317307429,141.05157530509,1,0,0,-,-,-,30人,,避難場所・避難所
岩手県,盛岡市,巻堀児童館,岩手県盛岡市玉山区巻堀字巻堀101-1,39.892306938919,141.19548758785,1,0,0,-,-,-,41人,,収容避難場所
岩手県,盛岡市,厨川中学校,岩手県盛岡市青山二丁目7番1号,39.723527140567,141.11548943388,1,0,0,-,-,-,8242人,,指定避難場所・収容避難場所
岩手県,陸前高田市,米崎小学校体育館,岩手県陸前高田市米崎町字川内1,39.016793084871,141.66291912265,1,0,0,-,-,-,299人,,指定避難所
岩手県,岩手郡岩手町,道の駅石神の丘,岩手県岩手郡岩手町大字五日市10-121-20,39.968862258504,141.21327156809,1,0,0,-,-,-,,,緊急避難場所
岩手県,上閉伊郡大槌町,生活改善センター,岩手県上閉伊郡大槌町金沢第30地割35番2号,39.434490369677,141.81322383869,1,0,0,-,-,-,40人,,収容施設
岩手県,陸前高田市,長部地区コミュニティセンター（漁村センター）,岩手県陸前高田市気仙町字牧田17,38.989180761735,141.61670526056,-,-,-,0,0,1,300人,,指定緊急避難場所
岩手県,盛岡市,米内中学校,岩手県盛岡市桜台二丁目19番1号,39.748481872097,141.19777495464,1,0,0,-,-,-,7057人,,収容避難場所・広域避難広場
岩手県,宮古市,長沢農村センター,岩手県宮古市長沢第16地割123番地8,39.601969927657,141.88854987949,1,0,0,0,1,0,,,避難所
岩手県,岩手郡葛巻町,江刈小学校,岩手県岩手郡葛巻町江刈10-206-12,40.013491393663,141.46718340911,1,0,0,-,-,-,,,避難所
岩手県,盛岡市,生出小学校,岩手県盛岡市玉山区下田字仲平59-36,39.859933910439,141.12439926489,1,0,0,-,-,-,4176人,,指定避難場所・収容避難場所
岩手県,陸前高田市,小ヶ口公民館,岩手県陸前高田市小友町字小ヶ口74,38.983812214578,141.70142144813,-,-,-,0,0,1,20人,,指定緊急避難場所
岩手県,西磐井郡平泉町,平泉町公民館,岩手県西磐井郡平泉町平泉字花立9-5,38.995335790909,141.10963280719,1,0,0,1,0,0,200人,,緊急避難場所
岩手県,盛岡市,緑の里近隣公園,岩手県盛岡市北松園一丁目23番1号,39.75525963457,141.17211148969,-,-,-,-,-,-,14390人,,広域避難広場
岩手県,二戸市,長嶺児童会館,岩手県二戸市,40.281490069878,141.29943111137,1,0,0,-,-,-,,,収容避難所
岩手県,九戸郡洋野町,泥濘地区センター,岩手県九戸郡洋野町大野25-63-52,40.314389865113,141.61896142165,1,0,0,-,-,-,,,避難場所・指定避難所
岩手県,陸前高田市,天ケ森公民館,岩手県陸前高田市広田町字中沢19‐3,38.95592688147,141.69478890468,-,-,-,0,0,1,30人,,指定緊急避難場所
岩手県,胆沢郡金ケ崎町,街地区体育館,岩手県胆沢郡金ケ崎町西根南町22-3,39.195735967018,141.11553796502,1,0,0,-,-,-,,,避難所
岩手県,陸前高田市,久野地区高台,岩手県陸前高田市米崎町字堂の前138‐1,39.005199536994,141.6739026284,-,-,-,0,0,1,200人,,指定緊急避難場所
岩手県,胆沢郡金ケ崎町,北部地区生涯教育センター,岩手県胆沢郡金ケ崎町六原赤石34-5,39.23135801449,141.06364950715,1,0,0,-,-,-,,,避難所
岩手県,岩手郡雫石町,鴬宿グラウンド,岩手県岩手郡雫石町南畑男助山1番地29,39.645377981632,140.9435361478,-,-,-,-,-,-,,,避難場所
岩手県,宮古市,宮古消防署前,岩手県宮古市,39.647576461743,141.94685430004,-,-,-,0,0,1,,,避難場所（高台）
岩手県,陸前高田市,市斎苑駐車場,岩手県陸前高田市高田町字長砂58,39.017742291485,141.63926823345,-,-,-,0,0,1,2600人,,指定緊急避難場所
岩手県,紫波郡紫波町,水分児童館,岩手県紫波郡紫波町吉水字中村66-7,39.568421901556,141.10585498064,1,0,0,-,-,-,,,避難場所
岩手県,九戸郡洋野町,蒲の口地区センター,岩手県九戸郡洋野町大野57-41,40.27097942606,141.67295354653,1,0,0,-,-,-,,,避難場所・指定避難所
岩手県,宮古市,中野地区総合センター,岩手県宮古市刈屋第13地割15番地2,39.643393526904,141.76245649307,1,0,0,0,1,0,,,避難所
岩手県,釜石市,嬉石地区集会所,岩手県釜石市嬉石町一丁目6番10号,39.263261029902,141.88820215852,1,0,0,0,1,1,80人,,避難者収容施設
岩手県,宮古市,宮古商業高等学校高台,岩手県宮古市,39.617823151429,141.95767285593,-,-,-,0,0,1,,,避難場所（高台）
岩手県,遠野市,宮守小学校,岩手県遠野市宮守町下宮守26-6,39.348621422714,141.35428140958,1,0,0,-,-,-,500人,,避難所
岩手県,胆沢郡金ケ崎町,金ケ崎小学校,岩手県胆沢郡金ケ崎町西根大谷120,39.199351962325,141.10493334343,1,0,0,-,-,-,,,避難所
岩手県,下閉伊郡普代村,普代村役場,岩手県下閉伊郡普代村,40.005144840229,141.88598892744,1,0,0,-,-,-,,,指定緊急避難場所・指定避難所
岩手県,九戸郡洋野町,舘山地区センター,岩手県九戸郡洋野町大野34-471,40.327069702384,141.67640495294,1,0,0,-,-,-,,,避難場所・指定避難所
岩手県,遠野市,迷岡地区集会所,岩手県遠野市宮守町下鱒沢6地割132番地,39.330029489902,141.37767183007,1,0,0,-,-,-,100人,,一時避難所・避難所
岩手県,久慈市,畑田・沢里公民館,岩手県久慈市畑田24-52-2,40.193956239016,141.73599887505,1,0,0,0,1,0,50人,,指定避難場所
岩手県,西磐井郡平泉町,祗園公民館,岩手県西磐井郡平泉町平泉字上野台283-7,38.979496109259,141.11754978798,1,0,0,-,-,-,70人,,緊急避難場所
岩手県,陸前高田市,三日市地区高台,岩手県陸前高田市小友町字冥加沢28‐1,39.001600955132,141.67731823785,-,-,-,0,0,1,100人,,指定緊急避難場所
岩手県,宮古市,下刈屋地区総合センター,岩手県宮古市刈屋第15地割92番地1,39.638785492839,141.7727865015,1,0,0,0,1,0,,,避難所
岩手県,二戸郡一戸町,根反自治公民館,岩手県二戸郡一戸町,40.19145316679,141.32235273021,-,-,-,-,-,-,,,一時避難場所
岩手県,釜石市,釜石市老人福祉センター,岩手県釜石市甲子町第8地割178番地,39.250766271488,141.78967909193,1,0,0,0,0,1,,,避難者収容施設・福祉避難所
岩手県,二戸市,浄法寺文化交流センター,岩手県二戸市浄法寺町下前田30-1,40.184315901828,141.15642280662,1,0,0,-,-,-,,,一時避難場所・収容避難所
岩手県,北上市,黒沢尻東地区交流センター,岩手県北上市中野町1-5-46,39.287806023618,141.12461203471,1,0,0,-,-,-,90人,,震災時第１次収容避難所
岩手県,九戸郡軽米町,青少年ホーム,岩手県九戸郡軽米町大字軽米2-42-5,40.318182940153,141.47630644331,1,0,0,-,-,-,,,指定避難場所
岩手県,二戸市,福岡中学校,岩手県二戸市福岡字下川又22-1,40.272407186511,141.30536067093,1,0,0,-,-,-,,,一時避難場所・収容避難所
岩手県,紫波郡紫波町,彦部児童館,岩手県紫波郡紫波町彦部字暮坪176-1,39.52852139608,141.19178904912,1,0,0,-,-,-,,,避難場所
岩手県,紫波郡紫波町,水分小学校,岩手県紫波郡紫波町吉水字小深田57,39.568827400254,141.10424951008,1,0,0,-,-,-,,,避難場所
岩手県,八幡平市,平舘高等学校,岩手県八幡平市平舘25-6,39.94137039422,141.09207915702,1,0,0,-,-,-,,,緊急避難場所
岩手県,宮古市,藤原小学校,岩手県宮古市藤原上町1-37,39.636667394564,141.95647576992,1,0,0,0,1,1,,,避難所（施設）
岩手県,下閉伊郡山田町,保健センター,岩手県下閉伊郡山田町八幡町3-20,39.468159668628,141.94940990812,1,0,0,0,0,1,20人,,避難場所・避難所
岩手県,大船渡市,末崎小学校,岩手県大船渡市末崎町字山岸122,39.004996162441,141.71770062165,1,0,0,-,-,-,300人,,第二避難場所（避難所）
岩手県,気仙郡住田町,大股地区公民館,岩手県気仙郡住田町世田米字下大股66番地1,39.141361105261,141.48777758837,-,-,-,-,-,-,,,第１次避難場所
岩手県,盛岡市,岩洞活性化センター,岩手県盛岡市玉山区薮川字外山35-45,39.828024908184,141.36320102003,1,0,0,-,-,-,128人,,収容避難場所
岩手県,久慈市,山形小学校,岩手県久慈市山形町川井10-13-1,40.147955566051,141.56735675051,1,0,0,-,-,-,3227人,,指定避難場所
岩手県,宮古市,大沢若宮神社高台,岩手県宮古市,39.661630001421,141.96743336386,-,-,-,0,0,1,,,避難場所（高台）
岩手県,宮古市,熊野神社高台（熊野町）,岩手県宮古市,39.650809663411,141.96818821075,-,-,-,0,0,1,,,避難場所（高台）
岩手県,大船渡市,仲区公民館,岩手県大船渡市,39.121001184064,141.81434309433,1,0,0,-,-,-,30人,,第一避難場所・第二避難場所（避難所）
岩手県,八幡平市,安代林業センター,岩手県八幡平市,39.998587517426,140.96306729929,1,0,0,-,-,-,200人,,緊急避難場所
岩手県,八幡平市,寄木小学校,岩手県八幡平市松尾寄木27-103,39.928112501711,141.04965855211,1,0,0,-,-,-,500人,,緊急避難場所
岩手県,二戸市,作久保集落センター,岩手県二戸市,40.290442327521,141.32338732353,1,0,0,-,-,-,,,一時避難場所・収容避難所
岩手県,下閉伊郡岩泉町,尼額公民館,岩手県下閉伊郡岩泉町尼額字山崎5番地2,39.840139083373,141.77488531558,1,0,0,-,-,-,,,緊急避難場所・緊急避難所
岩手県,二戸市,浄門の里コミュニティセンター,岩手県二戸市,40.14462009958,141.11337300002,1,0,0,-,-,-,,,一時避難場所・収容避難所
岩手県,二戸市,カシオペアセンター岡本分館,岩手県二戸市浄法寺町下前田30番地3号,40.184452008972,141.15710044704,1,0,0,-,-,-,,,一時避難場所・収容避難所
岩手県,盛岡市,巻堀中学校,岩手県盛岡市玉山区好摩字夏間木70-1,39.875278387685,141.16807682007,1,0,0,-,-,-,11859人,,収容避難場所・広域避難広場
岩手県,花巻市,大瀬川振興センター,岩手県花巻市石鳥谷町大瀬川10-45-2,39.499966856064,141.11350009353,1,0,0,-,-,-,,,拠点避難所・二次的な避難所/避難場所
岩手県,久慈市,川貫公民館,岩手県久慈市川貫9-3-1,40.187857108205,141.75208401388,1,0,0,-,-,-,2407人,,指定避難場所
岩手県,盛岡市,上堂児童センター・上堂老人福祉センター,岩手県盛岡市上堂三丁目17番10号,39.728612893075,141.12711603013,1,0,0,-,-,-,129人,,収容避難場所
岩手県,九戸郡洋野町,種市勤労青少年ホーム,岩手県九戸郡洋野町種市22-1-1,40.406702445421,141.71763161282,-,-,-,-,-,-,,,避難場所
岩手県,二戸郡一戸町,元小繋小学校,岩手県二戸郡一戸町小繋字小繋84番地,40.129050475779,141.27377186249,-,-,-,-,-,-,,,一時避難場所
岩手県,大船渡市,大船渡中学校,岩手県大船渡市大船渡町字永沢94-1,39.053340717563,141.71743004428,1,0,0,-,-,-,600人,,第一避難場所・第二避難場所（避難所）
岩手県,岩手郡滝沢村,滝沢村多目的研修センター,岩手県滝沢市篠木字鳥谷平52,39.71592355046,141.06227114599,1,0,0,-,-,-,350人,,指定避難所
岩手県,宮古市,馬越高台,岩手県宮古市,39.585754881395,141.93774193685,-,-,-,0,0,1,,,避難場所（高台）
岩手県,下閉伊郡田野畑村,寿生苑,岩手県下閉伊郡田野畑村田野畑120-18,39.932073248859,141.89373434022,1,0,0,-,-,-,,,避難場所
岩手県,陸前高田市,黒崎公民館,岩手県陸前高田市広田町字黒崎205‐3,38.955545767317,141.72315537498,-,-,-,0,0,1,50人,,指定緊急避難場所
岩手県,北上市,照岡小学校,岩手県北上市稲瀬町地蔵堂15番地,39.237042337206,141.12131677529,1,0,0,-,-,-,400人,,震災時第１次収容避難所・震災時第２次収容避難所
岩手県,宮古市,本照寺高台,岩手県宮古市,39.644890010539,141.96284829947,-,-,-,0,0,1,,,避難場所（高台）
岩手県,大船渡市,南笹崎公民館,岩手県大船渡市大船渡町字笹崎17-5,39.055471149842,141.71937417553,-,-,-,-,-,-,,,避難場所
岩手県,二戸市,外山集落センター,岩手県二戸市野-上字鳥子長根76番地1,40.32562834001,141.293122192,1,0,0,-,-,-,,,一時避難場所・収容避難所
岩手県,久慈市,元小学校,岩手県久慈市山形町20-36-1,40.143283773326,141.6573780077,1,0,0,-,-,-,3192人,,指定避難場所
岩手県,久慈市,荷軽部小学校,岩手県久慈市山形町荷軽部5-1-1,40.150134473061,141.50605142064,1,0,0,0,1,0,3101人,,指定避難場所
岩手県,二戸市,似鳥多目的研修センター,岩手県二戸市似鳥字戸ノ平11番地1,40.238708957522,141.23899001033,-,-,-,-,-,-,,,一時避難場所
岩手県,下閉伊郡山田町,荒川小学校,岩手県下閉伊郡山田町荒川4-77-1,39.536640494535,141.90463560515,1,0,0,0,1,0,44人,,避難場所・避難所
岩手県,盛岡市,太田地区活動センター,岩手県盛岡市中太田深持9番地,39.693132665774,141.10066090575,1,0,0,-,-,-,198人,,収容避難場所
岩手県,岩手郡雫石町,西山公民館,岩手県岩手郡雫石町長山西寄内95番地1,39.73533781403,140.96376887235,1,0,0,-,-,-,,,避難所
岩手県,上閉伊郡大槌町,旧赤浜小学校,岩手県上閉伊郡大槌町赤浜1丁目2番12号,39.354151269723,141.92782713453,1,0,0,-,-,-,250人,,緊急避難場所・収容施設
岩手県,和賀郡西和賀町,泉沢公民館,岩手県和賀郡西和賀町沢内字泉沢5地割10番地2,39.461584545319,140.77525854258,1,0,0,-,-,-,,,一次避難場所
岩手県,釜石市,望洋ヶ丘集会所,岩手県釜石市大平町3丁目1番15号28,39.260980814858,141.8943405846,1,0,0,0,1,1,25人,,避難者収容施設
岩手県,北上市,市民江釣子体育館,岩手県北上市上江釣子17地割116番地,39.298263761189,141.07204334567,1,0,0,-,-,-,350人,,震災時第１次収容避難所・震災時第２次収容避難所・水害時収容避難所
岩手県,盛岡市,杜陵小学校,岩手県盛岡市肴町1番6号,39.698922647643,141.15250055302,1,0,0,-,-,-,249人,,収容避難場所
岩手県,陸前高田市,米崎保育園下駐車場,岩手県陸前高田市米崎町字川内140‐1,39.017373679527,141.66496892016,-,-,-,0,0,1,50人,,指定緊急避難場所
岩手県,気仙郡住田町,有住保育園,岩手県気仙郡住田町上有住字山脈地107-1,39.199425725962,141.5903996771,1,0,0,-,-,-,,,第１次避難場所・第２次避難場所（収容所）
岩手県,胆沢郡金ケ崎町,文化体育館,岩手県胆沢郡金ケ崎町西根南羽沢33,39.20061296861,141.10722472415,1,0,0,-,-,-,,,避難所
岩手県,和賀郡西和賀町,ゆだ高原駅,岩手県和賀郡西和賀町,39.30086010862,140.73710808893,1,0,0,-,-,-,,,一次避難場所
岩手県,盛岡市,松内公民館,岩手県盛岡市玉山区松内字松内36-3,39.886939525537,141.15677216729,1,0,0,-,-,-,61人,,収容避難場所
岩手県,二戸市,畜産センター,岩手県二戸市浄法寺町山内33番地7号,40.149603861668,141.08337502532,1,0,0,-,-,-,,,一時避難場所・収容避難所
岩手県,宮古市,アイノ山高台,岩手県宮古市,39.728914664608,141.96119180898,-,-,-,0,0,1,,,避難場所（高台）
岩手県,気仙郡住田町,農林会館,岩手県気仙郡住田町世田米字川向96-5,39.141463035293,141.57515481072,1,0,0,-,-,-,,,第２次避難場所（収容所）
岩手県,久慈市,和野公民館,岩手県久慈市宇部町4-20-3,40.129406840172,141.778587859,1,0,0,0,1,0,,,指定避難場所
岩手県,久慈市,保っ土木館,岩手県久慈市侍浜町保土沢8-43-179,40.256825301428,141.7924610158,1,0,0,0,1,0,91人,,指定避難場所
岩手県,盛岡市,玉山地区公民館,岩手県盛岡市玉山区日戸字鷹高50-16,39.794380022808,141.19340208145,1,0,0,-,-,-,57人,,収容避難場所
岩手県,宮古市,青倉地区集会施設,岩手県宮古市田老字立腰46番地2,39.739728457974,141.88314612879,1,0,0,0,1,0,,,避難所
岩手県,岩手郡雫石町,橋場保育所,岩手県岩手郡雫石町橋場安栖72番地6,39.694074292019,140.88982885399,1,0,0,-,-,-,,,避難場所・避難所
岩手県,釜石市,浜町避難道路・天王山口,岩手県釜石市,39.275410856913,141.88746538344,-,-,-,0,0,1,,,津波災害一次避難場所
岩手県,岩手郡雫石町,安庭小学校,岩手県岩手郡雫石町西安庭第41地割152番地1,39.66273783077,140.97330216811,1,0,0,-,-,-,,,避難場所・避難所
岩手県,二戸市,旧坂本小学校,岩手県二戸市,40.252979543858,141.32810117684,1,0,0,-,-,-,,,一時避難場所・収容避難所
岩手県,久慈市,来内小学校,岩手県久慈市山形町来内22-49-1,40.11142225215,141.50223356794,1,0,0,0,1,0,3473人,,指定避難場所
岩手県,釜石市,特別養護老人ホームアミーガはまゆり,岩手県釜石市小佐野町3丁目9番50号,39.263002069281,141.83773202611,1,0,0,0,0,1,,,避難者収容施設・福祉避難所
岩手県,大船渡市,神坂熊野神社,岩手県大船渡市末崎町字神坂26,39.013439783639,141.71807532508,-,-,-,-,-,-,,,避難場所
岩手県,九戸郡野田村,中沢公民館,岩手県九戸郡野田村大字野田37-30-323,40.131235546506,141.84105083507,1,0,0,-,-,-,,,避難場所
岩手県,宮古市,刈屋小学校,岩手県宮古市刈屋第11-48-3,39.64484591418,141.75337955252,1,0,0,0,1,0,,,避難所
岩手県,九戸郡洋野町,向田農村センター,岩手県九戸郡洋野町上舘56-22-5,40.325971065923,141.60689631838,1,0,0,-,-,-,,,避難場所・指定避難所
岩手県,九戸郡九戸村,南田コミュニティー消防センター,岩手県九戸郡九戸村伊保内10-14-1,40.211252372219,141.41829894122,-,-,-,-,-,-,,,一時避難場所
岩手県,九戸郡洋野町,伝吉地区村づくり推進センター,岩手県九戸郡洋野町種市43-84,40.432000929322,141.67294055534,1,0,0,-,-,-,,,避難場所・指定避難所
岩手県,二戸市,中央小学校,岩手県二戸市堀野字下タ川原71-1,40.290284444193,141.29384935051,1,0,0,-,-,-,,,一時避難場所・収容避難所
岩手県,釜石市,鵜住神社境内・長内集会所奥の沢,岩手県釜石市,39.324615947108,141.88389331832,-,-,-,0,0,1,,,緊急避難場所
岩手県,盛岡市,馬場状小屋地区コミュニティセンター,岩手県盛岡市玉山区馬場状小屋3番地3,39.882016271164,141.1910353723,1,0,0,-,-,-,34人,,収容避難場所
岩手県,宮古市,石浜中央バス停付近高台,岩手県宮古市,39.524403619258,142.02422562293,-,-,-,0,0,1,,,避難場所（高台）
岩手県,陸前高田市,吉田様宅庭,岩手県陸前高田市気仙町字二日市43‐3,38.99494993076,141.62369047208,-,-,-,0,0,1,20人,,指定緊急避難場所
岩手県,宮古市,上村修導場付近高台,岩手県宮古市,39.626895391186,141.95785836835,-,-,-,0,0,1,,,避難場所（高台）
岩手県,宮古市,グリーンピア田老,岩手県宮古市田老字向新田148番地,39.789749566692,141.97162616304,1,0,0,0,1,1,,,避難所
岩手県,岩手郡葛巻町,葛巻デイサービスセンター（特養ホーム高砂荘）,岩手県岩手郡葛巻町葛巻7-104-2,40.040149036157,141.45440830767,1,0,0,-,-,-,,,避難所
岩手県,九戸郡洋野町,角浜漁村センター,岩手県九戸郡洋野町種市41-122-2,40.445915651729,141.68308309786,1,0,0,-,-,-,,,避難場所・指定避難所
岩手県,九戸郡軽米町,山内農業構造改善センター,岩手県九戸郡軽米町大字山内26-7-2,40.304471301642,141.38852629504,1,0,0,-,-,-,,,指定避難場所
岩手県,釜石市,箱崎町仮設団地C,岩手県釜石市,39.31945190964,141.92159128741,-,-,-,0,0,1,,,緊急避難場所
岩手県,和賀郡西和賀町,新田郷地区公民館（高原プラザ）,岩手県和賀郡西和賀町中村58地割45番地4,39.297224011464,140.73380198984,1,0,0,-,-,-,,,一次避難場所
岩手県,陸前高田市,山の神神社,岩手県陸前高田市小友町字茂里花24,39.07469250269,141.588714068,-,-,-,0,0,1,20人,,指定緊急避難場所
岩手県,陸前高田市,山田地区高台,岩手県陸前高田市広田町字山田47‐3,38.961236480319,141.71223887369,-,-,-,0,0,1,100人,,指定緊急避難場所
岩手県,陸前高田市,山田公民館,岩手県陸前高田市広田町字山田52‐8,38.961721826783,141.71557737908,-,-,-,0,0,1,30人,,指定緊急避難場所
岩手県,二戸市,石切所公民館,岩手県二戸市石切所字枋ノ木38,40.258803045728,141.28871001219,1,0,0,-,-,-,,,収容避難所
岩手県,八幡平市,上寄木分館,岩手県八幡平市松尾寄木第13地割21番地6,39.914626867658,141.00505998878,1,0,0,-,-,-,50人,,緊急避難場所
岩手県,大船渡市,綾里保育所,岩手県大船渡市三陸町綾里字平舘60番地1,39.049851513765,141.79733387419,1,0,0,-,-,-,100人,,第一避難場所・第二避難場所（避難所）
岩手県,陸前高田市,ひかみの園,岩手県陸前高田市高田町字大隅8‐8,39.033868155051,141.63804344364,-,-,-,0,0,1,2000人,,指定緊急避難場所
岩手県,北上市,相去地区交流センター,岩手県北上市相去町小糠沢19,39.257175646124,141.11123844018,1,0,0,-,-,-,290人,,震災時第１次収容避難所
岩手県,盛岡市,仙北地区活動センター,岩手県盛岡市仙北二丁目4番13号,39.685973818523,141.14961507778,1,0,0,-,-,-,228人,,収容避難場所
岩手県,盛岡市,下田保育園,岩手県盛岡市玉山区下田字生出袋80-1,39.849039052879,141.15731494148,1,0,0,-,-,-,34人,,収容避難場所
岩手県,気仙郡住田町,JR世田米駅付近,岩手県気仙郡住田町,39.142911124965,141.57916554581,-,-,-,-,-,-,,,第１次避難場所
岩手県,岩手郡岩手町,久保小学校,岩手県岩手郡岩手町大字久保10-57-2,39.948244550698,141.1901004578,1,0,0,-,-,-,,,緊急避難場所
岩手県,二戸市,大村児童公園,岩手県二戸市,40.267310133037,141.29255201305,-,-,-,-,-,-,,,一時避難場所
岩手県,北上市,黒沢尻西地区交流センター,岩手県北上市本石町1-6-20,39.291085941539,141.11303237244,1,0,0,-,-,-,70人,,震災時第１次収容避難所・水害時収容避難所
岩手県,盛岡市,簗川地区振興センター,岩手県盛岡市簗川第5地割33番地1,39.6660419514,141.30034354666,-,-,-,-,-,-,1433人,,指定避難場所
岩手県,二戸市,江牛公民館,岩手県二戸市,40.198071471185,141.15053908889,1,0,0,-,-,-,,,一時避難場所・収容避難所
岩手県,盛岡市,太田老人福祉センター,岩手県盛岡市上太田細工4,39.693070846993,141.0784458998,1,0,0,-,-,-,70人,,収容避難場所
岩手県,宮古市,宮古北高等学校高台,岩手県宮古市,39.729568551859,141.94985722813,-,-,-,0,0,1,,,避難場所（高台）
岩手県,盛岡市,都南老人福祉センター,岩手県盛岡市湯沢1地割1番地39,39.640449079318,141.08180087135,1,0,0,-,-,-,68人,,収容避難場所
岩手県,紫波郡紫波町,長岡小学校,岩手県紫波郡紫波町東長岡字竹洞42,39.583609417956,141.20039461675,1,0,0,-,-,-,,,避難場所
岩手県,二戸市,中央公民館下斗米分館,岩手県二戸市下斗米字下平59番地,40.286272551816,141.25231242158,1,0,0,-,-,-,,,一時避難場所・収容避難所
岩手県,九戸郡洋野町,オーシャンビュースタジアム,岩手県九戸郡洋野町種市21-41,40.400900731746,141.70616880747,1,0,0,-,-,-,,,避難場所・指定避難所
岩手県,上閉伊郡大槌町,旧大槌町託児所,岩手県上閉伊郡大槌町小鎚第13地割3番4号,39.379624651304,141.83071023587,1,0,0,-,-,-,30人,,収容施設
岩手県,八幡平市,田山中学校,岩手県八幡平市下川原30,40.1388236395,140.94914943352,1,0,0,-,-,-,1500人,,緊急避難場所
岩手県,久慈市,中央公民館久慈湊分館,岩手県久慈市湊町19-8-1,40.20177681571,141.79078174737,1,0,0,-,-,-,187人,,指定避難場所
岩手県,岩手郡滝沢村,小岩井地区コミュニティセンター,岩手県滝沢市大釜字風林18番地7,39.710153407781,141.02676895892,1,0,0,0,1,0,100人,,指定避難所
岩手県,久慈市,小袖小学校,岩手県久慈市宇部町23-128-3,40.160675932366,141.84815171068,1,0,0,0,1,0,3800人,,指定避難場所
岩手県,大船渡市,上甫嶺研修集会施設,岩手県大船渡市三陸町越喜来字上甫嶺41番地2,39.100822062337,141.79019668972,1,0,0,-,-,-,30人,,第二避難場所（避難所）
岩手県,宮古市,四番地区総合センター,岩手県宮古市和井内第4地割27番地6,39.694555333359,141.70905456088,1,0,0,0,1,0,,,避難所
岩手県,釜石市,栗林地区コミュニティ消防センター,岩手県釜石市栗林町第16地割69番地1,39.350077703175,141.82635298409,1,0,0,0,0,1,10人,,避難者収容施設
岩手県,久慈市,大尻地区漁村センター,岩手県久慈市長内町45-135-139,40.173937542401,141.82465929205,1,0,0,0,1,1,254人,,津波対応避難場所・指定避難場所
岩手県,紫波郡紫波町,総合福祉センター,岩手県紫波郡紫波町二日町字古館356-1,39.560826298069,141.17441928906,1,0,0,-,-,-,,,避難場所
岩手県,西磐井郡平泉町,戸河内公民館,岩手県西磐井郡平泉町,38.996536040064,141.06620943574,1,0,0,-,-,-,,,緊急避難場所
岩手県,紫波郡矢巾町,矢巾勤労者共同福祉センター,岩手県紫波郡矢巾町流通センタ-南1丁目2-7,39.638295693983,141.11198581574,1,0,0,-,-,-,,,避難所
岩手県,胆沢郡金ケ崎町,六原幼稚園,岩手県胆沢郡金ケ崎町六原赤石72,39.232444024598,141.06487438448,1,0,0,-,-,-,,,避難所
岩手県,遠野市,中斉ふれあいセンター,岩手県遠野市達曽部44-85,39.414916041736,141.38459189598,1,0,0,-,-,-,100人,,避難所
岩手県,北上市,南小学校,岩手県北上市相去町葛西壇12番地2号,39.263503708112,141.09469090275,1,0,0,-,-,-,900人,,震災時第１次収容避難所・震災時第２次収容避難所
岩手県,西磐井郡平泉町,戸河内コミュニティセンター,岩手県西磐井郡平泉町平泉字広滝40,38.996536839953,141.06620883577,1,0,0,-,-,-,50人,,避難場所・避難所
岩手県,陸前高田市,氷上神社,岩手県陸前高田市高田町字西和野83,39.029164493136,141.63710229103,-,-,-,0,0,1,600人,,指定緊急避難場所
岩手県,二戸市,川代地区活性化センター,岩手県二戸市,40.261171382077,141.17117414624,1,0,0,-,-,-,,,一時避難場所・収容避難所
岩手県,北上市,鬼柳地区交流センター,岩手県北上市鬼柳町都鳥49,39.274017878945,141.09530938005,1,0,0,-,-,-,60人,,震災時第１次収容避難所
岩手県,下閉伊郡岩泉町,浅内多目的集会施設,岩手県下閉伊郡岩泉町浅内字上糸坪48番地1,39.818629247694,141.72530766769,1,0,0,-,-,-,,,緊急避難場所・緊急避難所
岩手県,二戸市,下米沢交流センター,岩手県二戸市,40.291292405965,141.28676342026,1,0,0,-,-,-,,,一時避難場所・収容避難所
岩手県,紫波郡矢巾町,矢巾町民総合体育館,岩手県紫波郡矢巾町南矢幅13-118,39.606266226435,141.14405768605,1,0,0,-,-,-,,,避難所
岩手県,陸前高田市,東北縫製（株）,岩手県陸前高田市竹駒町字細根沢27‐1,39.035774255225,141.609958073,-,-,-,0,0,1,200人,,指定緊急避難場所
岩手県,宮古市,近内地区センター,岩手県宮古市近内3-119-1,39.647439991002,141.91721532122,1,0,0,0,1,0,,,避難所
岩手県,釜石市,神の沢南側の沢,岩手県釜石市,39.332343992642,141.87543659776,-,-,-,0,0,1,,,緊急避難場所
岩手県,下閉伊郡普代村,大上一弘宅付近,岩手県下閉伊郡普代村,40.004593811319,141.90148097629,-,-,-,-,-,-,,,第１避難所
岩手県,久慈市,天神堂公民館（コミュニティセンター）,岩手県久慈市天神堂36-120-4,40.199444891646,141.75677220865,1,0,0,0,1,0,58人,,指定避難場所
岩手県,岩手郡葛巻町,葛巻町社会体育館,岩手県岩手郡葛巻町葛巻第8地割33番地2,40.037963016724,141.4474810103,1,0,0,-,-,-,,,避難所
岩手県,岩手郡岩手町,川口中学校,岩手県岩手郡岩手町大字川口17-24-13,39.928528074653,141.2034938557,1,0,0,-,-,-,,,緊急避難場所
岩手県,遠野市,板沢地区コミュニティ消防センター,岩手県遠野市上郷町板沢8地割19番地1,39.292262133213,141.58493569277,-,-,-,-,-,-,,,一時避難所
岩手県,九戸郡九戸村,戸田小学校体育館,岩手県九戸郡九戸村戸田第16地割74番地4,40.161310782212,141.42800527157,1,0,0,-,-,-,,,収容避難所
岩手県,胆沢郡金ケ崎町,南方幼稚園,岩手県胆沢郡金ケ崎町西根杉ノ崎26,39.195396681393,141.09862277349,1,0,0,-,-,-,,,避難所
岩手県,釜石市,旧箱崎白浜へき地保育所,岩手県釜石市,39.327310208779,141.94482637976,-,-,-,0,0,1,,,緊急避難場所
岩手県,釜石市,松原公園,岩手県釜石市,39.264138819319,141.88151773527,-,-,-,1,0,1,,,緊急避難場所
岩手県,陸前高田市,矢の浦公民館,岩手県陸前高田市小友町字字矢の浦72‐1,38.987468835738,141.67126386213,-,-,-,0,0,1,100人,,指定緊急避難場所
岩手県,紫波郡紫波町,紫波第一中学校,岩手県紫波郡紫波町平沢字松田41,39.548440043437,141.15756396776,1,0,0,-,-,-,,,避難場所・広域避難場所
岩手県,大船渡市,ビアン駐車場,岩手県大船渡市,39.105436652225,141.81202170912,-,-,-,-,-,-,,,第一避難場所
岩手県,西磐井郡平泉町,21区ふれあいセンター,岩手県西磐井郡平泉町長島字杉1-5,38.991378711621,141.14253289621,1,0,0,-,-,-,50人,,緊急避難場所
岩手県,久慈市,戸呂町小学校,岩手県久慈市山形町戸呂町4-50-64,40.20141335367,141.5906603541,1,0,0,-,-,-,750人,,指定避難場所
岩手県,久慈市,長内公民館,岩手県久慈市長内町21-63-2,40.184235564116,141.77206057501,1,0,0,0,1,0,162人,,指定避難場所
岩手県,盛岡市,黒石野中学校,岩手県盛岡市黒石野三丁目15番1号,39.741900547456,141.1416366509,1,0,0,-,-,-,7346人,,指定避難場所・収容避難場所
岩手県,下閉伊郡岩泉町,穴沢多目的集会施設,岩手県下閉伊郡岩泉町穴沢字道ノ下75番地1,39.858917393563,141.67474184916,1,0,0,-,-,-,,,緊急避難場所・緊急避難所
岩手県,二戸市,在八公民館,岩手県二戸市,40.265641702029,141.30144277732,1,0,0,-,-,-,,,一時避難場所・収容避難所
岩手県,盛岡市,太田小学校,岩手県盛岡市上太田上吉本1番地1,39.68809316539,141.08057481505,1,0,0,-,-,-,3646人,,指定避難場所・収容避難場所
岩手県,盛岡市,城西児童センター,岩手県盛岡市中屋敷町1番57号,39.705943201735,141.12251702597,1,0,0,-,-,-,71人,,収容避難場所
岩手県,盛岡市,前九年公園,岩手県盛岡市前九年三丁目7番1号,39.716861660838,141.12244423659,-,-,-,-,-,-,7650人,,指定避難場所
岩手県,花巻市,新堀振興センター,岩手県花巻市石鳥谷町新堀40-27-2,39.486850752464,141.17221113879,1,0,0,-,-,-,,,拠点避難所・二次的な避難所/避難場所
岩手県,八幡平市,北寄木分館,岩手県八幡平市松尾寄木第25地割80番地,39.934509253339,141.04774161453,1,0,0,-,-,-,50人,,緊急避難場所
岩手県,宮古市,白浜農村公園高台,岩手県宮古市,39.608279734272,141.98504428059,-,-,-,0,0,1,,,避難場所（高台）
岩手県,久慈市,侍浜小学校・角柄分校,岩手県久慈市侍浜町角柄11-89-1,40.24690299307,141.72946943283,1,0,0,0,1,0,1600人,,指定避難場所
岩手県,盛岡市,湯沢児童センター,岩手県盛岡市湯沢6地割54番1号,39.648193291174,141.10637917867,1,0,0,-,-,-,59人,,収容避難場所
岩手県,宮古市,つつじヶ丘公園高台,岩手県宮古市,39.647927420373,141.94303824969,-,-,-,0,0,1,,,避難場所（高台）
岩手県,宮古市,横山八幡宮高台,岩手県宮古市,39.637946197172,141.94373862204,-,-,-,0,0,1,,,避難場所（高台）
岩手県,紫波郡紫波町,保健センター,岩手県紫波郡紫波町日詰字東裏85-1,39.555211933373,141.17214832503,1,0,0,-,-,-,,,避難場所
岩手県,二戸市,大清水地区生活改善センター,岩手県二戸市浄法寺町家ノ上98番地2,40.155154458587,141.11479163806,1,0,0,-,-,-,,,一時避難場所・収容避難所
岩手県,紫波郡矢巾町,藤澤自治会館,岩手県紫波郡矢巾町藤沢7-34-5,39.617073840317,141.16936601814,1,0,0,-,-,-,,,避難所
岩手県,紫波郡矢巾町,花矢巾公民館,岩手県紫波郡矢巾町白沢3-35-53,39.601719686972,141.14980168135,1,0,0,-,-,-,,,避難所
岩手県,気仙郡住田町,新切公民館,岩手県気仙郡住田町,39.212652870662,141.55757865675,-,-,-,-,-,-,,,第１次避難場所
岩手県,盛岡市,盛岡峰南高等支援学校,岩手県盛岡市下飯岡11地割152,39.67100521026,141.12853165659,1,0,0,0,1,0,2467人,,収容避難場所
岩手県,釜石市,松倉地区コミュニティ消防センター,岩手県釜石市甲子町第10地割524-3,39.254605007971,141.80043340259,1,0,0,0,1,1,75人,,避難者収容施設
岩手県,盛岡市,飯岡中学校,岩手県盛岡市下飯岡6地割51番地1,39.665308333348,141.11802461381,1,0,0,-,-,-,9731人,,収容避難場所・広域避難広場
岩手県,北上市,立花地区交流センター,岩手県北上市立花20-57-14,39.284370753328,141.1420023379,1,0,0,-,-,-,80人,,震災時第１次収容避難所・水害時収容避難所
岩手県,陸前高田市,矢作小学校体育館,岩手県陸前高田市矢作町字神明前55‐1,39.028391654289,141.58809333622,1,0,0,-,-,-,392人,,指定避難所
岩手県,盛岡市,中央自動車学校,岩手県盛岡市西青山二丁目31番11号,39.72991226947,141.10322343753,-,-,-,-,-,-,6332人,,指定避難場所
岩手県,遠野市,遠野小学校,岩手県遠野市東館町11-28,39.327101208032,141.5359478574,1,0,0,-,-,-,420人,,避難所
岩手県,遠野市,綾織中学校,岩手県遠野市綾織町下綾織13-5-2,39.331787968519,141.46764123367,1,0,0,-,-,-,400人,,避難所
岩手県,紫波郡矢巾町,城内公民館,岩手県紫波郡矢巾町煙山8-83-2,39.61492243542,141.11422174577,1,0,0,-,-,-,,,避難所
岩手県,和賀郡西和賀町,若畑公民館,岩手県和賀郡西和賀町沢内字若畑11地割69番地1,39.517292134138,140.83020917901,1,0,0,-,-,-,,,一次避難場所
岩手県,九戸郡野田村,愛宕山,岩手県九戸郡野田村,40.112221574878,141.81609322108,-,-,-,-,-,-,,,緊急避難場所
岩手県,遠野市,白石涌水地区集会所,岩手県遠野市宮守町達曽部57地割1番地2,39.43333684293,141.4005321426,1,0,0,-,-,-,50人,,一時避難所・避難所
岩手県,八幡平市,大更コミュニティセンター,岩手県八幡平市大更第25地割55番地13,39.913210040314,141.09862983575,1,0,0,-,-,-,560人,,緊急避難場所
岩手県,八幡平市,寺田公民館,岩手県八幡平市西根寺田第15地割127番地,39.977593496529,141.10752322193,1,0,0,-,-,-,350人,,緊急避難場所
岩手県,紫波郡矢巾町,西徳田1区公民館,岩手県紫波郡矢巾町西徳田4-9-27,39.610255283259,141.16839965144,1,0,0,-,-,-,,,避難所
岩手県,宮古市,臼木山高台,岩手県宮古市,39.647112741991,141.9741809487,-,-,-,0,0,1,,,避難場所（高台）
岩手県,久慈市,夏井公民館,岩手県久慈市夏井町早坂8-1-1,40.216029381786,141.77338138558,1,0,0,-,-,-,900人,,指定避難場所
岩手県,下閉伊郡普代村,普代村社会体育館,岩手県下閉伊郡普代村,40.010318692332,141.88530333941,1,0,0,-,-,-,,,第２避難所
岩手県,宮古市,千徳小学校,岩手県宮古市西ヶ丘1-2-1,39.640749086242,141.91577114055,1,0,0,0,1,1,,,避難所
岩手県,盛岡市,岩手大学附属小学校,岩手県盛岡市加賀野二丁目6番1号,39.705541713397,141.1654798347,-,-,-,-,-,-,2250人,,指定避難場所
岩手県,下閉伊郡岩泉町,国見季節保育所,岩手県下閉伊郡岩泉町門字下見内川30番地13,39.898108700522,141.59376138073,1,0,0,-,-,-,,,緊急避難場所・緊急避難所
岩手県,八幡平市,健康増進センター,岩手県八幡平市,40.101115587792,141.05302934863,1,0,0,-,-,-,500人,,緊急避難場所
岩手県,遠野市,大出地区コミュニティ消防センター,岩手県遠野市附馬牛町上附馬牛19地割59番地3,39.473250399944,141.50846856911,1,0,0,-,-,-,66人,,一時避難所・避難所
岩手県,久慈市,宇部マレットカントリー,岩手県久慈市宇部町7-158-1,40.122555198471,141.79438930636,1,0,0,-,-,-,,,指定避難場所
岩手県,二戸市,福岡工業高等学校,岩手県二戸市石切所字火行塚2-1,40.259974694809,141.28310198869,1,0,0,-,-,-,,,一時避難場所・収容避難所
岩手県,八幡平市,田山公民館,岩手県八幡平市田中下タ78番地,40.139684148767,140.95239976417,1,0,0,-,-,-,800人,,緊急避難場所
岩手県,釜石市,滝の沢高台,岩手県釜石市,39.274818926812,141.90313366155,-,-,-,0,0,1,,,緊急避難場所
岩手県,下閉伊郡山田町,わかば幼稚園,岩手県下閉伊郡山田町荒川3-53,39.535544559823,141.90622391302,1,0,0,0,1,0,8人,,避難所
岩手県,上閉伊郡大槌町,惣川高台,岩手県上閉伊郡大槌町,39.354728383596,141.92698909062,-,-,-,0,1,1,,,緊急避難場所
岩手県,盛岡市,西部公民館,岩手県盛岡市南青山町6番1号,39.718429116583,141.11597562631,1,0,0,-,-,-,339人,,収容避難場所
岩手県,陸前高田市,和野自治会館,岩手県陸前高田市米崎町字西風道80‐1,39.009716612049,141.67732911897,-,-,-,0,0,1,300人,,指定緊急避難場所
岩手県,大船渡市,梅神公民館,岩手県大船渡市,38.998663654806,141.70822894123,1,0,0,-,-,-,30人,,第二避難場所（避難所）
岩手県,紫波郡紫波町,古館小学校,岩手県紫波郡紫波町高水寺字土手81,39.573205832742,141.16459374523,1,0,0,-,-,-,,,避難場所
岩手県,遠野市,附馬牛地区センター,岩手県遠野市附馬牛下附馬牛11-40-1,39.413204484773,141.53004968782,1,0,0,-,-,-,603人,,避難所
岩手県,陸前高田市,高田高等学校第二体育館,岩手県陸前高田市高田町字長砂78‐12,39.015492528568,141.63846897644,1,0,0,-,-,-,700人,,指定避難所
岩手県,九戸郡洋野町,旧平内小学校,岩手県九戸郡洋野町種市35-2,40.423816591503,141.70027648369,-,-,-,-,-,-,,,避難場所
岩手県,八幡平市,田頭コミュニティセンター,岩手県八幡平市田頭第23地割37番地1,39.918836829207,141.08456417926,1,0,0,-,-,-,510人,,緊急避難場所
岩手県,盛岡市,乙部老人福祉センター,岩手県盛岡市乙部28地割34番5号,39.60697424411,141.20004180719,1,0,0,-,-,-,35人,,収容避難場所
岩手県,二戸郡一戸町,元面岸小学校,岩手県二戸郡一戸町面岸字向山69番地,40.160928099101,141.37433522959,-,-,-,-,-,-,,,一時避難場所
岩手県,下閉伊郡岩泉町,岩泉町B＆G海洋センタ?,岩手県下閉伊郡岩泉町岩泉字中家55番地1,39.849038491018,141.79519707214,1,0,0,-,-,-,,,緊急避難場所・緊急避難所
岩手県,岩手郡滝沢村,滝沢小学校,岩手県滝沢市滝沢字外山86-19,39.757500743838,141.09325759968,1,0,0,-,-,-,600人,,指定避難所
岩手県,下閉伊郡岩泉町,大川小学校,岩手県下閉伊郡岩泉町大川字下町112番地,39.801904611441,141.65416250626,1,0,0,-,-,-,,,緊急避難場所・緊急避難所
岩手県,下閉伊郡岩泉町,大川中学校,岩手県下閉伊郡岩泉町大川字下町98番地,39.802374010605,141.65664556231,1,0,0,-,-,-,,,緊急避難場所・緊急避難所
岩手県,北上市,安楽寺,岩手県北上市稲瀬町上台205,39.248510412242,141.12464109383,1,0,0,-,-,-,25人,,震災時第１次収容避難所・水害時収容避難所
岩手県,久慈市,黒沼公民館,岩手県久慈市夏井町黒沼5-1-2,40.220448273181,141.76466531868,1,0,0,0,1,0,,,指定避難場所
岩手県,北上市,黒沢尻北地区交流センター,岩手県北上市常盤台1-30-20,39.304643027973,141.12032860746,1,0,0,-,-,-,60人,,震災時第１次収容避難所・水害時収容避難所
岩手県,下閉伊郡普代村,B＆G海洋センター,岩手県下閉伊郡普代村,40.04240149394,141.87103828282,1,0,0,-,-,-,,,指定緊急避難場所・指定避難所
岩手県,岩手郡岩手町,川口小学校,岩手県岩手郡岩手町大字川口15-91-2,39.925778488739,141.20589368248,1,0,0,-,-,-,,,緊急避難場所
岩手県,宮古市,赤沼山高台,岩手県宮古市,39.736587869646,141.9695694838,-,-,-,0,0,1,,,避難場所（高台）
岩手県,岩手郡滝沢村,滝沢第二小学校,岩手県滝沢市滝沢字巣子156-8,39.790296854425,141.13490145245,1,0,0,-,-,-,550人,,指定避難所
岩手県,紫波郡矢巾町,矢巾町公民館,岩手県紫波郡矢巾町南矢幅13-123,39.606152247989,141.14188015018,1,0,0,-,-,-,,,避難所
岩手県,大船渡市,大船渡市市営住宅,岩手県大船渡市赤崎町字山口58-1,39.062654396416,141.74222196504,-,-,-,-,-,-,,,避難場所
岩手県,陸前高田市,田中ため池付近,岩手県陸前高田市米崎町字和方128,39.009155510754,141.67516551555,-,-,-,0,0,1,300人,,指定緊急避難場所
岩手県,盛岡市,姫神ふるさと学習センター（姫神小学校跡）,岩手県盛岡市玉山区馬場字葛巻100,39.890506490995,141.25669611618,1,0,0,-,-,-,1709人,,指定避難場所・収容避難場所
岩手県,九戸郡野田村,御台場公園,岩手県九戸郡野田村,40.116481264928,141.83034532678,-,-,-,-,-,-,,,緊急避難場所
岩手県,宮古市,田老公民館,岩手県宮古市田老字館が森3,39.738061094818,141.96930838278,1,0,0,0,1,1,,,避難場所（高台）・避難所
岩手県,岩手郡岩手町,沼宮内中学校,岩手県岩手郡岩手町大字五日市8-30-2,39.98050552305,141.22453397876,1,0,0,-,-,-,,,緊急避難場所
岩手県,宮古市,横町高台,岩手県宮古市,39.644702379631,141.9513303134,-,-,-,0,0,1,,,避難場所（高台）
岩手県,岩手郡葛巻町,旧葛巻小学校江刈川分校,岩手県岩手郡葛巻町,40.058588946057,141.49726870349,1,0,0,-,-,-,,,避難所
岩手県,釜石市,栗林地区基幹集落センター,岩手県釜石市栗林町第13地割4番1,39.354813273192,141.82759167594,1,0,0,0,1,1,230人,,避難者収容施設
岩手県,宮古市,田老第一中学校,岩手県宮古市田老字館が森3,39.739193965977,141.96933476019,1,0,0,0,1,1,,,避難所
岩手県,宮古市,和井内林産会館,岩手県宮古市和井内第13地割13番地1,39.688836843297,141.71384318694,1,0,0,0,1,0,,,避難所
岩手県,久慈市,大川目小学校,岩手県久慈市大川目町14-45-1,40.183015410501,141.71683121377,1,0,0,0,1,0,2928人,,指定避難場所
岩手県,下閉伊郡山田町,織笠外山ブロックセンター,岩手県下閉伊郡山田町織笠29-23,39.432669684221,141.89058144763,1,0,0,0,1,0,8人,,避難所
岩手県,紫波郡矢巾町,和味公民館,岩手県紫波郡矢巾町和味10-40-4,39.603245680253,141.10310112144,1,0,0,-,-,-,,,避難所
岩手県,宮古市,宮古西中学校,岩手県宮古市西ヶ丘2-1-1,39.6402379816,141.91294909578,1,0,0,0,1,1,,,避難所
岩手県,下閉伊郡岩泉町,安家たんぽぽ保育園,岩手県下閉伊郡岩泉町安家字松林157-7,39.986151960374,141.73804091209,1,0,0,-,-,-,,,緊急避難場所・緊急避難所
岩手県,二戸郡一戸町,小鳥谷中学校,岩手県二戸郡一戸町小鳥谷字野里5-3,40.175828899679,141.30625399163,1,0,0,-,-,-,,,一時避難場所・収容避難所
岩手県,岩手郡雫石町,御明神グラウンド,岩手県岩手郡雫石町御明神高八卦20番地1,39.684579651772,140.94198821788,-,-,-,-,-,-,,,避難場所
岩手県,釜石市,釜石市教育センター,岩手県釜石市鈴子町15番2号,39.274331809593,141.86952010901,1,0,0,0,1,1,100人,,避難者収容施設
岩手県,釜石市,宝樹寺,岩手県釜石市,39.276448524535,141.88578658656,-,-,-,0,0,1,,,緊急避難場所
岩手県,陸前高田市,久保公民館,岩手県陸前高田市広田町字久保71‐10,38.94827456679,141.69395142664,-,-,-,0,0,1,30人,,指定緊急避難場所
岩手県,釜石市,古廟坂トンネル入口付近高台,岩手県釜石市,39.343847544935,141.89282823775,-,-,-,0,0,1,,,緊急避難場所
岩手県,胆沢郡金ケ崎町,たんぽぽ保育園,岩手県胆沢郡金ケ崎町西根辻岡30,39.195243728498,141.09155117669,1,0,0,-,-,-,,,避難所
岩手県,盛岡市,加賀野児童センター・加賀野老人福祉センター,岩手県盛岡市加賀野四丁目18番56号,39.709132991649,141.16959876454,1,0,0,-,-,-,111人,,収容避難場所
岩手県,盛岡市,盛岡第三高等学校,岩手県盛岡市高松四丁目17番16号,39.730140738416,141.13899832678,-,-,-,-,-,-,12490人,,広域避難広場
岩手県,盛岡市,西厨川老人福祉センター,岩手県盛岡市北天昌寺町7番27号,39.71238113189,141.11749786129,1,0,0,-,-,-,38人,,収容避難場所
岩手県,盛岡市,見前南中学校,岩手県盛岡市西見前16地割73番地,39.643270260341,141.16091042809,1,0,0,-,-,-,7021人,,指定避難場所・収容避難場所
岩手県,盛岡市,高松児童センター,岩手県盛岡市上田字宇登坂長根41番3号,39.73089100645,141.15569115349,1,0,0,-,-,-,65人,,収容避難場所
岩手県,宮古市,堀内高台,岩手県宮古市,39.592865045003,141.96775407387,-,-,-,0,0,1,,,避難場所（高台）
岩手県,宮古市,常運寺高台,岩手県宮古市,39.737195255237,141.96773794853,-,-,-,0,0,1,,,避難場所（高台）
岩手県,陸前高田市,下矢作地区コミュニティセンター（下矢作多目的研修センター）,岩手県陸前高田市矢作町字諏訪44,39.025325987061,141.5855981483,-,-,-,0,0,1,70人,,指定緊急避難場所
岩手県,岩手郡滝沢村,大釜地区コミュニティセンター,岩手県滝沢市大釜字外館116番地9,39.706374809088,141.07136539819,1,0,0,-,-,-,100人,,指定避難所
岩手県,紫波郡矢巾町,矢巾地区農業構造改善センター,岩手県紫波郡矢巾町土橋8-104,39.586316728268,141.17798549851,1,0,0,-,-,-,,,避難所
岩手県,盛岡市,渋民児童館,岩手県盛岡市玉山区渋民字鶴塚62-1,39.848653809525,141.16925752951,1,0,0,-,-,-,43人,,収容避難場所
岩手県,遠野市,遠野中学校,岩手県遠野市松崎町白岩11-30,39.339233122263,141.53507456298,1,0,0,-,-,-,600人,,避難所
岩手県,久慈市,久喜保育園,岩手県久慈市宇部町20-146-1,40.136523493639,141.83987562861,1,0,0,0,0,1,945人,,津波対応避難場所・指定避難場所
岩手県,和賀郡西和賀町,左草公民館,岩手県和賀郡西和賀町左草2地割92番地1,39.36035743339,140.72422318852,1,0,0,-,-,-,,,一次避難場所
岩手県,釜石市,やまざき機能訓練デイサービスホーム（旧JA集配センター）,岩手県釜石市,39.320540693685,141.88529820232,-,-,-,0,0,1,,,緊急避難場所
岩手県,遠野市,宿地区集会所,岩手県遠野市宮守町達曽部14地割119番地1,39.394579555969,141.34453040601,-,-,-,-,-,-,,,一時避難所
岩手県,岩手郡葛巻町,葛巻小学校,岩手県岩手郡葛巻町葛巻12-49,40.040487568674,141.43962644575,1,0,0,-,-,-,,,避難所
岩手県,盛岡市,岩手大学附属特別支援学校,岩手県盛岡市東安庭三丁目4番20号,39.678300067744,141.16691373904,1,0,0,0,1,0,2000人,,指定避難場所・収容避難場所
岩手県,岩手郡岩手町,岩手町体育館,岩手県岩手郡岩手町子抱第4地割12番地1,39.953569853916,141.20472663849,1,0,0,-,-,-,,,緊急避難場所
岩手県,盛岡市,北松園中学校,岩手県盛岡市北松園四丁目34番1号,39.759588557113,141.17604372824,1,0,0,-,-,-,5072人,,指定避難場所・収容避難場所
岩手県,釜石市,あさひ公園,岩手県釜石市,39.307130192209,141.88979263502,-,-,-,0,0,1,,,緊急避難場所
岩手県,久慈市,門前子供会館,岩手県久慈市門前1-115-1,40.20002006389,141.76767696417,1,0,0,0,1,0,600人,,指定避難場所
岩手県,大船渡市,猪川地区公民館,岩手県大船渡市猪川町字下権現堂8-11,39.093091367563,141.70576023892,1,0,0,-,-,-,200人,,第二避難場所（避難所）
岩手県,盛岡市,巻堀地区コミュニティセンター,岩手県盛岡市玉山区巻堀字巻堀33-2,39.892795761746,141.19487924879,1,0,0,-,-,-,51人,,収容避難場所
岩手県,紫波郡矢巾町,煙山小学校,岩手県紫波郡矢巾町北矢幅1-2,39.621244599276,141.13957735241,1,0,0,-,-,-,,,避難所
岩手県,久慈市,新井田子供会館,岩手県久慈市新井田5-17-2,40.194709552752,141.77933182201,1,0,0,-,-,-,421人,,指定避難場所
岩手県,盛岡市,松園中学校,岩手県盛岡市東松園二丁目14番1号,39.755097010113,141.16752248685,1,0,0,-,-,-,15773人,,指定避難場所・収容避難場所
岩手県,遠野市,土淵小学校,岩手県遠野市土淵町土淵6-1,39.35775713836,141.56787620923,1,0,0,-,-,-,310人,,避難所
岩手県,胆沢郡金ケ崎町,三ケ尻地区生涯教育センター,岩手県胆沢郡金ケ崎町三ケ尻南荒巻48-2,39.21668048768,141.10899641659,1,0,0,-,-,-,,,避難所
岩手県,九戸郡洋野町,うげ児童館,岩手県九戸郡洋野町有家6-5-1,40.31925144602,141.76660940159,-,-,-,-,-,-,,,避難場所
岩手県,八幡平市,西根中学校,岩手県八幡平市大更24-25,39.915334641128,141.09176367376,1,0,0,-,-,-,1240人,,緊急避難場所
岩手県,岩手郡葛巻町,車門公民館,岩手県岩手郡葛巻町,39.953699159874,141.51586222989,1,0,0,-,-,-,,,避難所
岩手県,岩手郡葛巻町,毛頭沢林業研修センター,岩手県岩手郡葛巻町田部字毛頭沢73-3,40.082154737196,141.3608120299,1,0,0,-,-,-,,,避難所
岩手県,下閉伊郡岩泉町,横道公民館,岩手県下閉伊郡岩泉町門字中瀬10番地2,39.889865361595,141.62521398272,1,0,0,-,-,-,,,緊急避難場所・緊急避難所
岩手県,釜石市,甲子地区生活応援センター（甲子公民館）,岩手県釜石市甲子町第10地割255番地,39.254493921618,141.8004196072,1,0,0,0,1,1,180人,,避難者収容施設
岩手県,盛岡市,青少年活動センター跡,岩手県盛岡市玉山区日戸字新田13-52,39.801028075021,141.24344446493,-,-,-,-,-,-,9355人,,広域避難広場
岩手県,盛岡市,舟田地区介護予防センター,岩手県盛岡市玉山区下田字牡丹野59-14,39.837296138081,141.16007338968,1,0,0,-,-,-,63人,,収容避難場所
岩手県,気仙郡住田町,小股公民館,岩手県気仙郡住田町,39.159340133466,141.49946192988,-,-,-,-,-,-,,,第１次避難場所
岩手県,久慈市,下日当公民館,岩手県久慈市小久慈町13-19-4,40.162776490608,141.73909107699,1,0,0,0,1,0,273人,,指定避難場所
岩手県,花巻市,東和体育館,岩手県花巻市東和町安俵6-53,39.386077903991,141.22581360212,1,0,0,-,-,-,,,拠点避難所・二次的な避難所/避難場所
岩手県,大船渡市,日頃市保育園,岩手県大船渡市,39.126345327221,141.67196541561,1,0,0,-,-,-,50人,,第二避難場所（避難所）
岩手県,盛岡市,地域福祉センター,岩手県盛岡市手代森14地割16番89,39.652739020354,141.18512706173,1,0,0,-,-,-,198人,,収容避難場所
岩手県,九戸郡洋野町,新田集会所,岩手県九戸郡洋野町大野15-25-1,40.299143821066,141.60835300966,-,-,-,-,-,-,,,避難場所
岩手県,盛岡市,河南公民館,岩手県盛岡市松尾町3番1号,39.69618147025,141.15845289649,1,0,0,0,1,0,1981人,,収容避難場所
岩手県,釜石市,向定内西地区集会所,岩手県釜石市定内町三丁目16番19号,39.255961136763,141.82913608842,1,0,0,0,1,1,40人,,避難者収容施設
岩手県,八幡平市,東大更小学校,岩手県八幡平市大更9-116,39.910264059648,141.14315068331,1,0,0,-,-,-,660人,,緊急避難場所
岩手県,宮古市,海幸園,岩手県宮古市,39.609546658861,141.97920304862,1,0,0,0,1,0,,,避難所
岩手県,盛岡市,北松園小学校,岩手県盛岡市北松園二丁目12番1号,39.759505063801,141.1723635404,1,0,0,-,-,-,8595人,,指定避難場所・収容避難場所
岩手県,遠野市,上宮守地区多目的集会施設,岩手県遠野市宮守町上宮守14地割89番地6,39.369464512399,141.39649127274,1,0,0,-,-,-,200人,,一時避難所・避難所
岩手県,釜石市,鵜住居公民館仮宿分館,岩手県釜石市箱崎町第4地割50番地2,39.316877772941,141.94571428621,1,0,0,0,1,1,30人,,避難者収容施設
岩手県,気仙郡住田町,大洞公民館,岩手県気仙郡住田町,39.239808824904,141.67891969352,-,-,-,-,-,-,,,第１次避難場所
岩手県,下閉伊郡山田町,船越防災センター,岩手県下閉伊郡山田町船越6-52-8,39.432882568156,141.97172396509,1,0,0,0,0,1,16人,,避難場所・避難所
岩手県,二戸郡一戸町,小鳥谷小学校,岩手県二戸郡一戸町小鳥谷字仁昌寺43-2,40.166163336574,141.3042738532,1,0,0,-,-,-,,,一時避難場所・収容避難所
岩手県,紫波郡紫波町,特別養護老人ホーム「にいやま荘」,岩手県紫波郡紫波町桜町字三本木46-1,39.541960777682,141.17193216394,1,0,0,-,-,-,,,避難場所
岩手県,遠野市,遠野北小学校,岩手県遠野市松崎町白岩字薬研淵43,39.343968604705,141.53420783845,1,0,0,-,-,-,450人,,避難所
岩手県,盛岡市,仙北児童センター・仙北老人福祉センター,岩手県盛岡市東仙北一丁目6番27,39.686026802846,141.15591729647,1,0,0,-,-,-,179人,,収容避難場所
岩手県,盛岡市,杜陵学園,岩手県盛岡市厨川二丁目3番1号,39.742078141136,141.13673979165,1,0,0,0,1,0,5456人,,指定避難場所・収容避難場所
岩手県,上閉伊郡大槌町,長井分館,岩手県上閉伊郡大槌町,39.417222881071,141.78785953779,1,0,0,-,-,-,60人,,収容施設
岩手県,宮古市,小堀内地区集会施設,岩手県宮古市田老字向新田185番地1,39.787494075613,141.96160781917,1,0,0,0,1,1,,,避難所
岩手県,陸前高田市,オートキャンプ場モビリア,岩手県陸前高田市小友町字獺沢155‐78,38.987921800797,141.67802981232,1,0,0,-,-,-,120人,,指定避難所
岩手県,久慈市,川原屋敷地区農村センター,岩手県久慈市宇部町18-36-2,40.130768117164,141.80980398522,1,0,0,0,1,0,120人,,指定避難場所
岩手県,北上市,江釣子共同福祉施設,岩手県北上市鳩岡崎2地割51番地1,39.313883149017,141.08548392253,1,0,0,-,-,-,100人,,震災時第１次収容避難所・震災時第２次収容避難所
岩手県,下閉伊郡岩泉町,不眛庵,岩手県下閉伊郡岩泉町門字町107番地,39.87771175903,141.65194270433,1,0,0,-,-,-,,,緊急避難場所・緊急避難所
岩手県,九戸郡洋野町,住吉町地区センター,岩手県九戸郡洋野町種市22-129,40.406394563984,141.7138954179,1,0,0,-,-,-,,,避難場所・指定避難所
岩手県,九戸郡洋野町,中野小学校,岩手県九戸郡洋野町中野1-95,40.311374665335,141.77005958178,1,0,0,-,-,-,,,避難場所・指定避難所
岩手県,宮古市,赤前漁村センター高台,岩手県宮古市,39.583407924408,141.95687842467,-,-,-,0,0,1,,,避難場所（高台）
岩手県,陸前高田市,八幡宮境内,岩手県陸前高田市米崎町字野沢28‐2,39.017887432859,141.66248023731,-,-,-,0,0,1,50人,,指定緊急避難場所
岩手県,八幡平市,安代老人憩の家,岩手県八幡平市保戸坂24,40.079019606841,141.01948070884,1,0,0,-,-,-,100人,,緊急避難場所
岩手県,二戸市,金田一小学校,岩手県二戸市金田一字野月19-2,40.316037184518,141.30233998299,1,0,0,-,-,-,,,一時避難場所・収容避難所
岩手県,大船渡市,大船渡北小学校,岩手県大船渡市大船渡町字山馬越68-2,39.065330870934,141.7133218051,1,0,0,-,-,-,300人,,第一避難場所・第二避難場所（避難所）
岩手県,盛岡市,本宮児童センター・本宮老人福祉センター,岩手県盛岡市本宮字宮沢99番地1,39.687696136194,141.12978974567,1,0,0,-,-,-,117人,,収容避難場所
岩手県,盛岡市,好摩保育所,岩手県盛岡市玉山区好摩字野中69-112,39.877885512687,141.16687410377,1,0,0,-,-,-,48人,,収容避難場所
岩手県,九戸郡洋野町,大野体育館,岩手県九戸郡洋野町大野60-7,40.277715806218,141.63367425065,1,0,0,-,-,-,,,避難場所・指定避難所
岩手県,大船渡市,砂子浜生活改善センター,岩手県大船渡市三陸町綾里字砂子浜48番地,39.073786035932,141.84047113236,1,0,0,-,-,-,20人,,第一避難場所・第二避難場所（避難所）
岩手県,二戸市,共和会館,岩手県二戸市,40.330197367623,141.28465543068,1,0,0,-,-,-,,,一時避難場所・収容避難所
岩手県,下閉伊郡岩泉町,小成地区コミュニティセンタ?,岩手県下閉伊郡岩泉町小本字小成133番地2,39.825986910124,141.9694666443,1,0,0,-,-,-,160人,,緊急避難場所・津波避難場所・緊急避難所
岩手県,岩手郡岩手町,北山形小学校,岩手県岩手郡岩手町大字川口41-145-2,39.942218881965,141.32530853149,1,0,0,-,-,-,,,緊急避難場所
岩手県,久慈市,戸呂町保育園,岩手県久慈市山形町戸呂町5-35-39,40.200988409849,141.59045489326,1,0,0,-,-,-,92人,,指定避難場所
岩手県,紫波郡紫波町,紫波第二中学校,岩手県紫波郡紫波町犬吠森字間木沢70,39.559211613705,141.17798930054,1,0,0,-,-,-,,,避難場所・広域避難場所
岩手県,岩手郡滝沢村,大沢集落センター,岩手県滝沢市大沢字堰合20-3,39.722009323085,141.07045924101,1,0,0,-,-,-,100人,,指定避難所
岩手県,北上市,相去体育館,岩手県北上市相去町小糠沢19番地,39.257114550637,141.11114255081,1,0,0,-,-,-,200人,,震災時第１次収容避難所・震災時第２次収容避難所
岩手県,岩手郡滝沢村,滝沢村北部コミュニティセンター,岩手県滝沢市,39.820958511827,141.10175353758,-,-,-,-,-,-,,,避難場所
岩手県,花巻市,田瀬中学校（田瀬振興センター）,岩手県花巻市東和町田瀬14-137,39.315224969141,141.31424048403,1,0,0,-,-,-,,,拠点避難所・二次的な避難所/避難場所
岩手県,盛岡市,盛岡南高等学校,岩手県盛岡市西見前20地割113番地1,39.641434290059,141.1565831502,-,-,-,-,-,-,9500人,,広域避難広場
岩手県,釜石市,浜町集会所（第1分団第2部消防屯所）,岩手県釜石市浜町三丁目6番6号,39.276981835105,141.89119314046,1,0,0,0,1,0,25人,,避難者収容施設
岩手県,岩手郡雫石町,鴬宿老人憩いの家,岩手県岩手郡雫石町鶯宿第10地割21番地26,39.640934819843,140.93509603516,-,-,-,-,-,-,,,避難場所
岩手県,大船渡市,鬼沢地区集会所,岩手県大船渡市,39.086922821467,141.80936930835,1,0,0,-,-,-,30人,,第二避難場所（避難所）
岩手県,九戸郡九戸村,伊保内小学校体育館,岩手県九戸郡九戸村大字伊保内7-10-1,40.209235958224,141.421209809,1,0,0,-,-,-,,,収容避難所
岩手県,釜石市,鵜住居公民館川目分館,岩手県釜石市鵜住居町第3地割8番地1,39.339993065243,141.85184547284,1,0,0,0,1,1,60人,,避難者収容施設
岩手県,岩手郡葛巻町,旧田野小学校,岩手県岩手郡葛巻町,40.092576937391,141.3952002247,1,0,0,-,-,-,,,避難所
岩手県,盛岡市,青山老人福祉センター,岩手県盛岡市青山三丁目37番7号,39.728029055924,141.11069020012,1,0,0,-,-,-,68人,,収容避難場所
岩手県,花巻市,内川目地区農村環境改善センター（内川目振興センター）,岩手県花巻市大迫町内川目36-85,39.49915373845,141.32444794615,1,0,0,-,-,-,,,拠点避難所・二次的な避難所/避難場所
岩手県,陸前高田市,松峰神社前,岩手県陸前高田市米崎町字松峰5‐2,39.008632761969,141.65538675296,-,-,-,0,0,1,500人,,指定緊急避難場所
岩手県,八幡平市,松尾地区公民館,岩手県八幡平市野駄第7地割84番地1,39.943196770117,141.05254506541,1,0,0,-,-,-,200人,,緊急避難場所
岩手県,盛岡市,杜陵高等学校,岩手県盛岡市上田二丁目3番1号,39.714851140511,141.14567308053,1,0,0,0,1,0,22263人,,収容避難場所・広域避難広場
岩手県,岩手郡雫石町,御明神小学校,岩手県岩手郡雫石町上野上屋敷26番地,39.694467190961,140.94559237576,1,0,0,-,-,-,,,避難場所・避難所
岩手県,釜石市,佐須トンネル付近,岩手県釜石市,39.227630919527,141.91944664624,-,-,-,0,0,1,,,緊急避難場所
岩手県,下閉伊郡普代村,芦渡多目的集会所,岩手県下閉伊郡普代村,39.988181500656,141.84661440849,-,-,-,-,-,-,,,指定緊急避難場所
岩手県,下閉伊郡岩泉町,安家寺,岩手県下閉伊郡岩泉町安家字松林127番地,39.987248451759,141.73395479778,1,0,0,-,-,-,,,緊急避難場所・緊急避難所
岩手県,遠野市,山口地区コミュニティ消防センター,岩手県遠野市,39.334298562415,141.44457788387,-,-,-,-,-,-,,,一時避難所
岩手県,盛岡市,上米内児童センター・上米内老人福祉センター,岩手県盛岡市桜台二丁目18番15号,39.74902987766,141.19654785981,1,0,0,-,-,-,98人,,収容避難場所
岩手県,下閉伊郡岩泉町,三田貝公民館,岩手県下閉伊郡岩泉町門字三田貝47番地2,39.871278356749,141.58980977746,1,0,0,-,-,-,,,緊急避難場所・緊急避難所
岩手県,大船渡市,佐野高台,岩手県大船渡市,39.07980225669,141.72442329779,-,-,-,-,-,-,,,第一避難場所
岩手県,盛岡市,大台地区コミュニティセンター,岩手県盛岡市玉山区好摩字新田155-19,39.891117117986,141.16567411267,1,0,0,-,-,-,32人,,収容避難場所
岩手県,八幡平市,大花森分館,岩手県八幡平市松尾第5地割715番地,39.956893020656,141.04278566471,1,0,0,-,-,-,50人,,緊急避難場所
岩手県,八幡平市,松尾柔剣道場,岩手県八幡平市野駄第7地割84番地1,39.942943779875,141.05198652027,1,0,0,-,-,-,70人,,緊急避難場所
岩手県,大船渡市,合足高台,岩手県大船渡市,39.039231700102,141.76473185963,-,-,-,-,-,-,,,第一避難場所
岩手県,岩手郡葛巻町,五日市生活改善センター,岩手県岩手郡葛巻町江刈第25地割49番地1,39.975936508199,141.5040221663,1,0,0,-,-,-,,,避難所
岩手県,宮古市,金浜稲荷神社高台,岩手県宮古市,39.597910770432,141.94213432943,-,-,-,0,0,1,,,避難場所（高台）
岩手県,西磐井郡平泉町,瀬原公民館,岩手県西磐井郡平泉町平泉字瀬原15,39.010889503267,141.1137287176,1,0,0,-,-,-,40人,,緊急避難場所
岩手県,盛岡市,盛南公園,岩手県盛岡市本宮一丁目19番,39.688676435603,141.1421313151,-,-,-,-,-,-,14120人,,広域避難広場
岩手県,胆沢郡金ケ崎町,森山総合公園,岩手県胆沢郡金ケ崎町西根森山31-2,39.207245033825,141.09046767907,1,0,0,-,-,-,,,避難所
岩手県,二戸郡一戸町,一戸中学校,岩手県二戸郡一戸町一戸字砂森12,40.20474770759,141.29996841459,1,0,0,-,-,-,,,一時避難場所・収容避難所
岩手県,八幡平市,松尾地区体育館,岩手県八幡平市野駄第7地割220番地,39.942951778508,141.05197012141,1,0,0,-,-,-,700人,,緊急避難場所
岩手県,岩手郡雫石町,中央公民館,岩手県岩手郡雫石町上曽根田114番地,39.694092662853,140.97641429548,1,0,0,-,-,-,,,避難場所・避難所
岩手県,宮古市,平沢集会所,岩手県宮古市,39.676414847037,141.72047465737,1,0,0,0,1,0,,,避難所
岩手県,陸前高田市,熊谷様宅,岩手県陸前高田市米崎町字川内126,39.01802359041,141.66473282654,-,-,-,0,0,1,30人,,指定緊急避難場所
岩手県,下閉伊郡山田町,大浦漁村センター,岩手県下閉伊郡山田町船越22-11,39.445940096703,142.00629893972,1,0,0,0,0,1,12人,,避難場所・避難所
岩手県,釜石市,大只越集会所,岩手県釜石市大只越町一丁目44番地1,39.277879074156,141.87942349557,1,0,0,0,1,1,50人,,避難者収容施設
岩手県,紫波郡矢巾町,徳田小学校,岩手県紫波郡矢巾町西徳田6-53,39.60830282932,141.17248257947,1,0,0,-,-,-,,,避難所
岩手県,八幡平市,前森集落センター,岩手県八幡平市松尾第5地割463番地4,39.958829091327,140.99403950918,1,0,0,-,-,-,50人,,緊急避難場所
岩手県,遠野市,下関地区コミュニティ消防センター,岩手県遠野市,39.317780636913,141.56469832534,-,-,-,-,-,-,,,一時避難所
岩手県,下閉伊郡普代村,太田名部公民館,岩手県下閉伊郡普代村,40.009036239418,141.90404288436,1,0,0,-,-,-,,,第２避難所
岩手県,九戸郡九戸村,荒田地区集落センター,岩手県九戸郡九戸村長興寺15-66-172,40.228473161344,141.43784652599,-,-,-,-,-,-,,,一時避難場所
岩手県,和賀郡西和賀町,前郷公民館,岩手県和賀郡西和賀町沢内字前郷3地割36番地1,39.410616119251,140.74929466666,1,0,0,-,-,-,,,一次避難場所
岩手県,北上市,ふるさと体験館北上,岩手県北上市和賀町山口23地割24番地5,39.296519694714,140.97232658887,1,0,0,-,-,-,240人,,震災時第１次収容避難所・震災時第２次収容避難所・水害時収容避難所
岩手県,陸前高田市,大久保公民館,岩手県陸前高田市広田町字大久保76‐3,38.962490608103,141.69386236036,-,-,-,0,0,1,50人,,指定緊急避難場所
岩手県,下閉伊郡山田町,中央公民館,岩手県下閉伊郡山田町八幡町3-20,39.468613016039,141.94933400421,1,0,0,0,0,1,20人,,避難場所・避難所
岩手県,九戸郡軽米町,軽米高校,岩手県九戸郡軽米町大字軽米9-34-1,40.323131924853,141.45801918614,1,0,0,-,-,-,,,指定避難場所
岩手県,大船渡市,野々前しおさい会館,岩手県大船渡市三陸町綾里字大明神95番地1,39.049285343433,141.81440752141,1,0,0,-,-,-,50人,,第二避難場所（避難所）
岩手県,遠野市,沢目地区集会所,岩手県遠野市宮守町下鱒沢18地割37番地6,39.302474534292,141.39968205541,-,-,-,-,-,-,,,一時避難所
岩手県,北上市,専修大学北上高等学校,岩手県北上市新穀町二丁目4番64号,39.290219257501,141.11053262447,1,0,0,-,-,-,300人,,震災時第１次収容避難所・震災時第２次収容避難所
岩手県,宮古市,田鎖総合交流促進センター,岩手県宮古市田鎖第2地割118番地3,39.623334316943,141.90143383682,1,0,0,0,1,0,,,避難所
岩手県,宮古市,鵜磯小学校,岩手県宮古市大字重茂26字鵜磯25-6,39.616649401907,142.01905951829,1,0,0,0,0,1,,,避難所
岩手県,下閉伊郡岩泉町,小川屋内多目的運動場,岩手県下閉伊郡岩泉町門字町向31番地1,39.875612056679,141.65177063689,1,0,0,-,-,-,,,緊急避難場所・緊急避難所
岩手県,陸前高田市,横田小学校体育館,岩手県陸前高田市横田町字志田実3‐1,39.077411694557,141.58251832613,1,0,0,-,-,-,275人,,指定避難所
岩手県,二戸郡一戸町,元摺糠小学校,岩手県二戸郡一戸町平糠字東30-2,40.0616826776,141.25809280064,-,-,-,-,-,-,,,一時避難場所
岩手県,岩手郡滝沢村,鵜飼小学校,岩手県滝沢市鵜飼字洞畑87-1,39.741460681301,141.08337435014,1,0,0,-,-,-,500人,,指定避難所
岩手県,釜石市,栗橋公民館中村分館,岩手県釜石市橋野町第7地割74番地3,39.363891382863,141.7417437359,1,0,0,0,1,1,130人,,避難者収容施設
岩手県,久慈市,日野沢公民館,岩手県久慈市山形町日野沢4-72-1,40.177046071356,141.5488714156,1,0,0,0,1,0,,,指定避難場所
岩手県,上閉伊郡大槌町,交流促進センター,岩手県上閉伊郡大槌町吉里吉里第11地割25番,39.385461116937,141.93488123199,1,0,0,0,1,1,100人,,緊急避難場所・収容施設
岩手県,西磐井郡平泉町,佐野公民館,岩手県西磐井郡平泉町平泉字高田80-4,38.970358245231,141.12003352485,1,0,0,-,-,-,70人,,緊急避難場所
岩手県,盛岡市,加賀野地区活動センター,岩手県盛岡市加賀野四丁目18番55号,39.709421859432,141.16969874674,1,0,0,-,-,-,343人,,収容避難場所
岩手県,九戸郡洋野町,阿子木地区センター,岩手県九戸郡洋野町阿子木12-33-250,40.262114856817,141.70740932414,1,0,0,-,-,-,,,避難場所・指定避難所
岩手県,宮古市,松長根高台,岩手県宮古市,39.751484744366,141.98320548967,-,-,-,0,0,1,,,避難場所（高台）
岩手県,岩手郡葛巻町,小屋瀬農村センター,岩手県岩手郡葛巻町葛巻28-20,39.981815901735,141.40997832107,1,0,0,-,-,-,,,避難所
岩手県,宮古市,水沢地区集会施設,岩手県宮古市田老字水沢南35番地,39.800594482836,141.97604648513,1,0,0,0,1,1,,,避難場所（高台）・避難所
岩手県,下閉伊郡岩泉町,釜津田保育所,岩手県下閉伊郡岩泉町釜津田字沢口46番地4,39.783498900221,141.5566827503,1,0,0,-,-,-,,,緊急避難場所・緊急避難所
岩手県,盛岡市,西青山老人憩いの家,岩手県盛岡市西青山三丁目6番30号,39.722332434847,141.10222375221,1,0,0,-,-,-,62人,,収容避難場所
岩手県,久慈市,元麦生小中学校跡地前広場,岩手県久慈市侍浜町麦生3-36-1,40.225900840129,141.82344375144,1,0,0,-,-,-,2676人,,指定避難場所
岩手県,紫波郡矢巾町,矢巾東小学校,岩手県紫波郡矢巾町藤沢2-11,39.619856645139,141.16356936111,1,0,0,-,-,-,,,避難所
岩手県,大船渡市,大船渡保育園,岩手県大船渡市,39.065769046964,141.71998802882,1,0,0,-,-,-,150人,,第一避難場所・第二避難場所（避難所）
岩手県,和賀郡西和賀町,貝沢公民館,岩手県和賀郡西和賀町沢内字貝沢3地割7番地4,39.558518271077,140.84086466806,1,0,0,-,-,-,,,一次避難場所
岩手県,宮古市,田老第一小学校,岩手県宮古市田老字館が森155-2,39.736261230222,141.96648088724,1,0,0,0,1,1,,,避難場所（高台）・避難所
岩手県,久慈市,久慈市立中央公民館,岩手県久慈市新中の橋5-28-4,40.194637319047,141.76993530327,1,0,0,0,1,0,212人,,指定避難場所
岩手県,上閉伊郡大槌町,中央公民館,岩手県上閉伊郡大槌町小鎚第32地割金崎126,39.35938594201,141.90174794325,-,-,-,0,1,1,,,緊急避難場所
岩手県,気仙郡住田町,五葉地区公民館,岩手県気仙郡住田町上有住字中埣63番地,39.201807805477,141.65058053321,-,-,-,-,-,-,,,第１次避難場所
岩手県,陸前高田市,小泉様宅,岩手県陸前高田市気仙町字二日市111,38.994666437193,141.61997692676,-,-,-,0,0,1,100人,,指定緊急避難場所
岩手県,大船渡市,根白会館,岩手県大船渡市,39.157997004523,141.86070597484,1,0,0,-,-,-,30人,,第二避難場所（避難所）
岩手県,北上市,江釣子中学校,岩手県北上市上江釣子17地割172番地1,39.296584608139,141.07674337833,1,0,0,-,-,-,850人,,震災時第１次収容避難所・震災時第２次収容避難所
岩手県,二戸市,社会福祉会館,岩手県二戸市浄法寺町下前田42番地,40.183402079948,141.15552840117,1,0,0,-,-,-,,,一時避難場所・収容避難所
岩手県,大船渡市,地ノ森公園,岩手県大船渡市,39.07476641355,141.71494571177,-,-,-,-,-,-,,,第一避難場所
岩手県,北上市,黒沢尻東小学校,岩手県北上市中野町一丁目8番1号,39.289814221282,141.12463416391,1,0,0,-,-,-,900人,,震災時第１次収容避難所・震災時第２次収容避難所
岩手県,九戸郡洋野町,八木南町地区センター,岩手県九戸郡洋野町種市1-114-53,40.345437521252,141.76578296323,1,0,0,-,-,-,,,避難場所・指定避難所
岩手県,下閉伊郡岩泉町,小川保育園,岩手県下閉伊郡岩泉町門字町66番地1,39.877300390669,141.64933742126,1,0,0,-,-,-,,,緊急避難場所・緊急避難所
岩手県,大船渡市,日頃市地区公民館,岩手県大船渡市日頃市町字関谷21番地5,39.125867292718,141.67254508614,1,0,0,-,-,-,100人,,第二避難場所（避難所）
岩手県,釜石市,平田小学校校庭,岩手県釜石市大字平田4-2,39.245487532478,141.88721796656,-,-,-,1,0,0,,,緊急避難場所
岩手県,下閉伊郡岩泉町,二升石多目的集会施設,岩手県下閉伊郡岩泉町二升石字坂の下10番地5,39.8383415316,141.74609458224,1,0,0,-,-,-,,,緊急避難場所・緊急避難所
岩手県,岩手郡岩手町,岩瀬張小学校,岩手県岩手郡岩手町大字大坊5-8-1,39.966451881723,141.3314284861,1,0,0,-,-,-,,,緊急避難場所
岩手県,九戸郡洋野町,大野中学校,岩手県九戸郡洋野町大野9-39-1,40.284748689309,141.62395213647,1,0,0,-,-,-,,,避難場所・指定避難所
岩手県,西磐井郡平泉町,竜ヶ坂公民館,岩手県西磐井郡平泉町長島字竜ヶ坂11,39.002127364291,141.137621616,1,0,0,-,-,-,50人,,避難場所・避難所
岩手県,八幡平市,田山体育館,岩手県八幡平市田中下タ78,40.139422292009,140.95274864378,1,0,0,-,-,-,,,緊急避難場所
岩手県,遠野市,新里地区コミュニティ消防センター,岩手県遠野市,39.326718536906,141.47807486156,-,-,-,-,-,-,,,一時避難所
岩手県,宮古市,宿高台,岩手県宮古市,39.684645395744,141.96985391879,-,-,-,0,0,1,,,避難場所（高台）
岩手県,陸前高田市,米崎地区コミュニティセンター（自然環境活用センター）,岩手県陸前高田市米崎町字川向14‐1,39.015493337632,141.66567449973,1,0,0,-,-,-,310人,,指定避難所
岩手県,八幡平市,荒木田地域体育館,岩手県八幡平市,39.971426079888,141.09251096557,1,0,0,-,-,-,300人,,緊急避難場所
岩手県,下閉伊郡岩泉町,中島地区多目的集会施設,岩手県下閉伊郡岩泉町中島字中島81,39.84400339936,141.9408099688,1,0,0,-,-,-,,,緊急避難場所・緊急避難所
岩手県,釜石市,特別養護老人ホームあいぜんの里,岩手県釜石市大字平田第2地割51番地7,39.243027142778,141.8718267918,1,0,0,0,0,1,,,避難者収容施設・福祉避難所
岩手県,宮古市,江繋小学校,岩手県宮古市江繋第12地割8番地1,39.54161304599,141.65938608248,1,0,0,0,1,0,,,避難所
岩手県,釜石市,白浜星の宮神社境内,岩手県釜石市,39.330222589448,141.94757011746,-,-,-,0,0,1,,,緊急避難場所
岩手県,九戸郡九戸村,九戸村老人福祉センター,岩手県九戸郡九戸村戸田17-39,40.16419937294,141.42839957227,-,-,-,-,-,-,,,一時避難場所
岩手県,久慈市,久慈市総合福祉センター,岩手県久慈市旭町7-127-3,40.203289173316,141.77903988447,1,0,0,0,0,1,668人,,津波対応避難場所・指定避難場所
岩手県,久慈市,畑田保育園,岩手県久慈市寺里27-9-1,40.195036808613,141.74168173478,1,0,0,0,1,0,72人,,指定避難場所
岩手県,盛岡市,岩手大学野球部グラウンド,岩手県盛岡市上田四丁目3番,39.719672420005,141.13384905712,-,-,-,-,-,-,9645人,,指定避難場所
岩手県,和賀郡西和賀町,小繋沢公民館,岩手県和賀郡西和賀町小繋沢55地割147番地24,39.31579777209,140.75604871595,1,0,0,-,-,-,,,一次避難場所
岩手県,下閉伊郡岩泉町,箱石イク宅付近,岩手県下閉伊郡岩泉町小本字上中野31-3,39.844728680375,141.95655866577,-,-,-,0,0,1,,,緊急避難場所・津波避難場所・緊急避難所
岩手県,盛岡市,浅岸小学校,岩手県盛岡市浅岸字上大葛1番地,39.711093066039,141.23166783905,1,0,0,-,-,-,2559人,,指定避難場所・収容避難場所
岩手県,九戸郡軽米町,上舘農業構造改善センター,岩手県九戸郡軽米町大字上舘4-7-2,40.310586862726,141.48383650406,1,0,0,-,-,-,,,指定避難場所
岩手県,宮古市,駒形神社高台,岩手県宮古市,39.569146301971,141.94133474433,-,-,-,0,0,1,,,避難場所（高台）
岩手県,下閉伊郡岩泉町,白山神社,岩手県下閉伊郡岩泉町小本字中野64,39.850047624185,141.96249550123,-,-,-,0,0,1,,,緊急避難場所・津波避難場所・緊急避難所
岩手県,釜石市,観世音神社境内,岩手県釜石市大渡町3-14-8,39.34488263495,141.90471849023,-,-,-,0,0,1,,,緊急避難場所
岩手県,下閉伊郡田野畑村,和野公民館,岩手県下閉伊郡田野畑村田野畑120-19,39.931739403926,141.89462946871,1,0,0,-,-,-,,,避難場所
岩手県,釜石市,荒川集会所,岩手県釜石市唐丹町字上荒川146番地2,39.193311017362,141.84125423885,1,0,0,0,1,1,150人,,避難者収容施設
岩手県,宮古市,追切高台,岩手県宮古市,39.641543336866,142.00945476051,-,-,-,0,0,1,,,避難場所（高台）
岩手県,盛岡市,好摩児童館,岩手県盛岡市玉山区好摩字野中69-85,39.877575746348,141.16667522946,1,0,0,-,-,-,36人,,収容避難場所
岩手県,胆沢郡金ケ崎町,生きがい交流センター,岩手県胆沢郡金ケ崎町西根辻岡28,39.195465891076,141.09112620679,1,0,0,-,-,-,,,避難所
岩手県,陸前高田市,伊藤様宅下空地,岩手県陸前高田市気仙町字湊152‐9,38.989066984254,141.61989668494,-,-,-,0,0,1,100人,,指定緊急避難場所
岩手県,下閉伊郡山田町,山田北小学校,岩手県下閉伊郡山田町山田14-21,39.478768566723,141.94919680132,1,0,0,0,1,1,84人,,避難場所・避難所
岩手県,大船渡市,鉄道線路上高台,岩手県大船渡市,39.044594429352,141.7223997754,-,-,-,-,-,-,,,第一避難場所
岩手県,二戸市,十文字公民館,岩手県二戸市,40.294251866374,141.27810174933,1,0,0,-,-,-,,,一時避難場所・収容避難所
岩手県,岩手郡雫石町,西山地区構造改善センター,岩手県岩手郡雫石町長山西寄内95番地1,39.73533781403,140.96376887235,-,-,-,-,-,-,,,避難場所
岩手県,岩手郡葛巻町,吉ケ沢児童館・ゆきわり荘,岩手県岩手郡葛巻町葛巻43-34-1,40.039594964189,141.30496590654,1,0,0,-,-,-,,,避難所
岩手県,久慈市,諏訪公園,岩手県久慈市長内町35-98-7,40.18807707713,141.7982140344,1,0,0,0,1,1,1083人,,津波対応避難場所・指定避難場所
岩手県,遠野市,本宿地区コミュニティ消防センター,岩手県遠野市,39.357828410742,141.5750517442,-,-,-,-,-,-,,,一時避難所
岩手県,盛岡市,北松園児童センター・北松園老人福祉センター,岩手県盛岡市北松園四丁目1番4号,39.760068977309,141.17471046388,1,0,0,-,-,-,88人,,収容避難場所
岩手県,下閉伊郡普代村,黒崎公民館,岩手県下閉伊郡普代村,39.99888016927,141.92997253435,-,-,-,-,-,-,,,指定緊急避難場所
岩手県,盛岡市,中野小学校,岩手県盛岡市中野二丁目12番1号,39.690973839285,141.16672452236,1,0,0,-,-,-,5838人,,指定避難場所・収容避難場所
岩手県,九戸郡洋野町,種市武道館,岩手県九戸郡洋野町種市23-27,40.407105687925,141.71772548003,1,0,0,-,-,-,,,避難場所・指定避難所
岩手県,紫波郡紫波町,上平沢小学校,岩手県紫波郡紫波町稲藤字牡丹野30,39.54994133419,141.11499622292,1,0,0,-,-,-,,,避難場所
岩手県,二戸市,勤労青少年ホーム体育館,岩手県二戸市石切所字穴切20-1,40.260039478483,141.30057850578,1,0,0,-,-,-,,,収容避難所
岩手県,遠野市,八幡地区コミュニティ消防センター,岩手県遠野市松崎町白岩22-23-8,39.340411252198,141.54910364501,1,0,0,-,-,-,93人,,一時避難所・避難所
岩手県,久慈市,三崎中学校,岩手県久慈市宇部町22-961,40.149149753359,141.85204054934,1,0,0,0,1,0,3965人,,指定避難場所
岩手県,紫波郡紫波町,星山上通自治公民館,岩手県紫波郡紫波町星山字津花68-4,39.550540666897,141.18769419384,1,0,0,-,-,-,,,避難場所
岩手県,釜石市,昭和園クラブハウス,岩手県釜石市中妻町3丁目3番,39.270255712774,141.85703692724,1,0,0,0,1,1,50人,,避難者収容施設
岩手県,九戸郡軽米町,笹渡小中学校,岩手県九戸郡軽米町大字上舘58-108-31,40.34882273663,141.56724894194,1,0,0,-,-,-,,,指定避難場所
岩手県,紫波郡紫波町,勤労青少年ホーム,岩手県紫波郡紫波町日詰西一丁目2-14,39.558674937109,141.16667316416,1,0,0,-,-,-,,,避難場所
岩手県,北上市,飯豊小学校,岩手県北上市村崎野11地割101番地,39.341349930787,141.09574058827,1,0,0,-,-,-,800人,,震災時第１次収容避難所・震災時第２次収容避難所
岩手県,盛岡市,高松公園,岩手県盛岡市高松一丁目26番1号,39.723584128018,141.1429092321,-,-,-,-,-,-,40470人,,広域避難広場
岩手県,大船渡市,盛小学校,岩手県大船渡市盛町字沢川30,39.081631504089,141.70463307979,1,0,0,-,-,-,150人,,第一避難場所・第二避難場所（避難所）
岩手県,盛岡市,津志田児童センター,岩手県盛岡市津志田中央二丁目11番1号,39.661048719596,141.15674596502,1,0,0,-,-,-,59人,,収容避難場所
岩手県,久慈市,宇部公民館,岩手県久慈市宇部町5-41,40.131087120559,141.78738397991,1,0,0,-,-,-,608人,,指定避難場所
岩手県,九戸郡九戸村,柿の木集会所,岩手県九戸郡九戸村江刺家6-98-4,40.250473023379,141.40886502804,-,-,-,-,-,-,,,一時避難場所
岩手県,釜石市,橋野地区多目的集会施設（橋野ふれあいセンター）,岩手県釜石市橋野町第34地割13番地12,39.359825075295,141.76796017747,1,0,0,0,1,1,240人,,避難者収容施設・拠点避難所
岩手県,遠野市,附馬牛小学校,岩手県遠野市附馬牛下附馬牛11-31-1,39.414382935249,141.52955470468,1,0,0,-,-,-,1238人,,避難所
岩手県,陸前高田市,正徳寺,岩手県陸前高田市小友町字両替69,39.002695347406,141.68089288807,-,-,-,0,0,1,100人,,指定緊急避難場所
岩手県,九戸郡洋野町,中野生活改善センター,岩手県九戸郡洋野町中野5-62,40.305208683814,141.77257357356,1,0,0,-,-,-,,,避難場所・指定避難所
岩手県,遠野市,五日市公民館,岩手県遠野市,39.349607217415,141.55794055307,-,-,-,-,-,-,,,一時避難所
岩手県,北上市,笠松小学校,岩手県北上市和賀町横川目33地割8番地1,39.312971706833,140.98859168846,1,0,0,-,-,-,250人,,震災時第１次収容避難所・震災時第２次収容避難所・水害時収容避難所
岩手県,盛岡市,東黒石野公園,岩手県盛岡市松園一丁目34番1号,39.747826846927,141.16022194074,-,-,-,-,-,-,4525人,,指定避難場所
岩手県,岩手郡滝沢村,姥屋敷小中学校,岩手県滝沢市鵜飼字安達117-19,39.771041549297,141.0288754899,1,0,0,-,-,-,150人,,指定避難所
岩手県,岩手郡岩手町,一方井健康センター,岩手県岩手郡岩手町一方井第14地割67番地,39.969227133615,141.16769933843,1,0,0,-,-,-,,,緊急避難場所
岩手県,宮古市,花輪中学校,岩手県宮古市大字花輪5字程久保132,39.613377053009,141.89837338373,1,0,0,0,1,1,,,避難場所（高台）・避難所
岩手県,九戸郡軽米町,晴山農業構造改善センター,岩手県九戸郡軽米町大字晴山11-10,40.338295514263,141.4132894186,1,0,0,-,-,-,,,指定避難場所
岩手県,二戸市,二戸西小学校,岩手県二戸市上斗米字梅木9-1,40.273873042268,141.21297530062,1,0,0,-,-,-,,,一時避難場所・収容避難所
岩手県,岩手郡滝沢村,一本木小学校,岩手県滝沢市滝沢字柳原22,39.829815124217,141.10727646648,1,0,0,-,-,-,500人,,指定避難所
岩手県,胆沢郡金ケ崎町,街地区生涯教育センター,岩手県胆沢郡金ケ崎町西根北江甫53,39.203848888832,141.11472117558,1,0,0,-,-,-,,,避難所
岩手県,盛岡市,渋民公民館,岩手県盛岡市玉山区渋民字鶴塚55,39.848978273094,141.16951078606,1,0,0,-,-,-,6221人,,収容避難場所・広域避難広場
岩手県,大船渡市,大野部落公民館,岩手県大船渡市,39.144588352748,141.81858772023,1,0,0,-,-,-,30人,,第二避難場所（避難所）
岩手県,盛岡市,中央公園,岩手県盛岡市本宮字蛇屋敷7番地1,39.692651440344,141.12929962448,-,-,-,-,-,-,92980人,,広域避難広場
岩手県,岩手郡雫石町,南農村公園,岩手県岩手郡雫石町御明神石山76番地1,39.683220756226,140.92363656857,-,-,-,-,-,-,,,避難場所
岩手県,陸前高田市,柳沢会館,岩手県陸前高田市小友町字柳沢85,38.996852134141,141.69751386636,-,-,-,0,0,1,30人,,指定緊急避難場所
岩手県,陸前高田市,横田地区コミュニティセンター（横田基幹集落センター）,岩手県陸前高田市横田町字黄金山43‐1,39.075556337547,141.5828155795,1,0,0,-,-,-,217人,,指定避難所
岩手県,陸前高田市,川口地区高台,岩手県陸前高田市気仙町字川口14‐2,38.999113333554,141.62227266282,-,-,-,0,0,1,40人,,指定緊急避難場所
岩手県,気仙郡住田町,生涯スポーツセンター,岩手県気仙郡住田町下有住字中上291番地,39.187376184334,141.55666122336,1,0,0,-,-,-,,,第２次避難場所（収容所）
岩手県,二戸郡一戸町,出ル町へき地保育所,岩手県二戸郡一戸町,40.177086667195,141.21466208582,-,-,-,-,-,-,,,一時避難場所
岩手県,紫波郡紫波町,彦部公民館,岩手県紫波郡紫波町大巻字梅ノ木68-1,39.536453516396,141.18615044406,1,0,0,-,-,-,,,避難場所
岩手県,釜石市,唄貝集会所,岩手県釜石市甲子町第2地割232番地14,39.26285821678,141.73056862322,1,0,0,0,1,1,40人,,避難者収容施設
岩手県,大船渡市,蛸の浦保育園,岩手県大船渡市赤崎町字鳥沢62-2,39.033041072407,141.74003148626,1,0,0,-,-,-,100人,,第二避難場所（避難所）
岩手県,釜石市,尾崎アスレチック公園,岩手県釜石市,39.276393316367,141.89254664849,-,-,-,1,0,1,,,緊急避難場所
岩手県,遠野市,中沢地区コミュニティ消防センター,岩手県遠野市青笹町中沢9-93-2,39.305524499087,141.58522955633,1,0,0,-,-,-,74人,,一時避難所・避難所
岩手県,気仙郡住田町,世田米中学校,岩手県気仙郡住田町世田米字大崎72-1,39.139118910181,141.58271291598,1,0,0,-,-,-,,,第１次避難場所・第２次避難場所（収容所）
岩手県,北上市,後藤児童館・公民館,岩手県北上市和賀町後藤11地割54番地4,39.335268811957,141.03909808069,1,0,0,-,-,-,60人,,震災時第１次収容避難所・震災時第２次収容避難所
岩手県,盛岡市,つなぎ老人憩いの家,岩手県盛岡市繋字舘市100番10号,39.674523925696,141.02018518299,1,0,0,-,-,-,16人,,収容避難場所
岩手県,大船渡市,船河原高台,岩手県大船渡市,39.026748146551,141.70617811535,-,-,-,-,-,-,,,第一避難場所
岩手県,宮古市,北山地区総合センター,岩手県宮古市刈屋第9地割57番地2,39.663488350305,141.76501390569,1,0,0,0,1,0,,,避難所
岩手県,宮古市,末前神楽伝承館,岩手県宮古市田老字日影23番地,39.743711736096,141.90804952181,1,0,0,0,1,0,,,避難所
岩手県,上閉伊郡大槌町,大槌町役場仮庁舎,岩手県上閉伊郡大槌町,39.358815480226,141.9004210903,-,-,-,-,-,-,,,緊急避難場所
岩手県,久慈市,三崎林業センター,岩手県久慈市宇部町22-27-4,40.145969609604,141.85023796771,1,0,0,0,1,0,248人,,指定避難場所
岩手県,上閉伊郡大槌町,吉里吉里駅前広場,岩手県上閉伊郡大槌町,39.36979293164,141.93911091402,-,-,-,0,1,1,,,緊急避難場所
岩手県,岩手郡葛巻町,葛巻町コミュニティ防災センター,岩手県岩手郡葛巻町葛巻15-34-3,40.041667862763,141.43563445162,1,0,0,-,-,-,,,避難所
岩手県,陸前高田市,JA東部農業センター,岩手県陸前高田市米崎町字樋の口34‐2,39.014744883999,141.66731326674,-,-,-,0,0,1,200人,,指定緊急避難場所
岩手県,遠野市,赤羽根公民館,岩手県遠野市,39.265969345052,141.59135940244,-,-,-,-,-,-,,,一時避難所
岩手県,陸前高田市,諏訪神社,岩手県陸前高田市気仙町字町裏1,39.008545637269,141.61461024233,-,-,-,0,0,1,50人,,指定緊急避難場所
岩手県,遠野市,光興寺地区コミュニティ消防センター,岩手県遠野市,39.352931672418,141.52649352815,-,-,-,-,-,-,,,一時避難所
岩手県,二戸市,大森地区農村集落多目的集会センター,岩手県二戸市浄法寺町サイカツ平22番地2,40.171247341736,141.13148367706,1,0,0,-,-,-,,,一時避難場所・収容避難所
岩手県,盛岡市,松園地区活動センター,岩手県盛岡市西松園二丁目18番1号,39.754111639114,141.16229087638,1,0,0,-,-,-,225人,,収容避難場所
岩手県,遠野市,附馬牛町第2区コミュニティ消防センター,岩手県遠野市附馬牛町下附馬牛22地割6番地7,39.414171668511,141.5329465811,-,-,-,-,-,-,,,一時避難所
岩手県,北上市,県立北上翔南高等学校,岩手県北上市相去町高前壇13番地,39.258542176881,141.09061920123,1,0,0,-,-,-,195人,,震災時第１次収容避難所・震災時第２次収容避難所
岩手県,盛岡市,仁王小学校,岩手県盛岡市本町通二丁目18番1号,39.710137940186,141.14867561124,1,0,0,-,-,-,6263人,,指定避難場所・収容避難場所
岩手県,紫波郡矢巾町,太田農事交流センター,岩手県紫波郡矢巾町太田11-1-10,39.583001808241,141.13391265883,1,0,0,-,-,-,,,避難所
岩手県,盛岡市,渋民小学校,岩手県盛岡市玉山区渋民字鶴塚3,39.847568123,141.16809300876,1,0,0,-,-,-,5185人,,収容避難場所・広域避難広場
岩手県,下閉伊郡普代村,ふれあい交流センター,岩手県下閉伊郡普代村第13地割字普代87番地2,40.00628299633,141.88441352283,-,-,-,-,-,-,,,第１避難所
岩手県,宮古市,畑地区集会施設,岩手県宮古市田老字上沖86番地1,39.787440619733,141.91556706031,1,0,0,0,1,0,,,避難所
岩手県,岩手郡岩手町,働く婦人の家,岩手県岩手郡岩手町川口第12地割10番地,39.915254562232,141.2022778484,1,0,0,-,-,-,,,緊急避難場所
岩手県,盛岡市,大慈寺小学校,岩手県盛岡市大慈寺町6番47号,39.692767913092,141.15817801173,1,0,0,-,-,-,4311人,,指定避難場所・収容避難場所
岩手県,陸前高田市,新田町内会館,岩手県陸前高田市竹駒町字新田42,39.045752770935,141.61300744565,-,-,-,0,0,1,30人,,指定緊急避難場所
岩手県,気仙郡住田町,住田町学校給食センター,岩手県気仙郡住田町,39.144676767427,141.55325098293,-,-,-,-,-,-,,,第１次避難場所
岩手県,和賀郡西和賀町,鷲之巣公民館,岩手県和賀郡西和賀町鷲之巣50地割135番地,39.289660112434,140.81334625617,1,0,0,-,-,-,,,一次避難場所
岩手県,九戸郡九戸村,宇堂口地区農村婦人の家,岩手県九戸郡九戸村戸田5-26-1,40.122732695168,141.43525185725,-,-,-,-,-,-,,,一時避難場所
岩手県,和賀郡西和賀町,細内公民館,岩手県和賀郡西和賀町細内68地割82番地3,39.309930818915,140.73288225881,1,0,0,-,-,-,,,一次避難場所
岩手県,九戸郡洋野町,林郷小学校,岩手県九戸郡洋野町大野47-9,40.303498034331,141.67399408916,1,0,0,-,-,-,,,避難場所・指定避難所
岩手県,八幡平市,時森分館,岩手県八幡平市松尾第2地割289番地,39.969513611938,141.04808122088,1,0,0,-,-,-,50人,,緊急避難場所
岩手県,釜石市,天照御祖神社境内,岩手県釜石市,39.199813155891,141.86166583051,-,-,-,0,0,1,,,緊急避難場所
岩手県,盛岡市,好摩体育館,岩手県盛岡市玉山区好摩字野中69-48,39.877573272608,141.16749934288,1,0,0,-,-,-,139人,,収容避難場所
岩手県,盛岡市,軽費老人ホームケアガーデン高松公園,岩手県盛岡市上田字毛無森2番地7,39.729765897212,141.14547824185,1,0,0,-,-,-,50人,,収容避難場所
岩手県,下閉伊郡岩泉町,旧大平小中学校,岩手県下閉伊郡岩泉町安家字大平115番地2,39.970622926782,141.6618941023,1,0,0,-,-,-,,,緊急避難場所・緊急避難所
岩手県,遠野市,遠野市総合福祉センター,岩手県遠野市松崎町白岩字薬研淵1-3,39.343460370638,141.53668540484,1,0,0,-,-,-,2173人,,避難所
岩手県,九戸郡洋野町,戸類家地区改善センター,岩手県九戸郡洋野町種市10-4,40.375796832743,141.73653653551,1,0,0,-,-,-,,,避難場所・指定避難所
岩手県,久慈市,本波林業センター,岩手県久慈市侍浜町本波11-75-4,40.240213083819,141.80610535507,1,0,0,0,1,0,237人,,指定避難場所
岩手県,下閉伊郡田野畑村,アズビィ学習センター,岩手県下閉伊郡田野畑村和野278-1,39.924139849403,141.90248593826,1,0,0,-,-,-,,,避難場所
岩手県,久慈市,馬越公民館,岩手県久慈市山根町下戸鎖3-95-2,40.072196392507,141.71585893269,1,0,0,0,1,0,500人,,指定避難場所
岩手県,九戸郡洋野町,中野中学校,岩手県九戸郡洋野町中野2-45-7,40.309455485161,141.7744565589,1,0,0,-,-,-,,,避難場所・指定避難所
岩手県,和賀郡西和賀町,槻沢公民館,岩手県和賀郡西和賀町槻沢27地割197番地,39.357435535262,140.77365143899,1,0,0,-,-,-,,,一次避難場所
岩手県,釜石市,市道鵜住居2号線側高台,岩手県釜石市,39.323823883564,141.91071090773,-,-,-,0,0,1,,,緊急避難場所
岩手県,北上市,東陵中学校,岩手県北上市立花1地割8番地,39.289953665383,141.14408806277,1,0,0,-,-,-,750人,,震災時第１次収容避難所・震災時第２次収容避難所
岩手県,盛岡市,盛岡第四高等学校,岩手県盛岡市津志田26地割17番地1,39.671878223769,141.15894526893,1,0,0,0,1,0,7700人,,収容避難場所・広域避難広場
岩手県,大船渡市,海の星幼稚園園庭,岩手県大船渡市,39.072445660017,141.717352273,-,-,-,-,-,-,,,第一避難場所
岩手県,宮古市,身体障害者福祉センター,岩手県宮古市,39.597767752365,141.94405227069,1,0,0,0,0,1,,,避難所
岩手県,北上市,黒沢尻体育館,岩手県北上市本石町二丁目5番1号,39.292183132384,141.11652652204,1,0,0,-,-,-,400人,,震災時第１次収容避難所・震災時第２次収容避難所・水害時収容避難所
岩手県,釜石市,ヨコゼ沢高台,岩手県釜石市,39.322984475069,141.92268974088,-,-,-,0,0,1,,,緊急避難場所
岩手県,大船渡市,ローソン大船渡越喜来店駐車場,岩手県大船渡市,39.124084613233,141.80966792621,-,-,-,-,-,-,,,第一避難場所
岩手県,紫波郡矢巾町,室岡公民館,岩手県紫波郡矢巾町室岡6-40-6,39.595191654505,141.12202740723,1,0,0,-,-,-,,,避難所
岩手県,釜石市,南野田集会所,岩手県釜石市野田町二丁目7番12号,39.256027582131,141.82235349323,1,0,0,0,1,1,30人,,避難者収容施設
岩手県,盛岡市,盛岡八幡宮岩手護国神社境内,岩手県盛岡市八幡町13番1号,39.695034394287,141.1620137201,-,-,-,-,-,-,4050人,,指定避難場所
岩手県,盛岡市,乙部地区公民館,岩手県盛岡市乙部6地割79番1,39.616075687252,141.19341095848,1,0,0,-,-,-,201人,,収容避難場所
岩手県,九戸郡九戸村,おりつめ構造改善センター,岩手県九戸郡九戸村江刺家14-104-2,40.264118664024,141.40664537765,-,-,-,-,-,-,,,一時避難場所
岩手県,下閉伊郡普代村,普代村高齢者活動施設,岩手県下閉伊郡普代村,40.002891629329,141.8833153059,1,0,0,-,-,-,,,指定緊急避難場所・第２避難所
岩手県,下閉伊郡山田町,大沢小学校,岩手県下閉伊郡山田町大沢6-51,39.486662861553,141.97233579364,1,0,0,0,0,1,84人,,避難場所・避難所
岩手県,宮古市,旧船員寮前高台,岩手県宮古市,39.645805692002,141.97377212443,-,-,-,0,0,1,,,避難場所（高台）
岩手県,紫波郡矢巾町,西徳田2区公民館,岩手県紫波郡矢巾町西徳田6-58-2,39.609169335839,141.17302420473,1,0,0,-,-,-,,,避難所
岩手県,紫波郡矢巾町,不動小学校,岩手県紫波郡矢巾町室岡12-50,39.593691921305,141.12447158652,1,0,0,-,-,-,,,避難所
岩手県,盛岡市,大新児童館,岩手県盛岡市南青山町13番3号,39.7190886933,141.11396467085,1,0,0,-,-,-,37人,,収容避難場所
岩手県,大船渡市,主要地方道八ヶ森方向高台,岩手県大船渡市,39.039314917075,141.79205804065,-,-,-,-,-,-,,,第一避難場所
岩手県,宮古市,三王岩展望台付近駐車場高台,岩手県宮古市,39.733942849092,141.97909504282,-,-,-,0,0,1,,,避難場所（高台）
岩手県,久慈市,中央公民館枝成沢分館,岩手県久慈市枝成沢18-1-2,40.205321174554,141.70894493656,1,0,0,-,-,-,1184人,,指定避難場所
岩手県,北上市,江釣子地区交流センター,岩手県北上市上江釣子17-116,39.298174979548,141.07257331267,1,0,0,-,-,-,130人,,震災時第１次収容避難所・水害時収容避難所
岩手県,西磐井郡平泉町,悠久の湯平泉温泉,岩手県西磐井郡平泉町平泉字大沢1-1,38.99097243193,141.11066635841,1,0,0,1,0,0,75人,,避難場所・避難所
岩手県,陸前高田市,上長部団地公園,岩手県陸前高田市気仙町字上長部66‐4,38.993002338132,141.61006118104,-,-,-,0,0,1,200人,,指定緊急避難場所
岩手県,九戸郡洋野町,二区地区センター,岩手県九戸郡洋野町種市23-27-2,40.410469122568,141.71891686735,1,0,0,-,-,-,,,避難場所・指定避難所
岩手県,九戸郡軽米町,軽米小学校,岩手県九戸郡軽米町大字軽米5-34-2,40.320471305694,141.46486859215,1,0,0,-,-,-,,,指定避難場所
岩手県,陸前高田市,黄川田様宅庭,岩手県陸前高田市小友町字上新田29,38.986530985047,141.69946122951,-,-,-,0,0,1,20人,,指定緊急避難場所
岩手県,盛岡市,杜陵老人福祉センター,岩手県盛岡市南大通一丁目7番5号,39.698247784818,141.15559759585,1,0,0,-,-,-,60人,,収容避難場所
岩手県,紫波郡紫波町,常光寺,岩手県紫波郡紫波町東長岡字竹洞116,39.580654129042,141.19894486976,1,0,0,-,-,-,,,避難場所
岩手県,花巻市,花巻中学校,岩手県花巻市若葉町二丁目16-22,39.389319499821,141.102341236,1,0,0,-,-,-,,,拠点避難所・二次的な避難所/避難場所
岩手県,北上市,津村田生活改善センター,岩手県北上市和賀町横川目27地割140番地2,39.333483520174,140.98377804542,1,0,0,-,-,-,50人,,震災時第１次収容避難所・震災時第２次収容避難所
岩手県,上閉伊郡大槌町,桜木町保健福祉会館,岩手県上閉伊郡大槌町桜木町14番9号,39.360213685555,141.88816950758,1,0,0,-,-,-,110人,,収容施設
岩手県,陸前高田市,米崎地区コミュニティセンター（自然環境活用センター）,岩手県陸前高田市米崎町字川向14‐1,39.015493337632,141.66567449973,-,-,-,0,0,1,200人,,指定緊急避難場所
岩手県,宮古市,宮古水産加工団地付近旧国道高台,岩手県宮古市,39.726668428628,141.96653466259,-,-,-,0,0,1,,,避難場所（高台）
岩手県,大船渡市,赤崎地区公民館・漁村センター,岩手県大船渡市赤崎町字山口80-38,39.066389867379,141.73779451232,-,-,-,-,-,-,,,避難場所
岩手県,下閉伊郡岩泉町,中沢公民館,岩手県下閉伊郡岩泉町門字横道49番地,39.895622946806,141.62536090037,1,0,0,-,-,-,,,緊急避難場所・緊急避難所
岩手県,盛岡市,桜城小学校,岩手県盛岡市大通り三丁目8番1号,39.704124587596,141.14167370325,1,0,0,-,-,-,4894人,,指定避難場所・収容避難場所
岩手県,盛岡市,盛岡地域地場産業振興センター,岩手県盛岡市繋字尾入野64番地102,39.692310907715,141.02397550621,-,-,-,-,-,-,2521人,,指定避難場所
岩手県,紫波郡矢巾町,岩清水コミュニティセンター,岩手県紫波郡矢巾町岩清水5-199-1,39.583053560514,141.10589626411,1,0,0,-,-,-,,,避難所
岩手県,釜石市,大洞集会所,岩手県釜石市甲子町第8地割345番地2,39.241336660089,141.78202475133,1,0,0,0,1,1,30人,,避難者収容施設
岩手県,陸前高田市,大陽公民館,岩手県陸前高田市広田町字大陽180‐2,38.973576050299,141.67781929418,-,-,-,0,0,1,50人,,指定緊急避難場所
岩手県,宮古市,久保田山高台,岩手県宮古市,39.574647455734,141.94368560921,-,-,-,0,0,1,,,避難場所（高台）
岩手県,下閉伊郡岩泉町,小川中学校,岩手県下閉伊郡岩泉町門字町向39番地,39.875112144017,141.65299837157,1,0,0,-,-,-,,,緊急避難場所・緊急避難所
岩手県,久慈市,久慈湊小学校,岩手県久慈市湊町15-10-1,40.196312195657,141.78524801715,1,0,0,-,-,-,3036人,,指定避難場所
岩手県,釜石市,唐丹中学校,岩手県釜石市唐丹町字小白浜314,39.208690060454,141.86550957929,1,0,0,1,0,1,400人,,緊急避難場所・避難者収容施設・拠点避難所
岩手県,紫波郡矢巾町,南昌コミュニティセンター,岩手県紫波郡矢巾町広宮沢1-2-129,39.625265033647,141.09208976652,1,0,0,-,-,-,,,避難所
岩手県,遠野市,花輪地区コミュニティ消防センター,岩手県遠野市附馬牛町下附馬牛10地割62番地3,39.410532875177,141.52360867122,-,-,-,-,-,-,,,一時避難所
岩手県,岩手郡雫石町,雫石公民館,岩手県岩手郡雫石町源大堂71番地5,39.692292747629,140.96986233745,1,0,0,-,-,-,,,避難場所・避難所
岩手県,久慈市,平山小学校,岩手県久慈市夏井町早坂14-51-7,40.217473730165,141.78190562734,1,0,0,0,1,0,2104人,,指定避難場所
岩手県,盛岡市,高松老人憩いの家,岩手県盛岡市高松三丁目8番53号,39.728299306892,141.14196750249,1,0,0,-,-,-,40人,,収容避難場所
岩手県,西磐井郡平泉町,大平公民館,岩手県西磐井郡平泉町長島字束稲39,39.001386741568,141.16992985304,1,0,0,-,-,-,20人,,緊急避難場所
岩手県,宮古市,善林寺高台,岩手県宮古市,39.641991516323,141.96427570489,-,-,-,0,0,1,,,避難場所（高台）
岩手県,釜石市,熊野神社境内,岩手県釜石市,39.193000238615,141.86050145072,-,-,-,0,0,1,,,緊急避難場所
岩手県,八幡平市,柏台小学校,岩手県八幡平市柏台2-7-10,39.917251930939,140.98125415472,1,0,0,-,-,-,300人,,緊急避難場所
岩手県,盛岡市,勤労福祉会館,岩手県盛岡市紺屋町2番9号,39.701641939585,141.1561168564,1,0,0,0,1,0,1312人,,収容避難場所
岩手県,岩手郡雫石町,大村小学校,岩手県岩手郡雫石町南畑第14地割2番地,39.599335337125,140.9242253926,1,0,0,-,-,-,,,避難場所・避難所
岩手県,盛岡市,就業改善センター（好摩地区公民館）,岩手県盛岡市玉山区好摩字野中69-48,39.877097518403,141.16699220452,1,0,0,-,-,-,90人,,収容避難場所
岩手県,久慈市,三船十段記念館,岩手県久慈市川貫5-20-230,40.187940499561,141.75869744885,1,0,0,-,-,-,2362人,,指定避難場所
岩手県,宮古市,女遊戸高台,岩手県宮古市,39.693450081245,141.95256625146,-,-,-,0,0,1,,,避難場所（高台）
岩手県,陸前高田市,後浜地区高台,岩手県陸前高田市広田町字後浜60‐5,38.960409456942,141.6915351491,-,-,-,0,0,1,100人,,指定緊急避難場所
岩手県,大船渡市,真称寺山門前,岩手県大船渡市,39.157974696104,141.86026381368,-,-,-,-,-,-,,,第一避難場所
岩手県,陸前高田市,大祝地区高台,岩手県陸前高田市広田町字大祝48付近,38.957678718271,141.71891895098,-,-,-,0,0,1,100人,,指定緊急避難場所
岩手県,釜石市,甲子公民館砂子渡分館,岩手県釜石市甲子町第4地割29番地5,39.254051404383,141.75118488991,1,0,0,0,1,1,40人,,避難者収容施設
岩手県,下閉伊郡岩泉町,坂本地区集会施設,岩手県下閉伊郡岩泉町安家字坂本15番地6,39.97142936612,141.60899006396,1,0,0,-,-,-,,,緊急避難場所・緊急避難所
岩手県,下閉伊郡山田町,ふるさとセンター,岩手県下閉伊郡山田町大沢8-17,39.484571443222,141.9745969434,1,0,0,0,0,1,20人,,避難場所・避難所
岩手県,遠野市,岩根橋地区集会所,岩手県遠野市宮守町下宮守20地割35番地,39.354939284963,141.31296246016,1,0,0,-,-,-,50人,,一時避難所・避難所
岩手県,岩手郡岩手町,南山形小学校,岩手県岩手郡岩手町大字川口26-52-2,39.897607004911,141.30137794054,1,0,0,-,-,-,,,緊急避難場所
岩手県,八幡平市,南寄木分館,岩手県八幡平市松尾寄木第29地割40番地6,39.922215884354,141.04824775409,1,0,0,-,-,-,50人,,緊急避難場所
岩手県,陸前高田市,小松様宅東,岩手県陸前高田市小友町字西下36‐3,39.001106890692,141.68928109505,-,-,-,0,0,1,50人,,指定緊急避難場所
岩手県,岩手郡葛巻町,葛巻中学校,岩手県岩手郡葛巻町葛巻20-91,40.04316209507,141.43146238045,1,0,0,-,-,-,,,避難所
岩手県,久慈市,山形中学校,岩手県久慈市山形町川井10-87-11,40.150999748095,141.56820655293,1,0,0,-,-,-,9660人,,指定避難場所
岩手県,釜石市,洞関地区コミュニティ消防センター,岩手県釜石市甲子町第5地割206番地3,39.250399201642,141.76840900905,1,0,0,0,1,1,55人,,避難者収容施設
岩手県,花巻市,松園振興センター,岩手県花巻市松園町4-3,39.409794586691,141.0956607348,1,0,0,-,-,-,,,拠点避難所・二次的な避難所/避難場所
岩手県,久慈市,久喜小学校,岩手県久慈市宇部町19-192-1,40.142617120907,141.84436094712,1,0,0,0,1,0,3593人,,指定避難場所
岩手県,遠野市,青笹小学校,岩手県遠野市青笹町青笹11-1,39.31889769956,141.57222180895,1,0,0,-,-,-,450人,,避難所
岩手県,上閉伊郡大槌町,大槌稲荷神社,岩手県上閉伊郡大槌町,39.359743726858,141.91796441042,-,-,-,0,1,1,,,緊急避難場所
岩手県,宮古市,蟇目小学校,岩手県宮古市蟇目第6-133,39.634403837189,141.83355404862,1,0,0,0,1,0,,,避難所
岩手県,遠野市,平野原地区コミュニティ消防センター,岩手県遠野市上郷町平野原3-7-1,39.268748302749,141.58621149084,1,0,0,-,-,-,139人,,一時避難所・避難所
岩手県,宮古市,根城農村センター,岩手県宮古市老木第20地割7番地2,39.628780108259,141.87098401744,1,0,0,0,1,0,,,避難所
岩手県,八幡平市,田山小学校,岩手県八幡平市下川原20,40.140750685741,140.95137482648,1,0,0,-,-,-,1000人,,緊急避難場所
岩手県,岩手郡葛巻町,吉ケ沢小学校,岩手県岩手郡葛巻町葛巻43-34-1,40.039593880193,141.30565303213,1,0,0,-,-,-,,,避難所
岩手県,九戸郡九戸村,戸田コミュニティー消防センター,岩手県九戸郡九戸村戸田16-115-5,40.162991202123,141.42823021458,-,-,-,-,-,-,,,一時避難場所
岩手県,二戸市,福岡小学校,岩手県二戸市福岡字下川又15,40.271854398028,141.30316918982,1,0,0,-,-,-,,,一時避難場所・収容避難所
岩手県,九戸郡洋野町,アグリパークおおさわ,岩手県九戸郡洋野町種市69-16-1,40.380364748816,141.6205149593,-,-,-,-,-,-,,,災害支援協定に基づく避難場所
岩手県,遠野市,鱒沢小学校,岩手県遠野市宮守町下鱒沢17-5,39.300755300391,141.40015157063,1,0,0,-,-,-,500人,,避難所
岩手県,気仙郡住田町,上有住地区公民館,岩手県気仙郡住田町上有住字山脈地15番地1,39.197778550385,141.58817490575,1,0,0,-,-,-,,,第２次避難場所（収容所）
岩手県,陸前高田市,泉増寺高台,岩手県陸前高田市気仙町字荒川127,39.018623148566,141.61412135559,-,-,-,0,0,1,50人,,指定緊急避難場所
岩手県,釜石市,大石地域交流センター,岩手県釜石市唐丹町字向54番地,39.178364615599,141.89073273468,1,0,0,0,1,1,30人,,緊急避難場所・避難者収容施設
岩手県,陸前高田市,米崎小学校体育館,岩手県陸前高田市米崎町字川内1,39.016793084871,141.66291912265,-,-,-,0,0,1,400人,,指定緊急避難場所
岩手県,二戸郡一戸町,一戸町役場,岩手県二戸郡一戸町高善寺字大川鉢24-9,40.213452152229,141.29540502837,-,-,-,-,-,-,,,一時避難場所
岩手県,九戸郡軽米町,小軽米中学校,岩手県九戸郡軽米町大字小軽米10-3-5,40.299706551565,141.52925355312,1,0,0,-,-,-,,,指定避難場所
岩手県,陸前高田市,社会福祉法人高寿園,岩手県陸前高田市高田町字東和野67,39.022258751927,141.63899002795,-,-,-,0,0,1,4000人,,指定緊急避難場所
岩手県,盛岡市,山田地区コミュニティセンター,岩手県盛岡市玉山区下田字頭無15-12,39.849036061168,141.14981018336,1,0,0,-,-,-,45人,,収容避難場所
岩手県,北上市,いわさき小学校,岩手県北上市和賀町岩崎18地割53番地3,39.281826892985,141.04116579754,1,0,0,-,-,-,610人,,震災時第１次収容避難所・震災時第２次収容避難所・水害時収容避難所
岩手県,宮古市,門馬地域振興センター,岩手県宮古市,39.633979592013,141.43756105674,1,0,0,0,1,0,,,避難所
岩手県,胆沢郡金ケ崎町,三ケ尻小学校,岩手県胆沢郡金ケ崎町三ケ尻十三本塚16-2,39.218402552648,141.11115173351,1,0,0,-,-,-,,,避難所
岩手県,釜石市,駒木不動沢,岩手県釜石市,39.278163055268,141.86794231886,-,-,-,0,0,1,,,緊急避難場所
岩手県,下閉伊郡岩泉町,小川小学校,岩手県下閉伊郡岩泉町袰綿字関屋57番地1,39.85740655376,141.68148576683,1,0,0,-,-,-,,,緊急避難場所・緊急避難所
岩手県,盛岡市,大慈寺児童センター・大慈寺老人福祉センター,岩手県盛岡市茶畑二丁目16番20号,39.691265325889,141.16047235033,1,0,0,-,-,-,54人,,収容避難場所
岩手県,久慈市,旭町公民館,岩手県久慈市旭町7-73,40.201881054437,141.7743846863,1,0,0,-,-,-,25人,,指定避難場所
岩手県,盛岡市,城東中学校,岩手県盛岡市東新庄一丁目30番1号,39.701575718932,141.17365146033,1,0,0,-,-,-,4809人,,指定避難場所・収容避難場所
岩手県,遠野市,佐比内地区コミュニティ消防センター,岩手県遠野市上郷町佐比内22-29-1,39.283233086126,141.6090337086,1,0,0,-,-,-,279人,,一時避難所・避難所
岩手県,大船渡市,中野地域公民館,岩手県大船渡市末崎町字中野74-6,39.013209104882,141.71420349342,-,-,-,-,-,-,,,避難場所
岩手県,盛岡市,津志田小学校及び津志田近隣公園,岩手県盛岡市津志田中央一丁目8番40号,39.663381745997,141.15532647917,-,-,-,-,-,-,13347人,,広域避難広場
岩手県,宮古市,旧蟇目中学校,岩手県宮古市,39.634747389341,141.83279130043,1,0,0,0,1,0,,,避難所
岩手県,盛岡市,河南中学校,岩手県盛岡市茶畑二丁目17番1号,39.690621060446,141.162877661,1,0,0,-,-,-,6542人,,指定避難場所・収容避難場所
岩手県,宮古市,老人憩いの家,岩手県宮古市田老字小田代16番地,39.720676161411,141.93010664778,1,0,0,0,1,0,,,避難所
岩手県,釜石市,大松,岩手県釜石市甲子町第3地割139番地,39.254250972187,141.74078979535,1,0,0,0,0,1,,,避難者収容施設・福祉避難所
岩手県,陸前高田市,竹駒地区コミュニティセンター（定住促進センター）,岩手県陸前高田市竹駒町字館44,39.036403332046,141.60799320675,1,0,0,-,-,-,214人,,指定避難所
岩手県,大船渡市,鳥沢高台,岩手県大船渡市,39.03196511105,141.74074617304,-,-,-,-,-,-,,,第一避難場所
岩手県,盛岡市,緑が丘地区活動センター,岩手県盛岡市黒石野二丁目14番1号,39.74241716495,141.14583345265,1,0,0,-,-,-,149人,,収容避難場所
岩手県,下閉伊郡山田町,轟木児童館,岩手県下閉伊郡山田町織笠19-33-2,39.438722519724,141.92768039513,1,0,0,0,1,0,12人,,避難所
岩手県,下閉伊郡普代村,八幡神社,岩手県下閉伊郡普代村,40.007232594144,141.88423461202,-,-,-,-,-,-,,,第１避難所
岩手県,盛岡市,手代森児童センター,岩手県盛岡市黒川6地割12番1号,39.638768617502,141.18889953853,1,0,0,-,-,-,81人,,収容避難場所
岩手県,遠野市,第8区新張自治会館,岩手県遠野市,39.336333337964,141.53906454387,-,-,-,-,-,-,,,一時避難所
岩手県,遠野市,鱒沢就業改善センター,岩手県遠野市宮守町下鱒沢34-2-9,39.297107127368,141.40350640828,1,0,0,-,-,-,100人,,避難所
岩手県,九戸郡軽米町,長倉生活改善センター,岩手県九戸郡軽米町大字長倉4-1-2,40.362519083112,141.48289064856,1,0,0,-,-,-,,,指定避難場所
岩手県,盛岡市,盛岡自動車学校,岩手県盛岡市稲荷町3番9号,39.709850781872,141.11317608678,-,-,-,-,-,-,7500人,,指定避難場所
岩手県,盛岡市,外山小学校,岩手県盛岡市玉山区薮川字外山27-7,39.779849620665,141.32054402925,1,0,0,-,-,-,1695人,,指定避難場所・収容避難場所
岩手県,下閉伊郡普代村,はまゆり会館,岩手県下閉伊郡普代村,40.009526586004,141.88591460999,1,0,0,-,-,-,,,第２避難所
岩手県,宮古市,門馬小学校,岩手県宮古市田代第4地割148番地1,39.639911874641,141.42508864267,1,0,0,0,1,0,,,避難所
岩手県,大船渡市,千歳部落公民館,岩手県大船渡市,39.162659405509,141.89270616816,1,0,0,-,-,-,60人,,第一避難場所・第二避難場所（避難所）
岩手県,紫波郡紫波町,赤沢児童館,岩手県紫波郡紫波町赤沢字駒場1-1,39.550275163003,141.23063153525,1,0,0,-,-,-,,,避難場所
岩手県,二戸市,浄法寺体育館,岩手県二戸市,40.186701878814,141.16268023833,1,0,0,-,-,-,,,一時避難場所・収容避難所
岩手県,大船渡市,猪川小学校,岩手県大船渡市猪川町字轆轤石23,39.093720853529,141.7115823957,1,0,0,-,-,-,150人,,第二避難場所（避難所）
岩手県,九戸郡洋野町,おこない児童館,岩手県九戸郡洋野町小子内4-85-11,40.336369266588,141.7682720579,-,-,-,-,-,-,,,避難場所
岩手県,九戸郡九戸村,伊保内ふれあい会館,岩手県九戸郡九戸村伊保内12-49-1,40.202914538382,141.42522355775,-,-,-,-,-,-,,,一時避難場所
岩手県,久慈市,山根小学校,岩手県久慈市山根町下戸鎖5-41-1,40.086369624387,141.71085596713,1,0,0,0,1,0,3256人,,指定避難場所
岩手県,上閉伊郡大槌町,大槌高等学校,岩手県上閉伊郡大槌町大槌15-71-1,39.37107936827,141.90246494278,1,0,0,-,-,-,840人,,収容施設
岩手県,下閉伊郡岩泉町,岩泉基幹集落センタ?,岩手県下閉伊郡岩泉町岩泉字天間17番地7,39.847888403064,141.78582572403,1,0,0,-,-,-,,,緊急避難場所・緊急避難所
岩手県,久慈市,大崎生活技術伝承館,岩手県久慈市夏井町大崎4-1-3,40.212110445265,141.7800616251,1,0,0,0,1,0,,,指定避難場所
岩手県,上閉伊郡大槌町,伸松裏山,岩手県上閉伊郡大槌町,39.352855055238,141.90574280113,-,-,-,0,1,1,,,緊急避難場所
岩手県,盛岡市,玉山中学校,岩手県盛岡市玉山区日戸字鷹高39-2,39.79528811264,141.18981074139,1,0,0,-,-,-,3353人,,指定避難場所・収容避難場所
岩手県,久慈市,角柄公民館,岩手県久慈市侍浜町角柄11-126-1,40.251841435299,141.73364669171,1,0,0,0,1,0,750人,,指定避難場所
岩手県,遠野市,飯豊地区コミュニティ消防センター,岩手県遠野市土淵町飯豊5-14-2,39.33578784745,141.58292316361,1,0,0,-,-,-,96人,,一時避難所・避難所
岩手県,胆沢郡金ケ崎町,西小学校,岩手県胆沢郡金ケ崎町西根高谷野原23,39.19677619134,141.06789757174,1,0,0,-,-,-,,,避難所
岩手県,久慈市,鳥谷子供会館,岩手県久慈市夏井町鳥谷6-14,40.230816648313,141.77591655344,1,0,0,-,-,-,48人,,指定避難場所
岩手県,上閉伊郡大槌町,2丁目裏山,岩手県上閉伊郡大槌町,39.35762123753,141.93380064382,-,-,-,0,1,1,,,緊急避難場所
岩手県,宮古市,藤の川地区会館高台,岩手県宮古市,39.615016011518,141.95813731483,-,-,-,0,0,1,,,避難場所（高台）
岩手県,九戸郡軽米町,高家生活改善センター,岩手県九戸郡軽米町大字高家6-20-1,40.34662815972,141.4246798178,1,0,0,-,-,-,,,指定避難場所
岩手県,陸前高田市,喜多公民館,岩手県陸前高田市広田町字山田52‐9,38.961944903532,141.71549237756,-,-,-,0,0,1,100人,,指定緊急避難場所
岩手県,釜石市,佐須集会所,岩手県釜石市平田第9地割74番地5,39.225710908663,141.92025387225,1,0,0,0,1,0,50人,,避難者収容施設
岩手県,岩手郡葛巻町,茶屋場自治会館,岩手県岩手郡葛巻町葛巻第6地割142番地1,40.037565994247,141.45661932907,1,0,0,-,-,-,,,避難所
岩手県,下閉伊郡岩泉町,小本保育園,岩手県下閉伊郡岩泉町中里字出畑1番地1,39.835776101967,141.91691512089,1,0,0,-,-,-,,,緊急避難場所・緊急避難所
岩手県,宮古市,基幹集落センター,岩手県宮古市刈屋第11地割101番地17,39.645387618911,141.75699304552,1,0,0,0,1,0,,,避難所
岩手県,遠野市,平倉地区コミュニティ消防センター,岩手県遠野市上郷町平倉25-19-2,39.276874870997,141.57498448068,1,0,0,-,-,-,260人,,一時避難所・避難所
岩手県,陸前高田市,堂の前公民館,岩手県陸前高田市広田町字根岬219‐3,39.008523573235,141.67156993627,-,-,-,0,0,1,20人,,指定緊急避難場所
岩手県,陸前高田市,6区公民館,岩手県陸前高田市矢作町字東角地35‐8,39.023624593664,141.5796322518,-,-,-,0,0,1,30人,,指定緊急避難場所
岩手県,岩手郡滝沢村,滝沢総合公園体育館,岩手県滝沢市鵜飼字御庭田1-1,39.732230028719,141.07008392576,1,0,0,-,-,-,800人,,指定避難所
岩手県,盛岡市,大宮中学校,岩手県盛岡市大宮字大宮5番地1,39.683987881371,141.1127581037,1,0,0,-,-,-,10817人,,指定避難場所・収容避難場所
岩手県,大船渡市,盛保育園,岩手県大船渡市,39.081613163408,141.70625982607,1,0,0,-,-,-,100人,,第二避難場所（避難所）
岩手県,大船渡市,大船渡高校,岩手県大船渡市猪川町字長洞7-1,39.09438589892,141.71679250574,1,0,0,-,-,-,200人,,第二避難場所（避難所）
岩手県,北上市,二子地区交流センター,岩手県北上市二子町鳥喰前49-4,39.320033479622,141.13822647414,1,0,0,-,-,-,60人,,震災時第１次収容避難所
岩手県,二戸郡一戸町,元上小友小学校,岩手県二戸郡一戸町小友字上小友568番地,40.130082645217,141.23928940508,-,-,-,-,-,-,,,一時避難場所
岩手県,釜石市,荻の洞集会所,岩手県釜石市橋野町第33地割33番地,39.360085984088,141.76211073079,1,0,0,0,1,1,25人,,避難者収容施設
岩手県,岩手郡滝沢村,滝沢村北部コミュニティセンター,岩手県滝沢市巣子148,39.820960211514,141.10174603832,1,0,0,-,-,-,300人,,指定避難所
岩手県,上閉伊郡大槌町,古学校高台,岩手県上閉伊郡大槌町,39.360095425229,141.91999761274,-,-,-,0,1,1,,,緊急避難場所
岩手県,紫波郡紫波町,総合体育館,岩手県紫波郡紫波町桜町字下川原100,39.551123542671,141.17205129317,1,0,0,-,-,-,,,避難場所
岩手県,盛岡市,みたけ地区活動センター,岩手県盛岡市みたけ四丁目10番52号,39.742855570394,141.12106611686,1,0,0,-,-,-,129人,,収容避難場所
岩手県,二戸郡一戸町,元鳥海小学校,岩手県二戸郡一戸町中里字中前田15,40.195866308919,141.26292031917,-,-,-,-,-,-,,,一時避難場所
岩手県,宮古市,摂待地区生活改善センター,岩手県宮古市田老字片巻19番地1,39.80895000349,141.96252899198,1,0,0,0,1,1,,,避難所
岩手県,久慈市,麦生地区農村センター,岩手県久慈市侍浜町麦生3-30-1,40.225200946145,141.82506305622,1,0,0,-,-,-,116人,,指定避難場所
岩手県,盛岡市,土淵地区活動センター,岩手県盛岡市前潟四丁目4-30,39.710277117392,141.09684312901,1,0,0,-,-,-,167人,,収容避難場所
岩手県,陸前高田市,堂の前中央会館,岩手県陸前高田市米崎町字和方42‐1,39.008520173626,141.67156963639,-,-,-,0,0,1,40人,,指定緊急避難場所
岩手県,盛岡市,厨川地区活動センター,岩手県盛岡市前九年三丁目7番1号,39.717167089829,141.12108134663,1,0,0,-,-,-,252人,,収容避難場所
岩手県,遠野市,小友中央コミュニティ消防センター,岩手県遠野市小友町33-5-1,39.271361991929,141.42239224405,1,0,0,-,-,-,86人,,一時避難所・避難所
岩手県,和賀郡西和賀町,川尻二区公民館,岩手県和賀郡西和賀町川尻40地割40番地201,39.317703991772,140.77555180702,1,0,0,-,-,-,,,一次避難場所
岩手県,久慈市,長内中学校,岩手県久慈市小久慈町39-2-2,40.172320046214,141.76365589848,1,0,0,0,1,0,11450人,,指定避難場所
岩手県,九戸郡洋野町,八木保育園,岩手県九戸郡洋野町種市1-15-16,40.34391273774,141.76740511317,-,-,-,-,-,-,,,避難場所
岩手県,釜石市,浜町避難道路・市役所東側高架橋口,岩手県釜石市,39.27540004417,141.88641186855,-,-,-,0,0,1,,,緊急避難場所
岩手県,岩手郡雫石町,廣養寺,岩手県岩手郡雫石町源大堂54番地,39.692092856173,140.97422576291,-,-,-,-,-,-,,,避難場所
岩手県,九戸郡軽米町,米田農業構造改善センター,岩手県九戸郡軽米町大字小軽米24-29,40.269629262383,141.52582623955,1,0,0,-,-,-,,,指定避難場所
岩手県,西磐井郡平泉町,2区公民館,岩手県西磐井郡平泉町平泉字坂下27-2,38.99976572304,141.10846044573,1,0,0,-,-,-,40人,,避難場所・避難所
岩手県,釜石市,甲子中学校体育館,岩手県釜石市甲子町9-156,39.253849520983,141.79755040158,1,0,0,1,1,1,600人,,緊急避難場所・避難者収容施設
岩手県,宮古市,五番地区総合センター,岩手県宮古市和井内第7地割53番地1,39.714100183325,141.72003080579,1,0,0,0,1,0,,,避難所
岩手県,岩手郡雫石町,御明神保育所,岩手県岩手郡雫石町御明神高八卦20番地2,39.68500430162,140.94193210405,1,0,0,-,-,-,,,避難場所・避難所
岩手県,紫波郡矢巾町,北川保育園,岩手県紫波郡矢巾町流通センタ-南4丁目13-1,39.634431038539,141.10755478526,1,0,0,-,-,-,,,避難所
岩手県,二戸市,二戸市勤労者総合福祉センター,岩手県二戸市石切所字荷渡22番地16,40.269609791367,141.29326462132,1,0,0,-,-,-,,,収容避難所
岩手県,久慈市,羽黒山神社,岩手県久慈市畑田20-37-1,40.194214355598,141.72674952754,1,0,0,-,-,-,165人,,指定避難場所
岩手県,大船渡市,貴船神社付近高台,岩手県大船渡市,39.08002156297,141.70987155796,-,-,-,-,-,-,,,第一避難場所
岩手県,遠野市,沢田地区コミュニティ消防センター,岩手県遠野市青笹町糠前25-31,39.332232731288,141.58328437254,1,0,0,-,-,-,206人,,一時避難所・避難所
岩手県,二戸市,上斗米農村環境改善センター,岩手県二戸市,40.270871864963,141.2092201508,1,0,0,-,-,-,,,一時避難場所・収容避難所
岩手県,宮古市,消防団第25分団屯所,岩手県宮古市重茂第15地割3番地1,39.528845521167,142.0320576667,1,0,0,0,0,1,,,避難所
岩手県,遠野市,西内公民館,岩手県遠野市,39.403046375997,141.61071779049,-,-,-,-,-,-,,,一時避難所
岩手県,盛岡市,手代森小学校,岩手県盛岡市手代森22地割47番地,39.639590674942,141.18713026846,1,0,0,-,-,-,6409人,,収容避難場所・広域避難広場
岩手県,北上市,県立黒沢尻北高等学校,岩手県北上市常盤台一丁目1番69号,39.29793544532,141.12032320032,1,0,0,-,-,-,89人,,震災時第１次収容避難所・震災時第２次収容避難所
岩手県,八幡平市,安比高原集会所,岩手県八幡平市松尾1-605-225,40.00311790082,140.98255884449,1,0,0,-,-,-,100人,,緊急避難場所
岩手県,久慈市,宇部小学校,岩手県久慈市宇部町5-132-8,40.133106318197,141.78852265499,1,0,0,-,-,-,4092人,,指定避難場所
岩手県,盛岡市,乙部運動広場（乙部小学校跡）,岩手県盛岡市乙部28地割34番地2,39.606680982547,141.20009460992,-,-,-,-,-,-,3121人,,指定避難場所
岩手県,北上市,仙人公民館,岩手県北上市和賀町仙人7地割5番地,39.30761681778,140.91290957089,1,0,0,-,-,-,15人,,震災時第１次収容避難所・震災時第２次収容避難所
岩手県,岩手郡葛巻町,星野生活改善センター,岩手県岩手郡葛巻町葛巻第60地割7番地1,40.083315713317,141.44063558426,1,0,0,-,-,-,,,避難所
岩手県,盛岡市,上田児童センター・上田老人福祉センター,岩手県盛岡市上田四丁目5番18号,39.721236150082,141.1348322299,1,0,0,-,-,-,87人,,収容避難場所
岩手県,二戸市,根森総合センター,岩手県二戸市,40.280068734605,141.149364233,1,0,0,-,-,-,,,一時避難場所・収容避難所
岩手県,西磐井郡平泉町,長部地区交流センター,岩手県西磐井郡平泉町長島字竜ヶ坂42,39.004091008905,141.13637440791,1,0,0,1,0,0,50人,,緊急避難場所
岩手県,岩手郡岩手町,一方井中学校,岩手県岩手郡岩手町大字一方井15-79,39.974596811972,141.17062288285,1,0,0,-,-,-,,,緊急避難場所
岩手県,八幡平市,安代中学校,岩手県八幡平市清水50,40.106444697771,141.04717953614,1,0,0,-,-,-,1500人,,緊急避難場所
岩手県,和賀郡西和賀町,太田公民館,岩手県和賀郡西和賀町沢内字太田2地割81番地1,39.434248599434,140.75004910974,1,0,0,-,-,-,,,一次避難場所
岩手県,下閉伊郡岩泉町,有芸生活改善センタ?,岩手県下閉伊郡岩泉町上有芸字猿ケ淵5番地4,39.772422931308,141.81137083783,1,0,0,-,-,-,,,緊急避難場所・緊急避難所
岩手県,胆沢郡金ケ崎町,永岡小学校,岩手県胆沢郡金ケ崎町永沢堀切後下5,39.174221468934,141.06042346785,1,0,0,-,-,-,,,避難所
岩手県,二戸市,カシオペアセンター大嶺分館（おおらい館）,岩手県二戸市,40.160505077539,141.11858847721,1,0,0,-,-,-,,,一時避難場所・収容避難所
岩手県,大船渡市,富沢二区公民館,岩手県大船渡市大船渡町字富沢42,39.071046815733,141.71385205924,-,-,-,-,-,-,,,避難場所
岩手県,陸前高田市,六ヶ浦地区（西）高台,岩手県陸前高田市広田町字六ヶ浦418‐1,38.963585560177,141.70420668082,-,-,-,0,0,1,100人,,指定緊急避難場所
岩手県,紫波郡矢巾町,東徳田公民館,岩手県紫波郡矢巾町東徳田10-47,39.606103325218,141.18048458615,1,0,0,-,-,-,,,避難所
岩手県,九戸郡洋野町,和座地区加工処理センター,岩手県九戸郡洋野町種市74-11,40.365125933466,141.64732705581,1,0,0,-,-,-,,,避難場所・指定避難所
岩手県,宮古市,姉ヶ崎地区センター高台,岩手県宮古市,39.680588445479,141.97291324084,-,-,-,0,0,1,,,避難場所（高台）
岩手県,宮古市,浄土ヶ浜第1駐車場高台,岩手県宮古市,39.646555406273,141.97759728375,-,-,-,0,0,1,,,避難場所（高台）
岩手県,下閉伊郡岩泉町,老人福祉センタ?,岩手県下閉伊郡岩泉町岩泉字三本松52番地1,39.84856941893,141.80507122101,1,0,0,-,-,-,,,緊急避難場所・緊急避難所
岩手県,紫波郡紫波町,岩手県立紫波総合高等学校,岩手県紫波郡紫波町日詰字朝日田1,39.56223563142,141.15754401994,1,0,0,-,-,-,,,避難場所・広域避難場所
岩手県,釜石市,岬林道,岩手県釜石市,39.274905860854,141.90659919394,-,-,-,0,0,1,,,緊急避難場所
岩手県,二戸市,金田一コミュニティセンター釜沢分館,岩手県二戸市釜沢字上野平89番地,40.336242028307,141.26996779441,1,0,0,-,-,-,,,一時避難場所・収容避難所
岩手県,上閉伊郡大槌町,大ケ口裏山,岩手県上閉伊郡大槌町,39.368743249571,141.88724427258,-,-,-,0,1,1,,,緊急避難場所
岩手県,陸前高田市,岩倉公民館,岩手県陸前高田市広田町字岩倉120‐6,38.951517649937,141.7104298971,-,-,-,0,0,1,50人,,指定緊急避難場所
岩手県,陸前高田市,垂井ヶ沢地区高台,岩手県陸前高田市気仙町字垂井ヶ沢43‐3,39.006634393911,141.61337162004,-,-,-,0,0,1,50人,,指定緊急避難場所
岩手県,下閉伊郡山田町,旧川代分校,岩手県宮古市,39.501738030581,142.00780156731,1,0,0,0,0,1,,,避難所
岩手県,久慈市,久慈高等学校,岩手県久慈市畑田26-96,40.192773158293,141.74232625428,1,0,0,0,1,0,15595人,,指定避難場所
岩手県,大船渡市,下船渡公民館,岩手県大船渡市大船渡町字下船渡26,39.036887202558,141.7188914089,1,0,0,-,-,-,150人,,第二避難場所（避難所）
岩手県,九戸郡野田村,新山消防屯所,岩手県九戸郡野田村大字野田33-35,40.120747642758,141.81774271996,1,0,0,-,-,-,,,避難場所
岩手県,久慈市,長内小学校,岩手県久慈市長内町25-41,40.188296288914,141.7786099589,1,0,0,-,-,-,5291人,,指定避難場所
岩手県,北上市,北上勤労者体育センター,岩手県北上市幸町1番30号,39.284911796793,141.12045970459,1,0,0,-,-,-,60人,,震災時第１次収容避難所
岩手県,遠野市,久保部落公民館,岩手県遠野市,39.380209360376,141.60648023197,-,-,-,-,-,-,,,一時避難所
岩手県,紫波郡紫波町,長岡児童館,岩手県紫波郡紫波町東長岡字細工田12-2,39.584464845971,141.20146388274,1,0,0,-,-,-,,,避難場所
岩手県,九戸郡洋野町,富原公民館,岩手県久慈市夏井町夏井21-72-4,40.241636401277,141.70168019302,1,0,0,0,1,0,37人,,指定避難場所
岩手県,大船渡市,蛸の浦小学校,岩手県大船渡市赤崎町字鳥沢10-2,39.034760442949,141.74152852687,-,-,-,-,-,-,,,避難場所
岩手県,遠野市,栃内地区コミュニティ消防センター,岩手県遠野市土淵町栃内11-125-2,39.385999326635,141.60965194586,1,0,0,-,-,-,77人,,一時避難所・避難所
岩手県,大船渡市,小路部落公民館,岩手県大船渡市,39.03031760967,141.77793562531,1,0,0,-,-,-,30人,,第一避難場所・第二避難場所（避難所）
岩手県,二戸市,小屋敷青年会館,岩手県二戸市,40.160476458025,141.14203552307,1,0,0,-,-,-,,,一時避難場所・収容避難所
岩手県,釜石市,厳島神社境内,岩手県釜石市,39.31034061527,141.88984929605,-,-,-,0,0,1,,,緊急避難場所
岩手県,胆沢郡金ケ崎町,福祉センター,岩手県胆沢郡金ケ崎町西根南羽沢43,39.200538018865,141.10890238126,1,0,0,-,-,-,,,避難所
岩手県,紫波郡紫波町,片寄小学校,岩手県紫波郡紫波町片寄字野崎109,39.525536326794,141.12164878858,1,0,0,-,-,-,,,避難場所
岩手県,遠野市,塚沢構造改善センター,岩手県遠野市宮守町下宮守7地割17番地4,39.375932628546,141.37652585823,1,0,0,-,-,-,150人,,一時避難所・避難所
岩手県,大船渡市,安養寺,岩手県大船渡市,39.116740484641,141.71564817199,1,0,0,-,-,-,100人,,第二避難場所（避難所）
岩手県,遠野市,細越地区コミュニティ消防センター,岩手県遠野市,39.265567461072,141.6147779267,-,-,-,-,-,-,,,一時避難所
岩手県,北上市,和賀東中学校,岩手県北上市和賀町長沼6地割1番地,39.297322199179,141.02939131341,1,0,0,-,-,-,800人,,震災時第１次収容避難所・震災時第２次収容避難所・水害時収容避難所
岩手県,九戸郡洋野町,旧小子内小学校,岩手県九戸郡洋野町小子内6-6,40.333550051619,141.76773616796,1,0,0,-,-,-,,,避難場所・指定避難所
岩手県,盛岡市,松園小学校,岩手県盛岡市松園三丁目12番1号,39.75070003381,141.16176495908,1,0,0,-,-,-,9859人,,指定避難場所・収容避難場所
岩手県,宮古市,千鶏神社高台,岩手県宮古市,39.532249545499,142.03219391952,-,-,-,0,0,1,,,避難場所（高台）
岩手県,下閉伊郡岩泉町,月出森山公民館,岩手県下閉伊郡岩泉町岩泉字山屋1番地2,39.814470671927,141.80595561205,1,0,0,-,-,-,,,緊急避難場所・緊急避難所
岩手県,上閉伊郡大槌町,臼澤鹿子踊伝承館,岩手県上閉伊郡大槌町,39.362261214516,141.87505898295,1,0,0,-,-,-,100人,,収容施設
岩手県,久慈市,宇部中学校,岩手県久慈市宇部町6-133-13,40.126321256155,141.78420964296,1,0,0,0,1,0,6120人,,指定避難場所
岩手県,大船渡市,小規模多機能ホーム「平」,岩手県大船渡市字下平24-1,39.042813628871,141.71729034237,-,-,-,-,-,-,,,避難場所
岩手県,和賀郡西和賀町,弁天公民館,岩手県和賀郡西和賀町沢内字弁天25地割87番地2,39.442867181064,140.76434129867,1,0,0,-,-,-,,,一次避難場所
岩手県,紫波郡矢巾町,森が丘公民館,岩手県紫波郡矢巾町南矢幅6-175-5,39.610982650143,141.14827075489,1,0,0,-,-,-,,,避難所
岩手県,九戸郡洋野町,麦沢地区コミュニティ会館,岩手県九戸郡洋野町種市30-29-3,40.405876872016,141.67423911401,1,0,0,-,-,-,,,避難場所・指定避難所
岩手県,岩手郡滝沢村,北陵中学校,岩手県滝沢市滝沢字穴口419,39.749334477215,141.11540631688,1,0,0,0,1,0,8301人,,指定避難所
岩手県,九戸郡洋野町,林郷農村センター,岩手県九戸郡洋野町大野49-34-8,40.300970461915,141.67216658548,1,0,0,-,-,-,,,避難場所・指定避難所
岩手県,九戸郡九戸村,細屋ふれあいセンター,岩手県九戸郡九戸村山屋4-67-2,40.253423553665,141.44530337672,-,-,-,-,-,-,,,一時避難場所
岩手県,九戸郡九戸村,伊保内消防会館,岩手県九戸郡九戸村伊保内11-48-1,40.206986226167,141.42222099139,-,-,-,-,-,-,,,一時避難場所
岩手県,宮古市,河南中学校,岩手県宮古市河南1-1-1,39.622035947006,141.95444021893,1,0,0,0,0,1,,,避難所
岩手県,九戸郡野田村,小谷地勝雄様宅前,岩手県九戸郡野田村,40.119738222844,141.82724795256,-,-,-,-,-,-,,,緊急避難場所
岩手県,下閉伊郡田野畑村,田野畑村立田野畑小学校,岩手県下閉伊郡田野畑村田野畑136番地,39.930611178505,141.88977018621,1,0,0,-,-,-,,,避難所
岩手県,釜石市,釜石市立図書館,岩手県釜石市小佐野町3丁目8番8号,39.26382697095,141.83792086503,1,0,0,0,0,1,30人,,避難者収容施設
岩手県,花巻市,大迫振興センター,岩手県花巻市大迫町大迫3-161,39.466500581605,141.28531363138,1,0,0,-,-,-,,,拠点避難所・二次的な避難所/避難場所
岩手県,釜石市,小川集会所,岩手県釜石市小川町四丁目2番7号,39.26789316305,141.83740680668,1,0,0,0,1,1,140人,,避難者収容施設
岩手県,久慈市,外屋敷公民館,岩手県久慈市侍浜町外屋敷6-47-1,40.275517087826,141.79468111549,1,0,0,0,1,0,13人,,指定避難場所
岩手県,宮古市,心公院高台,岩手県宮古市,39.650874370083,141.96910921116,-,-,-,0,0,1,,,避難場所（高台）
岩手県,宮古市,県道重茂半島線高台,岩手県宮古市,39.580445103529,142.02221439953,-,-,-,0,0,1,,,避難場所（高台）
岩手県,盛岡市,世代交流センター・見前児童センター,岩手県盛岡市西見前13地割25番3号,39.64181219643,141.163004697,1,0,0,-,-,-,120人,,収容避難場所
岩手県,北上市,和賀地区交流センター,岩手県北上市和賀町竪川目2-18-2,39.305927054214,140.99675144704,1,0,0,-,-,-,210人,,震災時第１次収容避難所・水害時収容避難所
岩手県,宮古市,大杉神社高台,岩手県宮古市,39.64190684578,141.96542758775,-,-,-,0,0,1,,,避難場所（高台）
岩手県,釜石市,釜石小学校,岩手県釜石市大渡町3-14-8,39.274144732934,141.87659587389,1,0,0,1,1,1,350人,,緊急避難場所・避難者収容施設
岩手県,宮古市,重茂中学校,岩手県宮古市大字重茂2字舘1,39.587200042211,142.01938347991,1,0,0,0,0,1,,,避難所
岩手県,盛岡市,盛岡短期大学跡,岩手県盛岡市住吉町1番48号,39.701667058899,141.16146088963,-,-,-,-,-,-,3150人,,指定避難場所
岩手県,紫波郡矢巾町,北郡山公民館,岩手県紫波郡矢巾町北郡山6-173-2,39.588535262101,141.15706810129,1,0,0,-,-,-,,,避難所
岩手県,久慈市,夏井地域ふれあい館,岩手県久慈市夏井町夏井1-88-5,40.2206842019,141.75502159756,1,0,0,0,1,0,60人,,指定避難場所
岩手県,宮古市,川内地域振興センター,岩手県宮古市,39.643444735808,141.59154081746,1,0,0,0,1,0,,,避難所
岩手県,下閉伊郡岩泉町,権現岩谷地区交流センタ?,岩手県下閉伊郡岩泉町釜津田字権現7番地1,39.855757120272,141.55597422463,1,0,0,-,-,-,,,緊急避難場所・緊急避難所
岩手県,遠野市,根岸地区コミュニティ消防センター,岩手県遠野市綾織町新里13-2-2,39.330899048024,141.48534319702,1,0,0,-,-,-,146人,,一時避難所・避難所
岩手県,岩手郡葛巻町,江刈中学校,岩手県岩手郡葛巻町江刈16-54-2,40.003537655654,141.48759685529,1,0,0,-,-,-,,,避難所
岩手県,九戸郡洋野町,林郷地区社会体育館,岩手県九戸郡洋野町大野49-34,40.30069828999,141.67207770503,1,0,0,-,-,-,,,避難場所・指定避難所
岩手県,大船渡市,後ノ入地域公民館,岩手県大船渡市赤崎町字後ノ入49,39.073750215878,141.74331041955,-,-,-,-,-,-,,,避難場所
岩手県,遠野市,穀町コミュニティ消防センター,岩手県遠野市穀町14-12,39.328889845501,141.53441383143,1,0,0,-,-,-,171人,,一時避難所・避難所
岩手県,宮古市,八木沢公園高台,岩手県宮古市,39.619742421611,141.94443197365,-,-,-,0,0,1,,,避難場所（高台）
岩手県,大船渡市,主要地方道トンネル入口付近,岩手県大船渡市,39.042889223271,141.79235862789,-,-,-,-,-,-,,,第一避難場所
岩手県,宮古市,摂待和野地区集会施設,岩手県宮古市田老字摂待243番地2,39.809408258906,141.9630153255,1,0,0,0,1,0,,,避難所
岩手県,九戸郡九戸村,山屋集落センター,岩手県九戸郡九戸村山屋2-61,40.250873300305,141.41998897934,-,-,-,-,-,-,,,一時避難場所
岩手県,下閉伊郡普代村,松頭利美宅付近,岩手県下閉伊郡普代村,40.004004588498,141.88225257161,-,-,-,-,-,-,,,第１避難所
岩手県,遠野市,鮎貝地区コミュニティ消防センター,岩手県遠野市小友町5-105-1,39.275704849249,141.38993657993,1,0,0,-,-,-,250人,,一時避難所・避難所
岩手県,九戸郡洋野町,苗代沢地区センター,岩手県九戸郡洋野町大野43-8-16,40.308957910441,141.65903725669,1,0,0,-,-,-,,,避難場所・指定避難所
岩手県,大船渡市,末崎保育園園庭,岩手県大船渡市,39.00380183205,141.71490320345,-,-,-,-,-,-,,,第一避難場所
岩手県,大船渡市,気仙光陵支援学校,岩手県大船渡市立根町字宮田33-3,39.10064903061,141.71532283007,-,-,-,-,-,-,,,避難場所
岩手県,宮古市,千徳公民館,岩手県宮古市千徳町5番39号,39.6332724615,141.91929029009,1,0,0,0,1,0,,,避難所
岩手県,北上市,岩崎地区交流センター,岩手県北上市和賀町岩崎18-53-8,39.2815435679,141.04301016506,1,0,0,-,-,-,50人,,震災時第１次収容避難所・水害時収容避難所
岩手県,大船渡市,下中井公民館,岩手県大船渡市猪川町字中井沢53,39.090911288627,141.71656208784,-,-,-,-,-,-,,,避難場所
岩手県,八幡平市,山道集落センター,岩手県八幡平市野駄第16地割4番地4,39.946952350759,141.05875720983,1,0,0,-,-,-,50人,,緊急避難場所
岩手県,釜石市,館山神社境内,岩手県釜石市,39.244906624399,141.89250281309,-,-,-,0,0,1,,,緊急避難場所
岩手県,盛岡市,北厨川小学校,岩手県盛岡市厨川三丁目5番1号,39.751079938177,141.13430362216,1,0,0,-,-,-,6923人,,指定避難場所・収容避難場所
岩手県,遠野市,砂子沢地区コミュニティ消防センター,岩手県遠野市綾織町みさ崎6地割31番地1,39.344069589537,141.47609067668,-,-,-,-,-,-,,,一時避難所
岩手県,岩手郡葛巻町,橋場生活改善センター,岩手県岩手郡葛巻町江刈第8地割76番地4,40.022398417074,141.4599000977,1,0,0,-,-,-,,,避難所
岩手県,宮古市,摂待和野方面旧国道高台,岩手県宮古市,39.807940529692,141.95774620322,-,-,-,0,0,1,,,避難場所（高台）
岩手県,遠野市,松崎地区コミュニティ消防センター,岩手県遠野市,39.358896016543,141.5460672418,-,-,-,-,-,-,,,一時避難所
岩手県,気仙郡住田町,下有住基幹集落センター,岩手県気仙郡住田町下有住字中上102-1,39.186992055923,141.55751224145,1,0,0,-,-,-,,,第１次避難場所・第２次避難場所（収容所）
