都道府県,市区町村,避難所名,住所,緯度,経度,避難所,一時避難所,広域避難所,地震,風水害,津波,収容人数,備蓄品,備考
茨城県,龍ケ崎市,馴馬台コミュニティセンター,茨城県龍ケ崎市平台5-12-3,35.9225,140.1681,1,0,0,1,1,0,136人,井戸,「福祉避難所」：災害時に高齢者や障がいをお持ちの方などが、優先的に避難生活を行う施設。
茨城県,龍ケ崎市,文化会館,茨城県龍ケ崎市馴馬町2612,35.9156,140.1785,1,1,0,1,1,0,181人,,「避難所」：災害によって短期間の避難生活を余儀なくされた場合に、一定期間の避難生活を行う施設。
茨城県,龍ケ崎市,城ノ内小学校,茨城県龍ケ崎市城ノ内5-27,35.9213,140.2148,1,1,0,1,1,0,230人,食糧備蓄・救助資機材・日用品・避難所運営用品,「避難所」：災害によって短期間の避難生活を余儀なくされた場合に、一定期間の避難生活を行う施設。
茨城県,龍ケ崎市,八原小学校,茨城県龍ケ崎市藤ケ丘1-22-4,35.9336,140.2006,1,1,0,1,1,0,120人,食糧備蓄・救助資機材・日用品・避難所運営用品,「避難所」：災害によって短期間の避難生活を余儀なくされた場合に、一定期間の避難生活を行う施設。
茨城県,龍ケ崎市,川原代小学校,茨城県龍ケ崎市川原代町3518,35.9163,140.1543,1,1,0,1,0,0,130人,食糧備蓄・救助資機材・日用品・避難所運営用品,「避難所」：災害によって短期間の避難生活を余儀なくされた場合に、一定期間の避難生活を行う施設。
茨城県,龍ケ崎市,久保台小学校,茨城県龍ケ崎市久保台2-3,35.9332,140.1768,1,1,0,1,1,0,250人,食糧備蓄・救助資機材・日用品・避難所運営用品,「避難所」：災害によって短期間の避難生活を余儀なくされた場合に、一定期間の避難生活を行う施設。
茨城県,龍ケ崎市,馴馬財産区会館,茨城県龍ケ崎市馴馬町2260-8,35.9205,140.1713,1,0,0,1,1,0,54人,,「避難所」：災害によって短期間の避難生活を余儀なくされた場合に、一定期間の避難生活を行う施設。
茨城県,龍ケ崎市,松葉コミュニティセンター,茨城県龍ケ崎市松葉5-1,35.9372,140.1570,1,0,0,1,1,0,132人,井戸,「福祉避難所」：災害時に高齢者や障がいをお持ちの方などが、優先的に避難生活を行う施設。
茨城県,龍ケ崎市,愛宕中学校,茨城県龍ケ崎市3777,35.9141,140.1800,1,1,0,1,1,0,300人,食糧備蓄・救助資機材・日用品・避難所運営用品,「避難所」：災害によって短期間の避難生活を余儀なくされた場合に、一定期間の避難生活を行う施設。
茨城県,龍ケ崎市,城西中学校,茨城県龍ケ崎市川原代町710,35.9210,140.1385,1,1,0,1,0,0,210人,食糧備蓄・救助資機材・日用品・避難所運営用品,「避難所」：災害によって短期間の避難生活を余儀なくされた場合に、一定期間の避難生活を行う施設。
茨城県,龍ケ崎市,城ノ内中学校,茨城県龍ケ崎市城ノ内5-3,35.9223,140.2078,1,1,0,1,1,0,260人,食糧備蓄・救助資機材・日用品・避難所運営用品,「避難所」：災害によって短期間の避難生活を余儀なくされた場合に、一定期間の避難生活を行う施設。
茨城県,龍ケ崎市,川原代コミュニティセンター,茨城県龍ケ崎市川原代町1665,35.9144,140.1551,1,0,0,1,0,0,128人,井戸,「福祉避難所」：災害時に高齢者や障がいをお持ちの方などが、優先的に避難生活を行う施設。
茨城県,龍ケ崎市,松葉小学校,茨城県龍ケ崎市松葉2-9,35.9370,140.1583,1,1,0,1,1,0,140人,食糧備蓄・救助資機材・日用品・避難所運営用品,「避難所」：災害によって短期間の避難生活を余儀なくされた場合に、一定期間の避難生活を行う施設。
茨城県,龍ケ崎市,農業公園豊作村湯ったり館,茨城県龍ケ崎市板橋町440,35.9318,140.2506,1,1,0,1,1,0,309人,井戸,「避難所」：災害によって短期間の避難生活を余儀なくされた場合に、一定期間の避難生活を行う施設。
茨城県,龍ケ崎市,長山小学校,茨城県龍ケ崎市長山5-7-1,35.9468,140.1567,1,1,0,1,1,0,230人,食糧備蓄・救助資機材・日用品・避難所運営用品,「避難所」：災害によって短期間の避難生活を余儀なくされた場合に、一定期間の避難生活を行う施設。
茨城県,龍ケ崎市,竜ケ崎南高等学校,茨城県龍ケ崎市北方町120,35.8812,140.1613,1,1,0,1,1,0,485人,,「避難所」：災害によって短期間の避難生活を余儀なくされた場合に、一定期間の避難生活を行う施設。
茨城県,龍ケ崎市,城ノ内コミュニティセンター,茨城県龍ケ崎市白羽1-5-2,35.9231,140.2163,1,0,0,1,1,0,134人,井戸,「福祉避難所」：災害時に高齢者や障がいをお持ちの方などが、優先的に避難生活を行う施設。
茨城県,龍ケ崎市,龍ケ崎西コミュニティセンター,茨城県龍ケ崎市8897-1,35.9007,140.1807,1,0,0,1,0,0,129人,井戸,「福祉避難所」：災害時に高齢者や障がいをお持ちの方などが、優先的に避難生活を行う施設。
茨城県,龍ケ崎市,長戸小学校,茨城県龍ケ崎市半田町65,35.9268,140.2391,1,1,0,1,1,0,140人,食糧備蓄・救助資機材・日用品・避難所運営用品,「避難所」：災害によって短期間の避難生活を余儀なくされた場合に、一定期間の避難生活を行う施設。
茨城県,龍ケ崎市,竜ケ崎第一高等学校,茨城県龍ケ崎市248,35.9148,140.1874,1,1,0,1,1,0,520人,,「避難所」：災害によって短期間の避難生活を余儀なくされた場合に、一定期間の避難生活を行う施設。
茨城県,龍ケ崎市,城南中学校,茨城県龍ケ崎市1736,35.9058,140.1993,1,1,0,1,1,0,320人,食糧備蓄・救助資機材・日用品・避難所運営用品,「避難所」：災害によって短期間の避難生活を余儀なくされた場合に、一定期間の避難生活を行う施設。
茨城県,龍ケ崎市,大宮小学校,茨城県龍ケ崎市大徳町4945,35.8947,140.2059,1,1,0,1,0,0,120人,食糧備蓄・救助資機材・日用品・避難所運営用品,「避難所」：災害によって短期間の避難生活を余儀なくされた場合に、一定期間の避難生活を行う施設。
茨城県,龍ケ崎市,北文間コミュニティセンター,茨城県龍ケ崎市長沖町813,35.8919,140.1581,1,0,0,1,0,0,130人,井戸,「福祉避難所」：災害時に高齢者や障がいをお持ちの方などが、優先的に避難生活を行う施設。
茨城県,龍ケ崎市,流通経済大学,茨城県龍ケ崎市120,35.9175,140.1901,1,1,0,1,1,0,547人,,「避難所」：災害によって短期間の避難生活を余儀なくされた場合に、一定期間の避難生活を行う施設。
茨城県,龍ケ崎市,高砂体育館,茨城県龍ケ崎市7053-1,35.8958,140.1793,1,1,0,1,0,0,251人,毛布,「避難所」：災害によって短期間の避難生活を余儀なくされた場合に、一定期間の避難生活を行う施設。
茨城県,龍ケ崎市,市民活動センター,茨城県龍ケ崎市馴馬町2445,35.9186,140.1779,1,1,0,1,1,0,190人,,「避難所」：災害によって短期間の避難生活を余儀なくされた場合に、一定期間の避難生活を行う施設。
茨城県,龍ケ崎市,大宮コミュニティセンター,茨城県龍ケ崎市大徳町4901,35.8933,140.2048,1,0,0,1,0,0,126人,井戸,「福祉避難所」：災害時に高齢者や障がいをお持ちの方などが、優先的に避難生活を行う施設。
茨城県,龍ケ崎市,馴柴コミュニティセンター,茨城県龍ケ崎市馴柴町21-1,35.9289,140.1471,1,0,0,1,0,0,277人,井戸,「福祉避難所」：災害時に高齢者や障がいをお持ちの方などが、優先的に避難生活を行う施設。
茨城県,龍ケ崎市,中根台中学校,茨城県龍ケ崎市中根台1-12,35.9279,140.1713,1,1,0,1,1,0,340人,食糧備蓄・救助資機材・日用品・避難所運営用品,「避難所」：災害によって短期間の避難生活を余儀なくされた場合に、一定期間の避難生活を行う施設。
茨城県,龍ケ崎市,龍ケ崎小学校,茨城県龍ケ崎市3316,35.9107,140.1907,1,1,0,1,1,0,220人,食糧備蓄・救助資機材・日用品・避難所運営用品,「避難所」：災害によって短期間の避難生活を余儀なくされた場合に、一定期間の避難生活を行う施設。
茨城県,龍ケ崎市,総合福祉センター,茨城県龍ケ崎市川原代町5014,35.9044,140.1618,1,1,0,1,0,0,178人,,「福祉避難所」：災害時に高齢者や障がいをお持ちの方などが、優先的に避難生活を行う施設。
茨城県,龍ケ崎市,長山中学校,茨城県龍ケ崎市長山3-1,35.9426,140.1563,1,1,0,1,1,0,250人,食糧備蓄・救助資機材・日用品・避難所運営用品,「避難所」：災害によって短期間の避難生活を余儀なくされた場合に、一定期間の避難生活を行う施設。
茨城県,龍ケ崎市,愛国学園大学附属龍ケ崎高等学校,茨城県龍ケ崎市若柴町2747,35.9278,140.1566,1,1,0,1,1,0,832人,,「避難所」：災害によって短期間の避難生活を余儀なくされた場合に、一定期間の避難生活を行う施設。
茨城県,龍ケ崎市,馴馬台小学校,茨城県龍ケ崎市平台4-23-1,35.9230,140.1663,1,1,0,1,1,0,200人,食糧備蓄・救助資機材・日用品・避難所運営用品,「避難所」：災害によって短期間の避難生活を余儀なくされた場合に、一定期間の避難生活を行う施設。
茨城県,龍ケ崎市,北文間小学校,茨城県龍ケ崎市長沖町1490,35.8928,140.1571,1,1,0,1,0,0,130人,食糧備蓄・救助資機材・日用品・避難所運営用品,「避難所」：災害によって短期間の避難生活を余儀なくされた場合に、一定期間の避難生活を行う施設。
茨城県,龍ケ崎市,八原コミュニティセンター,茨城県龍ケ崎市藤ケ丘1-21-14,35.9343,140.2001,1,0,0,1,1,0,129人,井戸,「福祉避難所」：災害時に高齢者や障がいをお持ちの方などが、優先的に避難生活を行う施設。
茨城県,龍ケ崎市,竜ケ崎第二高等学校,茨城県龍ケ崎市3087,35.9082,140.1917,1,1,0,1,1,0,426人,,「避難所」：災害によって短期間の避難生活を余儀なくされた場合に、一定期間の避難生活を行う施設。
茨城県,龍ケ崎市,長山コミュニティセンター,茨城県龍ケ崎市長山3-13-1,35.9456,140.1579,1,0,0,1,1,0,128人,井戸,「福祉避難所」：災害時に高齢者や障がいをお持ちの方などが、優先的に避難生活を行う施設。
茨城県,下妻市,上妻小学校,下妻市半谷426,36.2185286,139.9359936,1,0,0,-,-,-,,,基幹避難所
茨城県,龍ケ崎市,龍ケ崎西小学校,茨城県龍ケ崎市8810,35.9015,140.1786,1,1,0,1,0,0,150人,食糧備蓄・救助資機材・日用品・避難所運営用品,「避難所」：災害によって短期間の避難生活を余儀なくされた場合に、一定期間の避難生活を行う施設。
茨城県,龍ケ崎市,たつのこアリーナ,茨城県龍ケ崎市中里3-2-1,35.9265,140.2058,1,1,0,1,1,0,1036人,食糧備蓄・救助資機材・日用品・避難所運営用品,「避難所」：災害によって短期間の避難生活を余儀なくされた場合に、一定期間の避難生活を行う施設。
茨城県,龍ケ崎市,中央図書館,茨城県龍ケ崎市馴馬町2630,35.9148,140.1786,1,1,0,1,1,0,66人,,「避難所」：災害によって短期間の避難生活を余儀なくされた場合に、一定期間の避難生活を行う施設。
茨城県,龍ケ崎市,馴柴小学校,茨城県龍ケ崎市若柴町3135,35.9259,140.1443,1,1,0,1,0,0,260人,食糧備蓄・救助資機材・日用品・避難所運営用品,「避難所」：災害によって短期間の避難生活を余儀なくされた場合に、一定期間の避難生活を行う施設。
茨城県,龍ケ崎市,龍ケ崎コミュニティセンター,茨城県龍ケ崎市488,35.9115,140.1904,1,0,0,1,1,0,140人,井戸,「福祉避難所」：災害時に高齢者や障がいをお持ちの方などが、優先的に避難生活を行う施設。
茨城県,下妻市,豊加美小学校,下妻市加養119,36.1738814,139.9879753,1,0,0,-,-,-,,,基幹避難所
茨城県,下妻市,宗道小学校,下妻市本宗道120,36.1589075,139.9697967,1,0,0,-,-,-,,,基幹避難所
茨城県,下妻市,総上小学校,下妻市小島1116,36.1724089,139.9614750,1,0,0,-,-,-,,,基幹避難所
茨城県,神栖市,十町歩農村集落センター,茨城県神栖市矢田部12655,35.82619934,140.7682729,0,1,0,1,1,0,,,風水害：洪水，高潮，土砂災害対応
茨城県,下妻市,千代川中学校,下妻市鎌庭2777,36.1533553,139.9597700,1,0,0,-,-,-,,,基幹避難所
茨城県,龍ケ崎市,長戸コミュニティセンター,茨城県龍ケ崎市高作町162-9,35.9255,140.2391,1,0,0,1,1,0,130人,井戸,「福祉避難所」：災害時に高齢者や障がいをお持ちの方などが、優先的に避難生活を行う施設。
茨城県,下妻市,大形小学校,下妻市別府230,36.1532636,139.9441272,1,0,0,-,-,-,,,基幹避難所
茨城県,下妻市,東部中学校,下妻市大串930?1,36.2008043,139.9766112,1,0,0,-,-,-,,,基幹避難所
茨城県,下妻市,騰波ノ江小学校,下妻市若柳甲644,36.2211901,139.9833717,1,0,0,-,-,-,,,基幹避難所
茨城県,下妻市,高道祖小学校,下妻市高道祖2638?1,36.1960733,140.0130419,1,0,0,-,-,-,,,基幹避難所
茨城県,神栖市,海老台区民館,茨城県神栖市波崎7620-1,35.74698247,140.8170033,0,1,0,0,1,0,,,風水害：土砂災害のみ対応
茨城県,神栖市,鹿島労災病院,茨城県神栖市土合本町1丁目9108-2,35.78927262,140.7848167,0,1,0,0,0,1,,食料・保存水,市と協定している津波避難ビルです。
茨城県,下妻市,大宝小学校,下妻市大宝625,36.2019250,139.9729197,1,0,0,-,-,-,,,基幹避難所
茨城県,龍ケ崎市,久保台コミュニティセンター,茨城県龍ケ崎市久保台4-1-12,35.9350,140.1790,1,0,0,1,1,0,128人,井戸,「福祉避難所」：災害時に高齢者や障がいをお持ちの方などが、優先的に避難生活を行う施設。
茨城県,神栖市,宝山公園,茨城県神栖市砂山18,35.84870021,140.7295042,0,1,0,1,1,0,,,風水害：洪水，土砂災害対応
茨城県,下妻市,下妻中学校,下妻市長塚乙38?1,36.1904931,139.9449481,1,0,0,-,-,-,,,基幹避難所
茨城県,下妻市,やすらぎの里しもつま,下妻市大園木251?1,36.1495672,139.9936000,1,0,0,-,-,-,,,基幹避難所
茨城県,神栖市,土合運動広場,茨城県神栖市土合東2丁目10000-1,35.78240135,140.7785404,0,1,0,1,1,0,,,風水害：洪水，土砂災害対応
茨城県,神栖市,神栖市民体育館,茨城県神栖市溝口4991-4,35.88818522,140.6698895,0,1,0,0,1,0,,,風水害：洪水，土砂災害対応
茨城県,神栖市,神栖市立神栖第四中学校,茨城県神栖市大野原中央2丁目8-46,35.8864878,140.6384214,1,1,0,1,1,1,,食料・保存水，資機材等,風水害：洪水，高潮，土砂災害に対応
茨城県,神栖市,神栖市立植松小学校,茨城県神栖市土合本町4丁目9809-2,35.79661757,140.7772475,1,1,0,1,1,1,,食料・保存水,風水害：洪水，高潮，土砂災害に対応
茨城県,下妻市,下妻小学校,下妻市下妻乙386,36.1803856,139.9631022,1,0,0,-,-,-,,,基幹避難所
茨城県,神栖市,神栖市立うずも幼稚園,茨城県神栖市知手中央5丁目9-7,35.8780549,140.7101119,0,1,0,1,1,0,,,風水害：洪水，土砂災害に対応
茨城県,下妻市,総合体育館,下妻市本城町3?36,36.1851938,139.9694163,1,0,0,-,-,-,,,基幹避難所
茨城県,神栖市,神栖市海浜第一住宅A棟,茨城県神栖市南浜1-2,35.89283,140.720946,0,1,0,0,0,1,,,市指定津波避難ビル。緊急時のみ3階踊り場使用可。
茨城県,神栖市,神栖市立平泉児童センター,茨城県神栖市平泉2783-3,35.9048275,140.6378626,0,1,0,1,1,0,,,風水害：洪水，土砂災害に対応
茨城県,神栖市,ミヨヒコＨＫ?２,茨城県神栖市神栖4-11-6,35.9069942,140.6492019,0,1,0,0,0,1,,,市と協定している津波避難ビルです。
茨城県,神栖市,神栖市立大野原小学校,茨城県神栖市大野原中央2丁目1-8,35.8856243,140.6435876,1,1,0,1,1,1,,食料・保存水,風水害：洪水，高潮，土砂災害に対応
茨城県,神栖市,仲町公園,茨城県神栖市波崎9520-12,35.74529754,140.8362883,0,1,0,1,1,0,,,風水害：土砂災害のみ対応
茨城県,神栖市,神栖市立太田小学校,茨城県神栖市太田598-2,35.8366992,140.7193091,1,1,0,1,1,1,,食料・保存水,風水害：洪水，高潮，土砂災害に対応
茨城県,神栖市,神栖市保健・福祉会館,茨城県神栖市溝口1746-1,35.88899358,140.6631196,1,1,0,1,1,1,,,風水害：洪水，高潮，土砂災害に対応
茨城県,神栖市,神栖市豊ヶ崎住宅B棟,茨城県神栖市波崎9420-33,35.746738,140.834761,0,1,0,0,0,1,,,市指定津波避難ビル。緊急時のみ3階踊り場使用可。
茨城県,神栖市,波崎灯台跡公園,茨城県神栖市波崎9524-24,35.74356467,140.8364975,0,1,0,1,1,1,,,風水害：洪水，高潮，土砂災害対応
茨城県,神栖市,株式会社ウィンド・パワー本社,茨城県神栖市南浜3-226,35.88838731,140.7302338,0,1,0,0,0,1,,,市と協定している津波避難ビルです。
茨城県,神栖市,神栖市立神栖第三中学校,茨城県神栖市知手中央7丁目1-17,35.8748386,140.7071012,1,1,0,1,1,1,,食料・保存水，資機材等,風水害：洪水，高潮，土砂災害に対応
茨城県,神栖市,サンシャインホール雅 　ウェディングステーション雅,茨城県神栖市波崎1251,35.7686222,140.7919246,0,1,0,0,0,1,,,市と協定している津波避難ビルです。
茨城県,神栖市,日和山農村集落センター,茨城県神栖市太田1550-1,35.8124819,140.7479082,0,1,0,1,1,0,,,風水害：洪水，土砂災害対応
茨城県,神栖市,神栖市武道館,茨城県神栖市溝口4991-10,35.887447,140.6697797,1,1,0,1,1,1,,,風水害：洪水，高潮，土砂災害に対応
茨城県,神栖市,鹿島アイビーホテル,茨城県神栖市筒井1666,35.90221737,140.6355464,0,1,0,0,0,1,,,市と協定している津波避難ビルです。
茨城県,神栖市,鹿島知手住宅３号棟,茨城県神栖市知手中央5-1-3,35.87460159,140.7106539,0,1,0,0,0,1,,,市と協定している津波避難場所です。
茨城県,神栖市,神栖市立波崎第二中学校,茨城県神栖市矢田部3120,35.7892491,140.7531081,1,1,0,1,1,1,,食料・保存水，資機材等,風水害：洪水，高潮，土砂災害に対応
茨城県,神栖市,神栖市はさき生涯学習センター,茨城県神栖市波崎9591,35.7517149,140.8301032,0,1,0,1,1,0,,食料・保存水,公衆無線LAN使用可　風水害：洪水，土砂災害対応
茨城県,神栖市,はさきいきいきらんど土合緑地,茨城県神栖市土合北2丁目10-10,35.79567773,140.7825905,0,1,0,1,1,1,,,風水害：洪水，高潮，土砂災害対応
茨城県,神栖市,神栖市立大野原西小学校,茨城県神栖市大野原5丁目1-45,35.8908484,140.6367576,1,1,0,1,1,1,,食料・保存水,風水害：洪水，高潮，土砂災害に対応
茨城県,神栖市,舎利保育園,茨城県神栖市波崎3355,35.7681998,140.8035467,0,1,0,1,1,0,,,風水害：土砂災害のみ
茨城県,神栖市,ミヨヒコＨＫ??,茨城県神栖市平泉281-11,35.9175285,140.6350789,0,1,0,0,0,1,,,市と協定している津波避難ビルです。
茨城県,神栖市,神栖市はさき福祉センター,茨城県神栖市土合本町3丁目9809-158,35.79323237,140.7771617,1,1,0,1,1,1,,,風水害：洪水，高潮，土砂災害対応
茨城県,神栖市,神栖市立神栖第一中学校,茨城県神栖市知手100-3,35.8712936,140.6708106,1,1,0,1,1,1,,食料・保存水，資機材等,風水害：洪水，高潮，土砂災害に対応
茨城県,神栖市,神栖市波崎東ふれあいセンター,茨城県神栖市波崎9572-1,35.7477583,140.8348535,1,1,0,0,1,1,,,風水害：洪水，高潮，土砂災害対応
茨城県,神栖市,神栖市立深芝小学校,茨城県神栖市深芝南3丁目8,35.91275832,140.6518865,1,1,0,1,1,1,,食料・保存水,風水害：洪水，高潮，土砂災害に対応
茨城県,神栖市,利根公園,茨城県神栖市波崎8386-1,35.74614218,140.8192885,0,1,0,1,1,0,,,風水害：土砂災害のみ対応
茨城県,神栖市,茨城県立波崎高等学校,茨城県神栖市土合本町2丁目9928-1,35.7901277,140.7794226,1,1,0,1,1,1,,食料・保存水,風水害：洪水，高潮，土砂災害対応
茨城県,神栖市,神栖市波崎総合支所・防災センター,茨城県神栖市波崎6530,35.7568234,140.8137271,1,1,0,1,1,1,,食料・保存水,公衆無線LAN使用可　風水害：洪水，高潮，土砂災害対応
茨城県,神栖市,神栖市立土合小学校,茨城県神栖市土合南3丁目16-36,35.7902302,140.7692901,1,1,0,1,1,1,,食料・保存水,風水害：洪水，高潮，土砂災害に対応
茨城県,神栖市,神栖済生会病院,茨城県神栖市知手中央7丁目2-45,35.87261179,140.709157,0,1,0,0,0,1,,食料・保存水,市と協定している津波避難ビルです。
茨城県,神栖市,神栖市海浜第三住宅I棟,茨城県神栖市南浜1-8,35.893674,140.723068,0,1,0,0,0,1,,,市指定津波避難ビル。緊急時のみ3階踊り場使用可。
茨城県,神栖市,有限会社郡司工業　本社,茨城県神栖市田畑438-55,35.8816695,140.6509121,0,1,0,0,0,1,,,市と協定している津波避難ビルです。
茨城県,神栖市,信越化学 土合社宅,茨城県神栖市土合本町3丁目9809-7,35.79464216,140.7815337,0,1,0,0,0,1,,,市と協定している津波避難ビルです。
茨城県,神栖市,砂山都市緑地,茨城県神栖市東和田21-2,35.895471,140.69366,0,1,0,1,1,1,,,風水害：洪水，高潮，土砂災害対応
茨城県,神栖市,神栖市海浜第二住宅G棟,茨城県神栖市南浜1-4,35.89366,140.722376,0,1,0,0,0,1,,,市指定津波避難ビル。緊急時のみ3階踊り場使用可。
茨城県,神栖市,西押揚農村集落センター,茨城県神栖市太田389,35.82656469,140.7247406,0,1,0,1,1,0,,,風水害：土砂災害対応
茨城県,神栖市,神栖市立須田小学校,茨城県神栖市須田1177-13,35.8283099,140.7494186,1,1,0,1,1,1,,食料・保存水,風水害：洪水，高潮，土砂災害に対応
茨城県,神栖市,神栖市立須田幼稚園,茨城県神栖市須田1301,35.8322843,140.7524016,0,1,0,0,1,0,,,風水害：土砂災害対応
茨城県,神栖市,茨城県立波崎柳川高等学校,茨城県神栖市柳川1603-1,35.86449136,140.7368857,1,1,0,1,1,1,,食料・保存水,風水害：洪水，高潮，土砂災害対応
茨城県,神栖市,神栖市土合体育館,茨城県神栖市土合北1丁目7-60,35.792433,140.785813,1,1,0,1,1,0,,,風水害：洪水，高潮，土砂災害対応
茨城県,神栖市,新日鐵住金株式会社　技術開発本部　研究棟,茨城県神栖市砂山16-1,35.85420486,140.7197893,0,1,0,0,0,1,,,市と協定している津波避難ビルです。
茨城県,神栖市,鹿島港湾合同庁舎,茨城県神栖市東深芝9,35.9121435,140.6701314,0,1,0,0,0,1,,,市と協定している津波避難ビルです。
茨城県,神栖市,神栖市立石神幼稚園,茨城県神栖市石神773-1,35.8690876,140.6512652,0,1,0,0,1,0,,,風水害：洪水，土砂災害に対応
茨城県,神栖市,神栖市立神栖第二中学校,茨城県神栖市平泉東1丁目60-１,35.9032444,140.6399291,1,1,0,1,1,1,,食料・保存水，資機材等,風水害：洪水，高潮，土砂災害に対応
茨城県,神栖市,神栖市立波崎保育所,茨城県神栖市波崎9298-6,35.7484637,140.8326481,0,1,0,0,1,0,,,風水害：洪水，土砂災害対応
茨城県,神栖市,神栖市立波崎第四中学校,茨城県神栖市土合北1丁目8-10,35.7910722,140.7852471,1,1,0,1,1,1,,食料・保存水，資機材等,風水害：洪水，高潮，土砂災害に対応
茨城県,神栖市,神栖市立波崎小学校,茨城県神栖市波崎8759,35.7483968,140.8274179,1,1,0,1,1,1,,食料・保存水,風水害：洪水，高潮，土砂災害に対応
茨城県,神栖市,若松緑地公園,茨城県神栖市砂山15,35.839638,140.7401955,0,1,0,1,1,0,,,風水害：洪水，土砂災害対応
茨城県,神栖市,神栖市役所,茨城県神栖市溝口4991-5,35.8899716,140.6645273,1,1,0,0,1,1,,食料・保存水,公衆無線LAN使用可　風水害：洪水，高潮，土砂災害対応
茨城県,ひたちなか市,平磯中学校,茨城県ひたちなか市平磯町3550,36.364549912925,140.62016409676,1,0,0,-,-,-,,,指定避難所
茨城県,神栖市,押揚児童公園,茨城県神栖市太田新町2丁目2-10,35.83237315,140.7302083,0,1,0,1,1,0,,,風水害：洪水，土砂災害対応
茨城県,神栖市,若松公民館,茨城県神栖市砂山15,35.8392356,140.73898,1,1,0,1,1,1,,食料・保存水,風水害：洪水，高潮，土砂災害対応
茨城県,神栖市,漁業集落緑地広場,茨城県神栖市波崎9420-1,35.7467756,140.83425,0,1,0,1,1,1,,,風水害：洪水，高潮，土砂災害対応
茨城県,神栖市,神栖市立軽野小学校,茨城県神栖市知手2-2,35.8719157,140.6674331,1,1,0,1,1,1,,食料・保存水,風水害：洪水，高潮，土砂災害に対応
茨城県,神栖市,神栖市立植松幼稚園,茨城県神栖市土合本町4丁目9809-3,35.7957715,140.7768088,0,1,0,0,1,0,,,風水害：洪水，土砂災害対応
茨城県,神栖市,神栖市立息栖小学校,茨城県神栖市平泉2780,35.9039026,140.6376237,1,1,0,1,1,1,,食料・保存水,風水害：洪水，高潮，土砂災害に対応
茨城県,神栖市,土合１号公園,茨城県神栖市土合本町4丁目9809-11,35.79549499,140.777835,0,1,0,1,1,0,,,風水害：洪水，土砂災害対応
茨城県,ひたちなか市,総合体育館（総合運動公園）,茨城県ひたちなか市新光町49,36.390968614868,140.58406176396,1,0,0,-,-,-,,,指定避難所
茨城県,神栖市,センチュリー　ムラマツ,茨城県神栖市神栖二丁目7-31,35.9003283,140.6478868,0,1,0,0,0,1,,,市と協定している津波避難ビルです。
茨城県,神栖市,神栖市立大野原幼稚園,茨城県神栖市大野原中央2丁目1-22,35.8840299,140.6427683,0,1,0,0,1,0,,,風水害：洪水，土砂災害に対応
茨城県,神栖市,神栖市立矢田部小学校,茨城県神栖市矢田部3057,35.7883242,140.7536886,1,1,0,1,1,1,,食料・保存水,風水害：洪水，高潮，土砂災害に対応
茨城県,神栖市,神栖市立明神幼稚園,茨城県神栖市波崎8759-4,35.7487634,140.8266652,0,1,0,0,1,0,,,風水害：土砂災害のみ対応
茨城県,神栖市,豊ヶ浜児童公園,茨城県神栖市波崎9572-1,35.74226718,140.840022,0,1,0,1,1,0,,,風水害：土砂災害のみ対応
茨城県,神栖市,神栖市海浜第一住宅B棟,茨城県神栖市南浜1-2,35.893261,140.720879,0,1,0,0,0,1,,,市指定津波避難ビル。緊急時のみ3階踊り場使用可。
茨城県,神栖市,神栖市波崎体育館,茨城県神栖市波崎9572-1,35.74985156,140.8331931,0,1,0,1,1,0,,,風水害：洪水，土砂災害対応
茨城県,鹿嶋市,額賀公民館,茨城県鹿嶋市武井385-1,36.038994128817,140.57580079527,1,0,0,-,-,-,,,一時避難場所
茨城県,神栖市,神栖市歴史民俗資料館,茨城県神栖市大野原4丁目8-5,35.8971061,140.6364824,0,1,0,1,1,0,,,風水害：洪水，土砂災害に対応
茨城県,神栖市,茨城県立神栖高等学校,茨城県神栖市高浜1468,35.8744894,140.6437963,1,1,0,1,1,1,,食料・保存水,風水害：洪水，高潮，土砂災害に対応
茨城県,神栖市,神栖市立波崎西小学校,茨城県神栖市波崎5011,35.7613254,140.8034331,1,1,0,1,1,1,,食料・保存水,風水害：洪水，高潮，土砂災害に対応
茨城県,神栖市,神栖市うずもコミュニティセンター,茨城県神栖市知手中央7丁目1-6,35.8737359,140.7050765,1,1,0,1,1,1,,食料・保存水,公衆無線LAN使用可　風水害：洪水，高潮，土砂災害対応
茨城県,神栖市,土合運動公園,茨城県神栖市土合北1丁目7-60,35.79182472,140.7865816,0,1,0,1,1,0,,,風水害：洪水，土砂災害対応
茨城県,神栖市,神栖市立軽野東小学校,茨城県神栖市奥野谷5746-2,35.8905058,140.7117033,1,1,0,1,1,1,,食料・保存水,風水害：洪水，高潮，土砂災害に対応
茨城県,神栖市,神栖市海浜第一住宅C棟,茨城県神栖市南浜1-2,35.893091,140.721282,0,1,0,0,0,1,,,市指定津波避難ビル。緊急時のみ3階踊り場使用可。
茨城県,常陸大宮市,陰陽山森林公園,茨城県常陸大宮市山方5061,36.628803426053,140.37021841374,-,-,-,-,-,-,,,２次避難場所
茨城県,神栖市,神栖市海浜第二住宅F棟,茨城県神栖市南浜1-4,35.893907,140.722177,0,1,0,0,0,1,,,市指定津波避難ビル。緊急時のみ3階踊り場使用可。
茨城県,久慈郡大子町,池田上農村集落センター,茨城県久慈郡大子町池田627,36.790554293187,140.36872158177,1,0,0,-,-,-,,,避難場所
茨城県,神栖市,神栖市中央公民館・神栖市文化センター,茨城県神栖市溝口4991-4,35.88871544,140.6687468,1,1,0,1,1,1,,,公衆無線LAN使用可　風水害：洪水，高潮，土砂災害に対応
茨城県,神栖市,神栖市立波崎第一中学校,茨城県神栖市波崎7070,35.7573984,140.8176462,1,1,0,1,1,1,,食料・保存水，資機材等,風水害：洪水，高潮，土砂災害に対応
茨城県,神栖市,神栖市平泉コミュニティセンター,茨城県神栖市平泉2751-2,35.9061744,140.6346156,1,1,0,1,1,1,,食料・保存水,公衆無線LAN使用可　風水害：洪水，高潮，土砂災害に対応
茨城県,神栖市,三番蔵児童公園,茨城県神栖市太田新町4丁目2-3,35.83456398,140.7286325,0,1,0,1,1,0,,,風水害：洪水，土砂災害対応
茨城県,神栖市,常総開発工業株式会社,茨城県神栖市賀2108-8,35.90227386,140.6214595,0,1,0,0,0,1,,,市と協定している津波避難ビルです。
茨城県,稲敷郡阿見町,二区保育所,茨城県稲敷郡阿見町うずら野一丁目29-11,36.03161345008,140.17689096173,1,0,0,-,-,-,,,避難所
茨城県,神栖市,神栖市立柳川小学校,茨城県神栖市柳川中央1丁目9-10,35.8598471,140.7392571,1,1,0,1,1,1,,食料・保存水,風水害：洪水，高潮，土砂災害に対応
茨城県,ひたちなか市,中央図書館,茨城県ひたちなか市元町5番3号,36.396439096822,140.52742156091,1,0,0,-,-,-,,,指定避難所
茨城県,神栖市,神栖市海浜第二住宅E棟,茨城県神栖市南浜1-4,35.89368,140.721689,0,1,0,0,0,1,,,市指定津波避難ビル。緊急時のみ3階踊り場使用可。
茨城県,神栖市,神栖市立波崎第三中学校,茨城県神栖市須田2340-1,35.8386663,140.7417187,1,1,0,1,1,1,,食料・保存水，資機材等,風水害：洪水，高潮，土砂災害に対応
茨城県,日立市,山部地区生活改善センター,茨城県日立市十王町山部856-2,36.691431626458,140.6675889916,1,0,0,-,-,-,,,避難所
茨城県,神栖市,神栖市海浜第三住宅J棟,茨城県神栖市南浜1-8,35.893849,140.722953,0,1,0,0,0,1,,,市指定津波避難ビル。緊急時のみ3階踊り場使用可。
茨城県,取手市,藤代スポーツセンター,茨城県取手市椚木15,35.930708895362,140.0934302177,-,-,-,-,-,-,,,広域避難場所
茨城県,那珂郡東海村,（独）日本原子力研究開発機構／箕輪寮共同棟,茨城県那珂郡東海村村松3368-2,36.442336021571,140.59105239412,1,0,0,-,-,-,,,避難所
茨城県,神栖市,若松中央児童公園,茨城県神栖市若松中央4丁目103,35.8342976,140.7386881,0,1,0,1,1,0,,,風水害：洪水，土砂災害対応
茨城県,鹿嶋市,高松中学校,茨城県鹿嶋市木滝274,35.942291243889,140.64950383356,1,0,0,-,-,-,,,避難場所
茨城県,神栖市,旧波崎済生病院（済生会波崎診療所隣）,茨城県神栖市波崎8968,35.74943797,140.8291912,0,1,0,0,0,1,,食料・保存水,市と協定している津波避難ビルです。
茨城県,神栖市,神栖市海浜第二住宅H棟,茨城県神栖市南浜1-4,35.893407,140.722585,0,1,0,0,0,1,,,市指定津波避難ビル。緊急時のみ3階踊り場使用可。
茨城県,常陸太田市,折橋コミュニティセンター,茨城県常陸太田市折橋町623,36.715807811668,140.49909727727,1,0,0,-,-,-,,,避難所
茨城県,神栖市,神栖市矢田部公民館,茨城県神栖市土合本町3丁目9809-15,35.79395032,140.7766575,1,1,0,1,1,1,,食料・保存水,風水害：洪水，高潮，土砂災害対応
茨城県,東茨城郡城里町,圷小学校,茨城県東茨城郡城里町上圷624,36.495500544753,140.37520370692,1,0,0,-,-,-,,,避難所
茨城県,行方市,麻生高等学校,茨城県行方市麻生1806番地,35.994892473125,140.49022186788,1,0,0,-,-,-,,,避難所
茨城県,常陸太田市,大野公民館,茨城県常陸太田市赤土町960,36.618529296201,140.45997459672,1,0,0,-,-,-,,,避難所
茨城県,桜川市,富谷生活改善センター,茨城県桜川市富谷1718,36.37620992687,140.10239744469,1,0,0,-,-,-,160人,,一時避難所
茨城県,神栖市,神栖市立横瀬小学校,茨城県神栖市横瀬1276-15,35.8695446,140.6970219,1,1,0,1,1,1,,食料・保存水,風水害：洪水，高潮，土砂災害に対応
茨城県,神栖市,神栖中央公園,城県神栖市木崎1203-9,35.896624,140.651084,0,1,0,1,1,1,,食料・保存水,風水害：洪水，高潮，土砂災害対応
茨城県,高萩市,上島名千代町集会所,茨城県高萩市島名2253-142,36.716173979114,140.68940011203,1,0,0,1,1,0,,,避難場所・避難所
茨城県,神栖市,神栖市海浜第一住宅D棟,茨城県神栖市南浜1-2,35.89343,140.721306,0,1,0,0,0,1,,,市指定津波避難ビル。緊急時のみ3階踊り場使用可。
茨城県,日立市,おおくぼ児童公園,茨城県日立市末広町1-1-1,36.557026076084,140.62531059809,-,-,-,0,0,1,,,避難場所
茨城県,鹿嶋市,県立鹿島養護学校,茨城県鹿嶋市沼尾1195,36.000290684064,140.60440629274,1,0,0,-,-,-,,,一時避難場所
茨城県,行方市,行方市立羽生小学校,茨城県行方市羽生738番地,36.142865689992,140.38530465325,1,0,0,-,-,-,,,避難所
茨城県,結城市,山川小学校,茨城県結城市今宿1164-1,36.233458574728,139.87500494491,1,0,0,-,-,-,7600人,,避難場所・避難所
茨城県,神栖市,かわたけ旅館,茨城県神栖市太田4151,35.8432955,140.7122957,0,1,0,0,0,1,,,市と協定している津波避難ビルです。
茨城県,神栖市,ノヴァホールホテル梅はら,茨城県神栖市波崎9231,35.7470249,140.8313177,0,1,0,0,0,1,,,市と協定している津波避難ビルです。
茨城県,桜川市,犬田ふるさとコミュニティセンター,茨城県桜川市犬田1284-4,36.358837725169,140.10413312124,1,0,0,-,-,-,87人,,一時避難所
茨城県,神栖市,公設鹿島地方卸売市場,茨城県神栖市居切660-3,35.9240742,140.6479587,0,1,0,0,0,1,,,市と協定している津波避難ビルです。
茨城県,つくば市,竹園交流センター,茨城県つくば市竹園3-19-2,36.080266461244,140.12529712535,1,0,0,-,-,-,,,予備避難所
茨城県,日立市,平沢中学校,茨城県日立市高鈴町1-15-1,36.600422469315,140.64411156768,1,0,0,-,-,-,,,避難場所・避難所
茨城県,那珂郡東海村,舟石川保育所,茨城県那珂郡東海村舟石川576-27,36.471081766047,140.56060096843,1,0,0,-,-,-,,,避難所
茨城県,日立市,城の丘西公園,茨城県日立市十王町城の丘5-4-1,36.668376455492,140.67561134913,-,-,-,-,-,-,,,避難場所
茨城県,神栖市,神栖市大野原コミュニティセンター,茨城県神栖市大野原7丁目5-59,35.8897488,140.6446652,1,1,0,1,1,1,,食料・保存水,公衆無線LAN使用可　風水害：洪水，高潮，土砂災害に対応
茨城県,神栖市,豊ヶ浜運動公園,茨城県神栖市波崎9579,35.74880669,140.8342928,0,1,0,1,1,0,,,風水害：洪水，土砂災害対応
茨城県,かすみがうら市,関鉄自動車工業,茨城県かすみがうら市上稲吉1828,36.129169142429,140.21292150967,-,-,-,-,-,-,,,避難場所
茨城県,神栖市,日鉄住金プラント株式会社 立野住宅,茨城県神栖市賀2148-28,35.90095289,140.6226665,0,1,0,0,0,1,,,市と協定している津波避難ビルです。
茨城県,日立市,山部小学校,茨城県日立市十王町山部841,36.692315123577,140.66761395346,1,0,0,-,-,-,,,避難場所・避難所
茨城県,常陸大宮市,元沢集落センター,茨城県常陸大宮市氷之沢788,36.642737202655,140.32539166286,1,0,0,-,-,-,,,１次避難所
茨城県,東茨城郡大洗町,小松原児童公園,茨城県東茨城郡大洗町,36.320035069273,140.57756765186,-,-,-,1,0,0,,,一時避難所・指定緊急避難場所
茨城県,稲敷郡阿見町,町立本郷小学校,茨城県稲敷郡阿見町荒川本郷1400,36.017416961672,140.17016995325,1,0,0,0,1,0,,,緊急避難場所・避難所
茨城県,牛久市,第8岡見自治会館,茨城県牛久市岡見町2792-31,35.986984916407,140.1777450978,1,0,0,-,-,-,,,１次避難場所
茨城県,神栖市,社会福祉法人 白十字会 白十字総合病院,茨城県神栖市賀2148,35.89963624,140.6231546,0,1,0,0,0,1,,,市と協定している津波避難ビルです。
茨城県,久慈郡大子町,大子幼稚園,茨城県久慈郡大子町大子442,36.773003365514,140.35179591189,1,0,0,-,-,-,,,避難場所
茨城県,水戸市,吉田市民センター,茨城県水戸市元吉田町1736-5,36.345607781267,140.47678765854,1,0,0,-,-,-,,,指定避難所
茨城県,常陸大宮市,諸沢四区農村集落センター,茨城県常陸大宮市諸沢3369-2,36.665970111881,140.44174080353,1,0,0,-,-,-,,,１次避難所
茨城県,桜川市,やまと幼稚園,茨城県桜川市大国玉13,36.32565253472,140.07518687509,1,0,0,-,-,-,200人,,避難所
茨城県,つくば市,桜南小学校,茨城県つくば市大角豆789-1,36.064171591962,140.15143462372,1,0,0,-,-,-,,,指定避難所
茨城県,猿島郡五霞町,五霞東小学校,茨城県猿島郡五霞町江川200,36.099667624483,139.76083403151,1,0,0,-,-,-,2470人,,避難場所・指定避難所
茨城県,稲敷郡美浦村,安中地区多目的集会施設,茨城県稲敷郡美浦村間野341-1,36.011372623677,140.33537512142,1,0,0,-,-,-,,,避難所
茨城県,神栖市,神栖市豊ヶ崎住宅A棟,茨城県神栖市波崎9420-33,35.746399,140.834919,0,1,0,0,0,1,,,市指定津波避難ビル。緊急時のみ3階踊り場使用可。
茨城県,北茨城市,中妻小学校,茨城県北茨城市華川町中妻456,36.809311844463,140.727082952,1,0,0,-,-,-,,,避難場所
茨城県,高萩市,さくら宇宙公園,茨城県高萩市,36.699342348653,140.69689862515,-,-,-,0,0,1,,,津波避難場所
茨城県,稲敷郡美浦村,安中小学校,茨城県稲敷郡美浦村土浦1979-1,36.0103980155,140.3453604015,1,0,0,-,-,-,,,避難所・広域避難場所
茨城県,高萩市,上手綱生活改善センター,茨城県高萩市上手綱1769-6,36.738404689239,140.68287797049,1,0,0,1,1,0,,,避難場所・避難所
茨城県,猿島郡五霞町,五霞町川妻浄水場,茨城県猿島郡五霞町川妻953,36.127546652902,139.72149193958,1,0,0,-,-,-,490人,,避難場所・指定避難所
茨城県,東茨城郡大洗町,町民会館,茨城県東茨城郡大洗町,36.312500972077,140.57486845773,1,0,0,-,-,-,,,避難所
茨城県,常陸大宮市,県立常陸大宮高等学校,茨城県常陸大宮市野中町3257-2,36.557026824534,140.39776572617,1,0,0,-,-,-,,,２次避難所
茨城県,鹿嶋市,波野小学校,茨城県鹿嶋市明石516,35.991618019895,140.64761962828,1,0,0,-,-,-,,,避難場所
茨城県,日立市,大久保小学校,茨城県日立市末広町1-1-1,36.558060349758,140.62576771498,1,0,0,0,0,1,,,避難場所・避難所
茨城県,常陸太田市,小妻コミュニティセンター,茨城県常陸太田市小妻町591,36.759481072313,140.48492587965,1,0,0,-,-,-,,,避難所
茨城県,ひたちなか市,勝倉小学校,茨城県ひたちなか市勝倉3010,36.377615950962,140.52414984077,1,0,0,-,-,-,,,指定避難所
茨城県,北茨城市,華川町公民館,茨城県北茨城市華川町小豆畑912-2,36.820018846593,140.711655431,1,0,0,-,-,-,,,避難場所
茨城県,那珂郡東海村,照沼区自治集会所,茨城県那珂郡東海村照沼79-2,36.434123228171,140.59468004533,1,0,0,-,-,-,,,避難所
茨城県,常陸大宮市,家和楽運動公園,茨城県常陸大宮市家和楽161,36.660014115261,140.39007818208,-,-,-,-,-,-,,,２次避難場所
茨城県,桜川市,岩瀬西中学校,茨城県桜川市富岡535,36.369208240044,140.08818148943,1,0,0,-,-,-,1550人,,避難所
茨城県,潮来市,赤須農村集落センター,茨城県潮来市島須2009番地,35.971735267311,140.54190157333,1,0,0,-,-,-,,,１次避難所
茨城県,土浦市,つくば国際大学高等学校土浦校舎,茨城県土浦市真鍋1-3-5,36.088431112357,140.20198617406,1,0,0,1,0,0,,,一時避難所
茨城県,つくばみらい市,谷和原中学校,茨城県つくばみらい市古川950,35.99205844493,140.01201532283,1,0,0,-,-,-,,,避難場所・避難所
茨城県,取手市,白山西小学校,茨城県取手市白山8-11-6,35.909227448327,140.0552204651,1,0,0,-,-,-,,,避難場所・第一避難所
茨城県,日立市,中里中学校,茨城県日立市東河内町1953,36.633066078104,140.5467333223,1,0,0,-,-,-,,,避難場所・避難所
茨城県,常総市,三妻公民館,茨城県常総市三坂町1544-3,36.074848293261,139.9810986367,1,0,0,1,0,0,106人,,避難所
茨城県,かすみがうら市,霞ヶ浦保健センター,茨城県かすみがうら市深谷3671-2,36.08652600829,140.31037937476,-,-,-,-,-,-,,,避難場所
茨城県,日立市,(株)日立製作所大みかゴルフ場（サッカー場、体育館含む）,茨城県日立市大みか町6-20,36.5092984792,140.61214361713,-,-,-,-,-,-,,,避難場所
茨城県,つくば市,吾妻幼稚園,茨城県つくば市吾妻2-12,36.084918848014,140.11538924347,1,0,0,-,-,-,,,予備避難所
茨城県,稲敷郡阿見町,追原公会堂,茨城県稲敷郡阿見町追原775-1,36.015205956848,140.25910084245,1,0,0,-,-,-,,,一時集合場所・避難所
茨城県,日立市,河原子小学校,茨城県日立市河原子町4-3-4,36.546048346824,140.63902215798,1,0,0,0,0,1,,,避難場所・避難所
茨城県,行方市,行方市現原地区学習センター,茨城県行方市捻木347番地3,36.133845787789,140.41898871913,1,0,0,-,-,-,,,避難所
茨城県,水戸市,上大野小学校,茨城県水戸市,36.363878603639,140.52676491954,1,0,0,-,-,-,,,指定避難所
茨城県,潮来市,かすみ保健福祉センター,茨城県潮来市島須777,35.958183626741,140.52568652951,1,0,0,-,-,-,,,２次避難所
茨城県,筑西市,下館西中学校,茨城県筑西市飯島600,36.306797819087,139.9371963676,1,0,0,-,-,-,,,指定避難所
茨城県,久慈郡大子町,頃藤西一区集会所,茨城県久慈郡大子町頃藤6181-3,36.716593929468,140.37208207487,1,0,0,-,-,-,,,避難場所
茨城県,日立市,中里小学校,茨城県日立市東河内町1909,36.634612780832,140.54646669387,1,0,0,-,-,-,,,避難場所・避難所
茨城県,常陸大宮市,入檜沢上コミニュティセンター,茨城県常陸大宮市高部3218-1,36.687533565007,140.28007176422,1,0,0,-,-,-,,,１次避難所
茨城県,東茨城郡大洗町,第一保育所,茨城県東茨城郡大洗町磯浜町6823,36.314017304849,140.57975425009,1,0,0,-,-,-,,,指定緊急避難場所・避難所・指定避難所
茨城県,桜川市,桃山中学校,茨城県桜川市真壁町伊佐々158,36.26822057332,140.08654025878,1,0,0,-,-,-,3000人,,避難所
茨城県,常陸大宮市,大岩集落センター,茨城県常陸大宮市大岩399-2,36.632217587952,140.25513962495,1,0,0,-,-,-,,,１次避難所
茨城県,ひたちなか市,外野小学校,茨城県ひたちなか市外野1-30-1,36.406747194796,140.53738049634,1,0,0,-,-,-,,,指定避難所
茨城県,高萩市,松岡中学校,茨城県高萩市下手綱4,36.739771505144,140.70240202512,1,0,0,1,1,0,,,避難場所・避難所
茨城県,東茨城郡大洗町,漁村広場,茨城県東茨城郡大洗町,36.312191975111,140.58084589594,-,-,-,-,-,-,,,一時避難所・指定緊急避難場所
茨城県,日立市,大みかゴルフ場,茨城県日立市,36.513028202058,140.61414918754,-,-,-,0,0,1,,,避難場所
茨城県,稲敷郡河内町,河内中学校,茨城県稲敷郡河内町源清田57,35.878335975608,140.24608440512,1,0,0,-,-,-,,,避難所
茨城県,水戸市,竹隈市民センター,茨城県水戸市柳町2-5-8,36.366841588544,140.49009740232,1,0,0,-,-,-,,,指定避難所
茨城県,結城郡八千代町,八千代高等学校,茨城県結城郡八千代町大字平塚4824-2,36.184241908559,139.86186322362,1,0,0,-,-,-,,,避難場所・避難所
茨城県,桜川市,坂戸小学校,茨城県桜川市西飯岡512-4,36.365311368769,140.07758264214,1,0,0,-,-,-,838人,,避難所
茨城県,桜川市,いこいの家,茨城県桜川市羽田1038-25,36.328624810978,140.09064393069,1,0,0,-,-,-,,,一時避難所
茨城県,桜川市,西友部農村集落センター,茨城県桜川市友部1436,36.353610529708,140.13541868711,1,0,0,-,-,-,99人,,一時避難所
茨城県,北茨城市,北茨城養護学校,茨城県北茨城市中郷町小野矢指1657,36.74995722458,140.73200288494,1,0,0,-,-,-,,,避難場所
茨城県,ひたちなか市,前渡小学校,茨城県ひたちなか市馬渡309,36.403261491347,140.57478241362,1,0,0,-,-,-,,,指定避難所
茨城県,常陸大宮市,塩原農村集落センター,茨城県常陸大宮市塩原2764,36.573391679485,140.42240408582,1,0,0,-,-,-,,,１次避難所
茨城県,牛久市,秋住団地自治会館,茨城県牛久市刈谷2-188-83,35.972933559751,140.13162544518,1,0,0,-,-,-,,,１次避難場所
茨城県,水戸市,県立スポーツセンター,茨城県水戸市,36.380728972768,140.44926075276,-,-,-,-,-,-,,,緊急避難場所
茨城県,東茨城郡茨城町,木部南部公民館,茨城県東茨城郡茨城町木部1924-3,36.273411375127,140.34914706621,1,0,0,0,1,0,,,一時避難場所・避難所
茨城県,水戸市,笠原市民センター,茨城県水戸市笠原町358-5,36.342135729259,140.45600068733,1,0,0,-,-,-,,,指定避難所
茨城県,那珂郡東海村,東海村中央公民館,茨城県那珂郡東海村船場768,36.459794228562,140.56304070504,1,0,0,-,-,-,,,避難所
茨城県,稲敷郡美浦村,中央公民館,茨城県稲敷郡美浦村受領1460-1,36.004111303779,140.30308903165,1,0,0,-,-,-,,,避難所
茨城県,桜川市,ますみ公園,茨城県桜川市友部1828,36.348974184122,140.13974577467,-,-,-,-,-,-,,,一時避難所
茨城県,つくば市,今鹿島保育所,茨城県つくば市今鹿島5087,36.126271354304,140.04344646187,1,0,0,-,-,-,,,予備避難所
茨城県,かすみがうら市,牛渡地区公民館,茨城県かすみがうら市牛渡2862-3,36.066659281712,140.33138964691,-,-,-,-,-,-,,,避難場所
茨城県,鹿嶋市,県立鹿島灘高等学校,茨城県鹿嶋市志崎121,36.075637201713,140.59267192733,1,0,0,-,-,-,,,一時避難場所
茨城県,つくば市,手代木中学校,茨城県つくば市松代5-10,36.062977245838,140.10655401596,1,0,0,-,-,-,,,指定避難所
茨城県,常総市,鬼怒中学校,茨城県常総市中妻町4180,36.070020990744,139.98089037228,1,0,0,1,0,0,1374人,,避難所
茨城県,取手市,桜が丘小学校,茨城県取手市桜が丘2-17-1,35.90224959767,140.12703066552,1,0,0,0,1,0,,,避難場所・水害時緊急避難場所
茨城県,常総市,横曽根集会所,茨城県常総市豊岡町乙1742,36.035055387178,139.97598420289,1,0,0,-,-,-,38人,,避難所
茨城県,牛久市,栄町区民会館,茨城県牛久市神谷1-2-1,35.976197278086,140.15247575086,1,0,0,-,-,-,,,１次避難場所
茨城県,北茨城市,保健センター,茨城県北茨城市華川町臼場187-27,36.798058123529,140.73820494585,1,0,0,-,-,-,,,避難場所
茨城県,稲敷郡阿見町,町立吉原小学校,茨城県稲敷郡阿見町吉原614,35.99635701333,140.22064963898,1,0,0,0,1,0,,,緊急避難場所・避難所
茨城県,東茨城郡城里町,下赤沢集落センター,茨城県東茨城郡城里町下赤沢700-1,36.4532488045,140.22786310493,1,0,0,-,-,-,,,避難所
茨城県,東茨城郡大洗町,掘割児童公園,茨城県東茨城郡大洗町,36.319453868335,140.56650533046,-,-,-,1,0,0,,,一時避難所・指定緊急避難場所
茨城県,那珂郡東海村,亀下区自治集会所,茨城県那珂郡東海村亀下372-1,36.480853913895,140.59434866095,1,0,0,-,-,-,,,避難所
茨城県,桜川市,池亀公民館,茨城県桜川市池亀364,36.38662137601,140.16059135153,1,0,0,-,-,-,104人,,一時避難所
茨城県,桜川市,東飯田分館,茨城県桜川市東飯田549-4,36.311818910878,140.11039818561,1,0,0,-,-,-,70人,,一時避難所
茨城県,つくばみらい市,小張小学校,茨城県つくばみらい市小張1661,35.982749094522,140.0393517184,1,0,0,-,-,-,,,避難場所・避難所
茨城県,稲敷郡阿見町,中郷東公会堂,茨城県稲敷郡阿見町中郷二丁目14-1,36.042290640003,140.21439393743,1,0,0,-,-,-,,,一時集合場所・避難所
茨城県,久慈郡大子町,内大野集会所,茨城県久慈郡大子町内大野1937番地,36.788278466003,140.41936959622,1,0,0,-,-,-,,,避難場所
茨城県,常総市,図書館,茨城県常総市水海道天満町1606,36.016985429853,139.98754834269,1,0,0,1,0,0,153人,,避難所
茨城県,稲敷郡阿見町,曙ふれあい館,茨城県稲敷郡阿見町曙300-1,36.038174640314,140.22658157827,1,0,0,-,-,-,,,避難所
茨城県,稲敷郡阿見町,茨城大学農学部,茨城県稲敷郡阿見町阿見3998,36.036297399806,140.21474969585,-,-,-,1,0,0,,,緊急避難場所・広域避難場所
茨城県,東茨城郡大洗町,夏海小学校,茨城県東茨城郡大洗町成田町236,36.286651646468,140.55129088154,1,0,0,-,-,-,,,一時避難所・指定緊急避難場所・指定避難所・広域避難場所
茨城県,常陸太田市,久米ふるさとコミュニティセンター,茨城県常陸太田市久米町1595-12,36.544074181008,140.47898950875,1,0,0,-,-,-,,,避難所
茨城県,潮来市,浜壱丁目会館,茨城県潮来市潮来101,35.939725179066,140.5412816937,1,0,0,-,-,-,,,１次避難所
茨城県,北茨城市,関本中学校,茨城県北茨城市関本町関本上1470,36.860737597574,140.75984847148,1,0,0,-,-,-,,,避難場所
茨城県,那珂市,茨城女子短期大学,茨城県那珂市東木倉960-2,36.42364972553,140.47257494399,1,0,0,-,-,-,,,避難場所・避難所
茨城県,ひたちなか市,前渡公民館,茨城県ひたちなか市馬渡2980-1,36.411671799827,140.57113795921,1,0,0,-,-,-,,,指定避難所
茨城県,久慈郡大子町,池田保育所,茨城県久慈郡大子町池田2559-1,36.780230619036,140.35900614659,1,0,0,-,-,-,,,避難場所
茨城県,桜川市,桜井会館,茨城県桜川市真壁町桜井171,36.278383301779,140.11135404926,1,0,0,-,-,-,100人,,一時避難所
茨城県,水戸市,国田小学校,茨城県水戸市下国井町2595-1,36.427345393125,140.43391147547,1,0,0,0,1,0,,,風水害等災害避難場所・指定避難所
茨城県,桜川市,大曽根分館,茨城県桜川市大曽根1163,36.317001582719,140.11181459853,1,0,0,-,-,-,30人,,一時避難所
茨城県,鹿嶋市,共栄農村集落センター,茨城県鹿嶋市武井2092-17,36.063944141553,140.59984145512,1,0,0,-,-,-,,,一時避難場所
茨城県,常総市,大花羽小学校,茨城県常総市大輪町386-1,36.066782247717,139.9727386201,1,0,0,1,0,0,892人,,避難所
茨城県,古河市,八俣小学校,茨城県古河市東山田1814,36.157673731676,139.81904861818,1,0,0,1,0,0,8551人,,避難場所・避難所
茨城県,常陸太田市,山吹運動公園市民体育館,茨城県常陸太田市新宿町1,36.535071127709,140.51885861673,1,0,0,-,-,-,,,避難場所・避難所
茨城県,古河市,スポーツ交流センター,茨城県古河市立崎510-1,36.181258586415,139.69522557965,1,0,0,1,0,0,1451人,,避難所
茨城県,笠間市,箱田小学校,茨城県笠間市箱田1115番地,36.398394180117,140.23086255825,1,0,0,-,-,-,,,避難場所・避難所
茨城県,かすみがうら市,下稲吉東小学校,茨城県かすみがうら市下稲吉2286,36.127649014611,140.24576645626,1,0,0,-,-,-,,,避難場所・避難所
茨城県,那珂郡東海村,舟石川3区自治集会所,茨城県那珂郡東海村舟石川825-91,36.466593774456,140.57389485105,1,0,0,-,-,-,,,避難所
茨城県,猿島郡五霞町,五霞町保健センター,茨城県猿島郡五霞町小福田1231-1,36.109727299307,139.75064833658,1,0,0,-,-,-,890人,,避難場所・指定避難所
茨城県,古河市,第三小学校,茨城県古河市旭町一丁目18-4,36.19503242192,139.72243904186,1,0,0,1,0,0,10099人,,避難場所・避難所
茨城県,石岡市,石岡第二高等学校,茨城県石岡市府中5-14-14,36.200424430389,140.27261489284,1,0,0,-,-,-,,,避難場所・避難所
茨城県,かすみがうら市,佐賀小学校,茨城県かすみがうら市坂2039-1,36.066654281864,140.3313729487,1,0,0,-,-,-,,,避難場所・避難所
茨城県,小美玉市,玉里運動公園,茨城県小美玉市粟又四ヶ2406-4,36.181163553875,140.32252534669,1,0,0,-,-,-,660人,,避難場所・指定避難所
茨城県,常陸大宮市,野田集落センター,茨城県常陸大宮市野田1121-1,36.562942117179,140.25602840947,1,0,0,-,-,-,,,１次避難所
茨城県,猿島郡五霞町,五霞ふれあいセンター,茨城県猿島郡五霞町江川179-1,36.099098308132,139.76148959262,1,0,0,-,-,-,300人,,避難場所・指定避難所
茨城県,常総市,大生小学校,茨城県常総市平町415,36.038405588466,140.0059614961,1,0,0,1,0,0,869人,,避難所
茨城県,常陸大宮市,栄町集会所,茨城県常陸大宮市栄町1325-2,36.54079285002,140.41923909702,1,0,0,-,-,-,,,１次避難所
茨城県,水戸市,第二中学校（第一中学校）,茨城県水戸市,36.375238659109,140.4802004375,1,0,0,-,-,-,,,指定避難所
茨城県,小美玉市,農村環境改善センター,茨城県小美玉市中台559,36.216601329881,140.30706941788,1,0,0,-,-,-,435人,,指定避難所
茨城県,東茨城郡大洗町,桜道児童公園,茨城県東茨城郡大洗町,36.316077300995,140.56112039965,-,-,-,1,0,0,,,指定緊急避難場所・広域避難場所
茨城県,常総市,三妻小学校,茨城県常総市中妻町4146,36.067824047787,139.98157647273,1,0,0,1,0,0,1167人,,避難所
茨城県,桜川市,桜川中学校,茨城県桜川市真壁町亀熊570,36.293687414658,140.09595257074,1,0,0,-,-,-,2000人,,避難所
茨城県,牛久市,神谷小学校,茨城県牛久市神谷4-14,35.963528736023,140.16411773521,1,0,0,-,-,-,,,２次避難場所
茨城県,東茨城郡城里町,上赤沢農村集落センター,茨城県東茨城郡城里町上赤沢155-3,36.445665975584,140.21500614104,1,0,0,-,-,-,,,避難所
茨城県,笠間市,大原小学校,茨城県笠間市小原3522番地1,36.369207647939,140.31333743966,1,0,0,-,-,-,,,避難場所・避難所
茨城県,常陸太田市,和田農村集落センター,茨城県常陸太田市和田町711-2,36.58120624187,140.48920670779,1,0,0,-,-,-,,,避難所
茨城県,日立市,諏訪交流センター,茨城県日立市諏訪町4-11-1,36.564792887161,140.62708127345,1,0,0,-,-,-,,,避難場所・避難所
茨城県,久慈郡大子町,大子広域公園,茨城県久慈郡大子町浅川2921番地,36.789548881103,140.3479818322,1,0,0,-,-,-,,,避難場所
茨城県,つくば市,谷田部南小学校,茨城県つくば市境田191-1,36.010053384101,140.08030806372,1,0,0,-,-,-,,,指定避難所
茨城県,稲敷郡美浦村,木原保育園,茨城県稲敷郡美浦村木原1516,36.021242231815,140.29469770263,1,0,0,-,-,-,,,避難所
茨城県,高萩市,関口集会所,茨城県高萩市上手綱2807-9,36.754046799708,140.67543676591,1,0,0,1,1,0,,,避難場所・避難所
茨城県,東茨城郡大洗町,明神町集会所,茨城県東茨城郡大洗町磯浜町6881番地の560,36.313145388252,140.58672046802,1,0,0,-,-,-,,,避難所
茨城県,笠間市,岩間海洋センター,茨城県笠間市押辺2259番地1,36.290825297777,140.31088378049,1,0,0,-,-,-,,,避難場所・避難所
茨城県,桜川市,つくば真壁工業団地公園1,茨城県桜川市真壁町東矢貝914,36.30255877004,140.07365440041,-,-,-,-,-,-,,,一時避難所
茨城県,那珂郡東海村,外宿1区自治集会所,茨城県那珂郡東海村石神外宿1439-2,36.488252794517,140.56614446388,1,0,0,-,-,-,,,避難所
茨城県,常陸大宮市,村田小学校,茨城県常陸大宮市上村田1259-1,36.527153075387,140.41467632934,1,0,0,-,-,-,,,２次避難所
茨城県,日立市,市民運動公園,茨城県日立市東成沢町2-15,36.576141685748,140.64778432077,-,-,-,0,0,1,,,避難場所
茨城県,土浦市,土浦第二小学校,茨城県土浦市富士崎2-1-41,36.07091144007,140.19750371333,1,0,0,1,0,0,,,一時避難所
茨城県,坂東市,七重小学校,茨城県坂東市借宿683番地2,36.083736427551,139.86633962719,1,0,0,-,-,-,,,避難場所
茨城県,守谷市,さくらの杜公園,茨城県守谷市みずき野四丁目14番地,35.936439216917,140.01762138119,-,-,-,-,-,-,,,避難場所
茨城県,北茨城市,中郷中学校,茨城県北茨城市中郷町足洗508,36.77363794622,140.73507203139,1,0,0,-,-,-,,,避難場所
茨城県,つくばみらい市,谷原小学校,茨城県つくばみらい市加藤241,35.990372450357,140.01151821208,1,0,0,-,-,-,,,避難場所・避難所
茨城県,守谷市,守谷中学校,茨城県守谷市百合ケ丘二丁目2675番地,35.949126462671,139.98567310824,1,0,0,-,-,-,,,避難所
茨城県,つくば市,大穂体育館,茨城県つくば市筑穂1-10-4,36.136587861636,140.08192098946,1,0,0,-,-,-,,,予備避難所
茨城県,日立市,成沢小学校,茨城県日立市中成沢町3-16-8,36.573527770061,140.63638831233,1,0,0,-,-,-,,,避難場所・避難所
茨城県,結城郡八千代町,貝谷運動公園,茨城県結城郡八千代町大字貝谷33,36.18481045004,139.9184385338,-,-,-,-,-,-,,,避難場所
茨城県,北茨城市,明徳小学校,茨城県北茨城市磯原町木皿726,36.794446427928,140.71277536134,1,0,0,-,-,-,,,避難場所
茨城県,日立市,台原中学校,茨城県日立市台原町1-9-1,36.532699051475,140.61110951786,1,0,0,-,-,-,,,避難場所・避難所
茨城県,結城市,絹川小学校,茨城県結城市小森2227,36.28093856966,139.89586521169,1,0,0,-,-,-,5900人,,避難場所・避難所
茨城県,取手市,取手第一高等学校,茨城県取手市台宿2-4-1,35.898240522554,140.06613399933,1,0,0,-,-,-,,,避難場所・第一避難所
茨城県,行方市,行方市麻生運動場,茨城県行方市南269番地1,36.023077571314,140.47516394874,1,0,0,-,-,-,,,避難所
茨城県,つくばみらい市,茨城県みなみ農業共済組合茨城南部支所,茨城県つくばみらい市中平柳336-1,35.938679480148,140.04238374924,-,-,-,-,-,-,,,避難場所
茨城県,那珂市,横堀公民館,茨城県那珂市横堀1722-1,36.464926229474,140.5163501075,1,0,0,-,-,-,,,避難場所・避難所
茨城県,日立市,津神社,茨城県日立市,36.671030469729,140.70890123639,-,-,-,0,0,1,,,避難場所
茨城県,常陸太田市,棚谷ふるさとコミュニティーセンター,茨城県常陸太田市棚谷町83,36.59442110934,140.46461380732,1,0,0,-,-,-,,,避難所
茨城県,つくばみらい市,小絹コミュニティセンター,茨城県つくばみらい市小絹848,35.982536484815,139.98032758356,1,0,0,-,-,-,,,避難場所・避難所
茨城県,東茨城郡大洗町,東光台児童公園,茨城県東茨城郡大洗町,36.31585965544,140.58362729606,-,-,-,1,0,0,,,一時避難所・指定緊急避難場所
茨城県,日立市,大久保中学校,茨城県日立市末広町5-12-34,36.557885203122,140.61901851363,1,0,0,-,-,-,,,避難場所・避難所
茨城県,結城郡八千代町,第一中学校,茨城県結城郡八千代町大字若1808,36.174821872883,139.88610094607,1,0,0,-,-,-,,,避難場所・避難所
茨城県,常陸太田市,岩手営農研修センター,茨城県常陸太田市岩手町769,36.563605420231,140.47566970305,1,0,0,-,-,-,,,避難所
茨城県,古河市,サークル館,茨城県古河市北利根10,36.159172434038,139.76596593209,1,0,0,1,0,0,167人,,避難場所・避難所
茨城県,土浦市,都和中学校,茨城県土浦市中貫1222-2,36.120228092814,140.19852618827,1,0,0,1,0,0,,,一時避難所
茨城県,稲敷郡阿見町,本郷区公会堂,茨城県稲敷郡阿見町本郷一丁目24-4,36.025032997742,140.17623863683,-,-,-,-,-,-,,,一時集合場所
茨城県,石岡市,関川小学校,茨城県石岡市石川1153,36.142070025267,140.31003230932,1,0,0,-,-,-,,,避難場所・避難所
茨城県,筑西市,新治小学校,茨城県筑西市門井1890,36.333888774654,140.03269216004,1,0,0,-,-,-,,,指定避難所
茨城県,古河市,コミュニティセンター総和,茨城県古河市下辺見2401,36.176154205119,139.73473632314,1,0,0,1,0,0,75人,,避難場所・避難所
茨城県,常陸太田市,佐竹小学校,茨城県常陸太田市谷河原町298,36.522333430354,140.51593127194,1,0,0,-,-,-,,,避難場所・避難所
茨城県,筑西市,養蚕小学校,茨城県筑西市下中山298,36.301064562176,139.98902823744,1,0,0,-,-,-,,,指定避難所
茨城県,那珂郡東海村,真崎コミュニティセンター,茨城県那珂郡東海村村松833,36.459311785596,140.58753019743,1,0,0,1,0,1,,,指定緊急避難場所・基幹避難所
茨城県,稲敷郡阿見町,廻戸公会堂,茨城県稲敷郡阿見町廻戸423,36.044423896066,140.22270429982,1,0,0,-,-,-,,,一時集合場所・避難所
茨城県,潮来市,日の出1丁目集会所,茨城県潮来市日の出1-9,35.932885831587,140.58663076588,1,0,0,-,-,-,,,１次避難所
茨城県,潮来市,日の出中学校,茨城県潮来市日の出3-9-18,35.935115653922,140.57189019052,1,0,0,-,-,-,,,１次避難所・２次避難所
茨城県,桜川市,JA北つくば真壁中央支店,茨城県桜川市真壁町塙世79-1,36.281374598447,140.08219013244,1,0,0,-,-,-,300人,,一時避難所
茨城県,久慈郡大子町,愛宕町集会所,茨城県久慈郡大子町大子302-2,36.77588520394,140.34920462649,1,0,0,-,-,-,,,避難場所
茨城県,水戸市,堀原小学校,茨城県水戸市,36.393326802117,140.43077934817,1,0,0,-,-,-,,,指定避難所
茨城県,古河市,県立三和高校,茨城県古河市五部54-1,36.207476495611,139.81903306492,1,0,0,1,0,0,17731人,,避難場所・避難所
茨城県,那珂郡東海村,豊白区自治集会所,茨城県那珂郡東海村白方1690-18,36.471557429412,140.57891658012,1,0,0,-,-,-,,,避難所
茨城県,北茨城市,市民体育館,茨城県北茨城市磯原町磯原1630-9,36.800872453192,140.75351252797,1,0,0,-,-,-,,,避難場所
茨城県,稲敷郡阿見町,上本郷公会堂,茨城県稲敷郡阿見町荒川本郷1402-1,36.017178080398,140.16973939854,-,-,-,-,-,-,,,一時集合場所
茨城県,常陸大宮市,上檜沢生活改善センター,茨城県常陸大宮市上檜沢163-2,36.662173808941,140.32730737156,1,0,0,-,-,-,,,１次避難所
茨城県,守谷市,立沢公園,茨城県守谷市久保ケ丘一丁目21番地,35.969657301408,139.97606333276,-,-,-,-,-,-,,,避難場所
茨城県,日立市,黒坂地区生活改善センター,茨城県日立市十王町黒坂168,36.692325414151,140.54856458866,1,0,0,-,-,-,,,避難場所・避難所
茨城県,稲敷郡阿見町,中央西公会堂,茨城県稲敷郡阿見町中央一丁目9-7,36.027075554418,140.21399949907,-,-,-,-,-,-,,,一時集合場所
茨城県,つくば市,筑波幼稚園,茨城県つくば市平沢80,36.183241091417,140.09985940348,1,0,0,-,-,-,,,予備避難所
茨城県,水戸市,茨城大学（体育館）,茨城県水戸市,36.400082066958,140.44378282968,1,0,0,0,1,0,,,風水害等災害避難場所
茨城県,笠間市,岩間第一小学校,茨城県笠間市下郷4140番地1,36.298865126255,140.27475698133,1,0,0,-,-,-,,,避難場所・避難所
茨城県,常陸大宮市,川西生活改善センター,茨城県常陸大宮市上小瀬2185-5,36.607610456868,140.31918763519,1,0,0,-,-,-,,,１次避難所
茨城県,つくば市,大穂幼稚園,茨城県つくば市篠崎557-1,36.136620523818,140.06027547564,1,0,0,-,-,-,,,予備避難所
茨城県,稲敷郡阿見町,レイクサイドタウン公会堂,茨城県稲敷郡阿見町大室710-1,36.0398717058,140.23148105858,1,0,0,-,-,-,,,一時集合場所・避難所
茨城県,坂東市,猿島中学校,茨城県坂東市山2807番地,36.11547705925,139.8826201918,1,0,0,-,-,-,,,避難場所
茨城県,那珂郡東海村,石神小学校,茨城県那珂郡東海村石神外宿1055,36.487694322492,140.57255837391,1,0,0,1,0,1,,,避難所・指定緊急避難場所
茨城県,つくばみらい市,板橋コミュニティセンター,茨城県つくばみらい市板橋2675-1,35.981535901567,140.05891398562,1,0,0,-,-,-,,,避難場所・避難所
茨城県,つくば市,谷田部交流センター,茨城県つくば市谷田部4774-18,36.037005016061,140.07462916502,1,0,0,-,-,-,,,予備避難所
茨城県,守谷市,乙子公園,茨城県守谷市美園二丁目4番地,35.92705560396,140.00342419286,-,-,-,-,-,-,,,避難場所
茨城県,結城郡八千代町,川西地区運動広場,茨城県結城郡八千代町大字新井428,36.199507211895,139.90454371725,-,-,-,-,-,-,,,避難場所
茨城県,結城郡八千代町,下結城小学校,茨城県結城郡八千代町大字平塚3740,36.162233740884,139.8665303852,1,0,0,-,-,-,,,避難場所・避難所
茨城県,水戸市,双葉台小学校,茨城県水戸市,36.395479411201,140.406698962,1,0,0,-,-,-,,,指定避難所
茨城県,行方市,行方市太田地区館,茨城県行方市矢幡742番地,36.013188332127,140.53159838166,1,0,0,-,-,-,,,避難所
茨城県,高萩市,君田中学校,茨城県高萩市下君田682,36.801754913978,140.58500630947,1,0,0,1,0,0,,,避難場所・避難所
茨城県,かすみがうら市,下稲吉中学校,茨城県かすみがうら市下稲吉2273-2,36.132094588142,140.24801375031,1,0,0,-,-,-,,,避難場所・避難所
茨城県,猿島郡五霞町,ごか西児童館,茨城県猿島郡五霞町元栗橋916-5,36.113798830119,139.73918524364,1,0,0,-,-,-,200人,,避難場所・指定避難所
茨城県,久慈郡大子町,上郷生活改善センター,茨城県久慈郡大子町上郷1331番地,36.842653690523,140.33680254727,1,0,0,-,-,-,,,避難場所
茨城県,日立市,折笠スポーツ広場,茨城県日立市折笠町987-1,36.652864743609,140.68255565278,-,-,-,0,0,1,,,避難場所
茨城県,常陸太田市,箕新農村集落センター,茨城県常陸太田市箕町286,36.559480085279,140.45176879725,1,0,0,-,-,-,,,避難所
茨城県,石岡市,小幡小学校,茨城県石岡市小幡4080,36.221677855655,140.1619577891,1,0,0,-,-,-,,,避難場所・避難所
茨城県,常陸大宮市,パークアルカディア,茨城県常陸大宮市山方5858-13,36.630762172411,140.38193141152,-,-,-,-,-,-,,,２次避難場所
茨城県,北茨城市,関南小学校,茨城県北茨城市関南町神岡下172,36.830958355795,140.77411817328,1,0,0,-,-,-,,,避難場所
茨城県,結城市,市民文化センターアクロス,茨城県結城市中央町2-2,36.290915605479,139.87168570489,1,0,0,1,0,0,5500人,,避難場所・避難所
茨城県,北茨城市,市民ふれあいセンター,茨城県北茨城市磯原町本町2-5-15,36.788487227485,140.74626023967,1,0,0,1,0,0,,,避難場所
茨城県,取手市,戸頭西小学校,茨城県取手市戸頭8-10-1,35.925396222896,140.00796950057,1,0,0,-,-,-,,,避難場所・第二避難所
茨城県,常陸大宮市,谷熊公民館,茨城県常陸大宮市高部4076-3,36.66190094641,140.29432679759,1,0,0,-,-,-,,,１次避難所
茨城県,常陸大宮市,宇留野台ふれあい交流センター,茨城県常陸大宮市宇留野370-6,36.54113755503,140.4219805142,1,0,0,-,-,-,,,１次避難所
茨城県,行方市,水の科学館,茨城県行方市玉造甲1234番地,36.096554901905,140.40316328563,1,0,0,-,-,-,,,避難所
茨城県,ひたちなか市,東石川小学校,茨城県ひたちなか市東石川1-1-1,36.396500211374,140.52782150172,1,0,0,-,-,-,,,指定避難所
茨城県,ひたちなか市,阿字ケ浦小学校,茨城県ひたちなか市阿字ヶ浦町744,36.386563821376,140.6063092279,1,0,0,-,-,-,,,指定避難所
茨城県,那珂市,第一中学校,茨城県那珂市後台2547,36.436779086085,140.48957886381,1,0,0,-,-,-,,,避難場所・避難所
茨城県,常陸大宮市,下岩瀬新農村集落センター,茨城県常陸大宮市下岩瀬500,36.516482682297,140.45409822832,1,0,0,-,-,-,,,１次避難所
茨城県,守谷市,守谷小学校,茨城県守谷市本町858番地,35.946749700249,140.00114124968,1,0,0,-,-,-,,,避難場所・避難所
茨城県,桜川市,谷中公民館,茨城県桜川市上城621-1,36.361643510799,140.12648372073,1,0,0,-,-,-,35人,,一時避難所
茨城県,結城市,山川保育所,茨城県結城市今宿1167,36.232472620155,139.87533836163,1,0,0,1,0,0,7600人,,避難場所・避難所
茨城県,稲敷郡阿見町,鈴木公会堂,茨城県稲敷郡阿見町鈴木21-1,36.022956579324,140.21374956734,1,0,0,-,-,-,,,一時集合場所・避難所
茨城県,ひたちなか市,ワークプラザ勝田,茨城県ひたちなか市東石川1279番,36.398597765019,140.53755612447,1,0,0,-,-,-,,,指定避難所
茨城県,潮来市,十四番集会所,茨城県潮来市潮来5294,35.914258715805,140.58515151787,1,0,0,-,-,-,,,１次避難所
茨城県,常陸太田市,湯草公民館,茨城県常陸太田市上高倉町484,36.739110023303,140.45578502427,1,0,0,-,-,-,,,避難所
茨城県,土浦市,土浦第二中学校,茨城県土浦市東真鍋町21-7,36.09615236427,140.20831049109,1,0,0,1,1,0,,,一時避難所・洪水避難場所
茨城県,笠間市,友部第二小学校,茨城県笠間市平町1718番地93,36.336056157633,140.31146131448,1,0,0,-,-,-,,,避難場所・避難所
茨城県,かすみがうら市,千代田保健センター,茨城県かすみがうら市上土田433-2,36.151497807941,140.23858087893,-,-,-,-,-,-,,,避難場所
茨城県,つくばみらい市,板橋小学校,茨城県つくばみらい市板橋2379,35.981871858929,140.05439493376,1,0,0,-,-,-,,,避難場所・避難所
茨城県,日立市,十王交流センター,茨城県日立市十王町友部129-2,36.671892973774,140.68411580165,1,0,0,0,1,0,,,避難場所・避難所
茨城県,水戸市,見川市民センター,茨城県水戸市見川2-179-1,36.373284102374,140.43596779217,1,0,0,-,-,-,,,指定避難所
茨城県,常陸太田市,中利員農村集落センター,茨城県常陸太田市中利員町2322-1,36.573350490847,140.44785192005,1,0,0,-,-,-,,,避難所
茨城県,東茨城郡大洗町,矢場集落センター,茨城県東茨城郡大洗町成田町794番地の2,36.279461220385,140.55555485382,1,0,0,-,-,-,,,避難所
茨城県,土浦市,右籾小学校,茨城県土浦市右籾1728-3,36.045017435089,140.18580433273,1,0,0,1,0,0,,,一時避難所
茨城県,桜川市,岩瀬桜川運動公園,茨城県桜川市磯部437,36.362565476818,140.12191325773,-,-,-,-,-,-,11650人,,一時避難所
茨城県,ひたちなか市,勝田勤労青少年ホーム,茨城県ひたちなか市勝田中央14-2,36.394092254576,140.53038510725,1,0,0,-,-,-,,,避難所
茨城県,土浦市,荒川沖小学校,茨城県土浦市荒川沖東3-24-3,36.025807674959,140.16543409419,1,0,0,1,0,0,,,一時避難所
茨城県,稲敷郡河内町,第5地区共同利用施設,茨城県稲敷郡河内町片巻905,35.876194382666,140.30890868,1,0,0,-,-,-,,,避難所
茨城県,桜川市,谷貝小学校,茨城県桜川市真壁町下谷貝1146-1,36.293780827303,140.05912766888,1,0,0,-,-,-,1000人,,避難所
茨城県,高萩市,上君田生活改善センター,茨城県高萩市上君田715,36.798026507321,140.57808826592,1,0,0,1,0,0,,,避難場所・避難所
茨城県,石岡市,石岡中学校,茨城県石岡市東石岡4-2-1,36.188070343399,140.29352156616,1,0,0,-,-,-,,,避難場所・避難所
茨城県,日立市,(株)日立製作所会瀬グラウンド（日立体育館含む）,茨城県日立市会瀬町4-2,36.583463301244,140.64677026705,-,-,-,-,-,-,,,避難場所
茨城県,日立市,久慈体育館,茨城県日立市久慈町3-42-3,36.497696870635,140.61088294955,1,0,0,-,-,-,,,避難所
茨城県,日立市,河原子中学校,茨城県日立市東多賀町4-10-10,36.545351096932,140.63138125707,1,0,0,0,0,1,,,避難場所・避難所
茨城県,小美玉市,納場運動広場,茨城県小美玉市納場765-1,36.237933491144,140.28836490555,-,-,-,-,-,-,,,避難場所
茨城県,日立市,十王スポーツ広場,茨城県日立市十王町友部1936-1,36.680130691612,140.6778355709,1,0,0,0,1,0,,,避難場所・避難所
茨城県,常陸太田市,小中コミュニティセンター,茨城県常陸太田市小中町1538-2,36.749642974381,140.48655121815,1,0,0,-,-,-,,,避難所
茨城県,東茨城郡茨城町,五里峰農村集落センター,茨城県東茨城郡茨城町小幡119-5,36.269495962275,140.37344498479,1,0,0,0,1,0,,,一時避難場所・避難所
茨城県,常総市,石下中学校,茨城県常総市本石下1000-1,36.123015009667,139.97563104742,1,0,0,-,-,-,2871人,,避難所
茨城県,常陸太田市,大方公民館,茨城県常陸太田市大方町1231,36.542318881578,140.46900984823,1,0,0,-,-,-,,,避難所
茨城県,常陸太田市,旧瑞竜小学校,茨城県常陸太田市瑞竜町985,36.562788034568,140.53280109292,1,0,0,-,-,-,,,避難場所・避難所
茨城県,つくば市,桜南幼稚園,茨城県つくば市並木4-7-4,36.061452450196,140.1454795125,1,0,0,-,-,-,,,予備避難所
茨城県,常陸大宮市,大宮東部地区コミニティセンター,茨城県常陸大宮市小倉1873,36.570544899419,140.42563715288,1,0,0,-,-,-,,,２次避難所
茨城県,日立市,十王中学校,茨城県日立市十王町友部600,36.674059173917,140.67940508785,1,0,0,-,-,-,,,避難場所・避難所
茨城県,久慈郡大子町,教育支援センター,茨城県久慈郡大子町西金250番地,36.696848865078,140.38718952184,1,0,0,-,-,-,,,避難場所
茨城県,かすみがうら市,体育センター,茨城県かすみがうら市深谷3682-1,36.086181542376,140.31017381729,1,0,0,-,-,-,,,避難場所・避難所
茨城県,取手市,野々井中学校,茨城県取手市野々井1567,35.912776270156,140.03460564427,1,0,0,-,-,-,,,避難場所・第二避難所
茨城県,水戸市,赤塚市民センター,茨城県水戸市河和田3-2329-3,36.374674446034,140.40525130399,1,0,0,-,-,-,,,指定避難所
茨城県,水戸市,赤塚小学校,茨城県水戸市,36.378510860088,140.40442102116,1,0,0,-,-,-,,,指定避難所
茨城県,水戸市,見川小学校,茨城県水戸市,36.372432934018,140.43934224888,1,0,0,-,-,-,,,指定避難所
茨城県,潮来市,二丁目会館,茨城県潮来市潮来448-3,35.940889138804,140.54681169521,1,0,0,-,-,-,,,１次避難所
茨城県,常陸大宮市,辰ノ口集会所,茨城県常陸大宮市辰ノ口1251-2,36.586876062395,140.42210365826,1,0,0,-,-,-,,,１次避難所
茨城県,つくば市,真瀬保育所,茨城県つくば市真瀬582-イ,36.044825431981,140.04627311311,1,0,0,-,-,-,,,予備避難所
茨城県,那珂郡東海村,石神幼稚園,茨城県那珂郡東海村石神外宿945,36.488816728483,140.57398065397,1,0,0,-,-,-,,,避難所
茨城県,行方市,行方市立玉造小学校,茨城県行方市玉造甲4263番地,36.10505176298,140.41797584264,1,0,0,-,-,-,,,避難所
茨城県,常陸太田市,総合福祉会館,茨城県常陸太田市稲木町33,36.530574691068,140.52388330349,1,0,0,-,-,-,,,避難所
茨城県,常総市,生涯学習センター,茨城県常総市水海道天満町4684,36.014316306322,139.98670135692,1,0,0,1,0,0,1333人,,避難所
茨城県,東茨城郡城里町,真端農村集落センター,茨城県東茨城郡城里町真端367,36.439992589273,140.25082558534,1,0,0,-,-,-,,,避難所
茨城県,かすみがうら市,下稲吉小学校,茨城県かすみがうら市下稲吉1623-5,36.134577389949,140.23980648929,1,0,0,-,-,-,,,避難場所・避難所
茨城県,常陸太田市,太田公民館,茨城県常陸太田市中城町144-1,36.545128444135,140.52091930629,1,0,0,-,-,-,,,避難場所・避難所
茨城県,桜川市,西小塙一公民館,茨城県桜川市西小塙1065,36.360172731511,140.15304547102,1,0,0,-,-,-,66人,,一時避難所
茨城県,日立市,滑川市民広場,茨城県日立市滑川本町1丁目21番,36.615662614411,140.66830786807,1,0,0,0,0,1,,,避難場所・避難所
茨城県,常陸大宮市,山方公民館長田分館,茨城県常陸大宮市長田1753-1,36.60863620457,140.36547243628,1,0,0,-,-,-,,,１次避難所
茨城県,常陸大宮市,小田野宿集落センター,茨城県常陸大宮市小田野69-1,36.657800187694,140.28983295628,1,0,0,-,-,-,,,１次避難所
茨城県,稲敷郡阿見町,学校区保育所,茨城県稲敷郡阿見町中央一丁目3-2,36.028406026916,140.21440774863,1,0,0,-,-,-,,,避難所
茨城県,鹿嶋市,林新農村集落センター,茨城県鹿嶋市林728-1,36.014661767867,140.61307558894,1,0,0,-,-,-,,,一時避難場所
茨城県,久慈郡大子町,上小川小学校,茨城県久慈郡大子町頃藤5017,36.723493386326,140.37741749905,1,0,0,-,-,-,,,避難場所
茨城県,石岡市,中央公民館,茨城県石岡市柿岡5680-1,36.246175517131,140.197512162,1,0,0,-,-,-,,,避難場所・避難所
茨城県,つくば市,作岡保育所,茨城県つくば市作谷1737-1,36.171132167793,140.03468250486,1,0,0,-,-,-,,,予備避難所
茨城県,取手市,取手競輪場,茨城県取手市白山6-2,35.901481424464,140.05696794139,-,-,-,-,-,-,,,広域避難場所
茨城県,土浦市,土浦第一中学校,茨城県土浦市文京町3-8,36.08441764122,140.19448691424,1,0,0,1,0,0,,,一時避難所
茨城県,つくば市,栄小学校,茨城県つくば市金田54,36.10325827383,140.14345016559,1,0,0,-,-,-,,,指定避難所
茨城県,筑西市,大村小学校,茨城県筑西市海老ヶ島1313,36.248371453982,140.03747090066,1,0,0,-,-,-,,,指定避難所
茨城県,常陸太田市,太田市民ふれあいセンター,茨城県常陸太田市木崎一町1981-3,36.536246300825,140.52505811476,1,0,0,1,1,1,,,避難所
茨城県,守谷市,板戸井公園,茨城県守谷市薬師台四丁目3番地,35.963659023969,139.96581223829,-,-,-,-,-,-,,,避難場所
茨城県,つくば市,谷田部児童館,茨城県つくば市谷田部4715,36.035105231693,140.07268492602,1,0,0,-,-,-,,,予備避難所
茨城県,北茨城市,関本多目的研修集会所,茨城県北茨城市関本町関本上582-1,36.85882619525,140.74958975899,1,0,0,-,-,-,,,避難場所
茨城県,高萩市,秋山中学校,茨城県高萩市高萩273,36.721242855397,140.68989999652,1,0,0,1,1,0,,,避難場所・避難所
茨城県,水戸市,石川市民センター,茨城県水戸市石川2-4243,36.385649084213,140.42692951541,1,0,0,-,-,-,,,指定避難所
茨城県,結城郡八千代町,中央公民館,茨城県結城郡八千代町大字菅谷1027,36.180999025661,139.88998651041,1,0,0,-,-,-,,,避難所
茨城県,北茨城市,平潟小学校,茨城県北茨城市平潟町1077,36.85123404135,140.79006848045,1,0,0,-,-,-,,,避難場所
茨城県,潮来市,古高農村集落センター,茨城県潮来市古高3257,35.964514547157,140.56947405886,1,0,0,-,-,-,,,１次避難所
茨城県,久慈郡大子町,大沢下集会所,茨城県久慈郡大子町大沢1244,36.718389337706,140.35009162325,1,0,0,-,-,-,,,避難場所
茨城県,桜川市,まかべ幼稚園,茨城県桜川市真壁町桜井848,36.274423230476,140.11590168721,1,0,0,-,-,-,200人,,一時避難所
茨城県,那珂郡東海村,須和間区自治集会所,茨城県那珂郡東海村須和間464-1,36.446804087232,140.56127993958,1,0,0,-,-,-,,,避難所
茨城県,石岡市,国府中学校,茨城県石岡市総社2-12-1,36.185259131172,140.26849626903,1,0,0,-,-,-,,,避難場所・避難所
茨城県,鹿嶋市,鹿島まちづくりセンター,茨城県鹿嶋市城山4-7-17,35.961749943316,140.62123782856,1,0,0,-,-,-,,,避難場所
茨城県,日立市,公設地方卸売市場,茨城県日立市東滑川町5-1-1,36.618093739723,140.67750769714,-,-,-,0,0,1,,,避難場所
茨城県,高萩市,秋山生活改善センター,茨城県高萩市秋山806-1,36.718815131945,140.67742868943,1,0,0,1,1,0,,,避難場所・避難所
茨城県,水戸市,三の丸小学校,茨城県水戸市三の丸1-6-51,36.374448998288,140.47661488407,1,0,0,0,1,0,,,風水害等災害避難場所・指定避難所
茨城県,小美玉市,玉里北小学校,茨城県小美玉市栗又四ケ986,36.176430851219,140.33910393718,1,0,0,-,-,-,1160人,,避難場所・指定避難所
茨城県,東茨城郡茨城町,総合福祉センターゆうゆう館,茨城県東茨城郡茨城町,36.288414577024,140.42610233549,1,0,0,1,0,0,,,指定緊急避難場所・指定避難所
茨城県,常陸大宮市,大宮小学校,茨城県常陸大宮市北町116,36.551872166851,140.41503075443,1,0,0,-,-,-,,,２次避難所
茨城県,牛久市,城中区民会館,茨城県牛久市城中町244,35.957643621854,140.13147856376,1,0,0,-,-,-,,,１次避難場所
茨城県,東茨城郡城里町,岩船小学校,茨城県東茨城郡城里町孫根291,36.506101163338,140.34606154597,1,0,0,-,-,-,,,避難所
茨城県,高萩市,秋山南集会所,茨城県高萩市秋山2433-9,36.706466096934,140.67314053681,1,0,0,1,1,0,,,避難場所・避難所
茨城県,潮来市,大賀農村集落センター,茨城県潮来市大賀458,35.999387537099,140.54786408333,1,0,0,-,-,-,,,１次避難所
茨城県,土浦市,神立公園,茨城県土浦市北神立町地内,36.117770716334,140.2305002145,-,-,-,-,-,-,,,広域避難場所
茨城県,つくば市,吾妻中学校,茨城県つくば市天久保1-9-1,36.093398535894,140.10863952948,1,0,0,-,-,-,,,指定避難所
茨城県,鹿嶋市,大同東小学校,茨城県鹿嶋市荒井373,36.055415311831,140.61762326202,1,0,0,-,-,-,,,避難場所
茨城県,古河市,老人福祉センター,茨城県古河市北利根10,36.159318195868,139.76523759344,1,0,0,1,0,0,129人,,避難場所・避難所
茨城県,常陸太田市,南中学校,茨城県常陸太田市大里町3577,36.536747539195,140.47717603581,1,0,0,-,-,-,,,避難所
茨城県,東茨城郡茨城町,沼前小学校,茨城県東茨城郡茨城町宮ケ崎1443,36.25948236209,140.45942632341,1,0,0,1,1,0,,,指定緊急避難場所・指定避難所
茨城県,牛久市,女化西区民会館,茨城県牛久市さくら台3-28-17,35.960018833592,140.16129488361,1,0,0,-,-,-,,,１次避難場所
茨城県,潮来市,大生原公民館,茨城県潮来市大生1027-4,35.998101803741,140.55758814924,1,0,0,-,-,-,,,１次避難所・２次避難所
茨城県,日立市,暇修館,茨城県日立市大久保町4-15-1,36.553174388454,140.61821877946,1,0,0,-,-,-,,,避難場所・避難所
茨城県,土浦市,二中地区公民館,茨城県土浦市木田余1675,36.096458144965,140.21583692063,1,0,0,0,1,0,,,洪水避難場所・避難所
茨城県,坂東市,沓掛小学校,茨城県坂東市沓掛3775番地,36.101712073413,139.90032179899,1,0,0,-,-,-,,,避難場所
茨城県,古河市,さくら館,茨城県古河市久能973-1,36.16642958776,139.77266369253,1,0,0,1,0,0,119人,,避難場所・避難所
茨城県,常陸太田市,郡戸小学校,茨城県常陸太田市中野町2,36.515439069415,140.47398522782,1,0,0,-,-,-,,,避難所
茨城県,稲敷郡阿見町,三区公会堂,茨城県稲敷郡阿見町阿見1266,36.049703676565,140.21448549759,1,0,0,-,-,-,,,一時集合場所・避難所
茨城県,常陸大宮市,中組集落センター,茨城県常陸大宮市上檜沢754,36.672653347412,140.32419606773,1,0,0,-,-,-,,,１次避難所
茨城県,筑西市,下館南中学校,茨城県筑西市一本松546,36.292706706386,139.97349921592,1,0,0,-,-,-,,,指定避難所
茨城県,常陸太田市,幸久幼稚園,茨城県常陸太田市上河合町1287-2,36.506701741603,140.51393463908,1,0,0,1,0,1,,,避難場所・避難所
茨城県,高萩市,和野集会所,茨城県高萩市秋山83-1,36.730160721193,140.67528145077,1,0,0,1,1,0,,,避難場所・避難所
茨城県,常陸太田市,世矢公民館,茨城県常陸太田市亀作町359-1,36.520849748219,140.57105808343,1,0,0,-,-,-,,,避難場所・避難所
茨城県,久慈郡大子町,松沼集会所,茨城県久慈郡大子町池田2823番地2,36.769490138409,140.35890933763,1,0,0,-,-,-,,,避難場所
茨城県,猿島郡境町,中央公民館,茨城県猿島郡境町395-1,36.108131690206,139.79498303661,1,0,0,-,-,-,,,避難場所
茨城県,石岡市,瓦会小学校,茨城県石岡市瓦谷1135-2,36.270364273778,140.2054439239,1,0,0,-,-,-,,,避難場所・避難所
茨城県,那珂市,宿農村集落センター,茨城県那珂市戸3628-1,36.458596557522,140.42666116634,1,0,0,-,-,-,,,避難場所・避難所
茨城県,北茨城市,華川小学校,茨城県北茨城市華川町上小津田84,36.826226455394,140.70830260738,1,0,0,-,-,-,,,避難場所
茨城県,潮来市,江寺農村集落センター,茨城県潮来市辻1588-5,35.965869524797,140.55170895739,1,0,0,-,-,-,,,１次避難所
茨城県,牛久市,牛久南中学校,茨城県牛久市さくら台1-73-1,35.957810738451,140.15627049351,1,0,0,-,-,-,,,２次避難場所
茨城県,久慈郡大子町,大生瀬坂東集落センター,茨城県久慈郡大子町大生瀬999-1,36.794952233472,140.40960430593,1,0,0,-,-,-,,,避難場所
茨城県,鹿嶋市,大野北いきいきふれあいプラザ,茨城県鹿嶋市荒井370-1,36.055429091351,140.61686774081,1,0,0,-,-,-,,,避難場所
茨城県,那珂市,瓜連中学校,茨城県那珂市瓜連1015-3,36.500479369633,140.45566540833,1,0,0,-,-,-,,,避難場所・避難所
茨城県,桜川市,岩瀬中央児童公園,茨城県桜川市岩瀬353,36.362627299244,140.10654724797,-,-,-,-,-,-,1500人,,一時避難所
茨城県,石岡市,恋瀬小学校,茨城県石岡市小見832-1,36.297636096833,140.19101632478,1,0,0,-,-,-,,,避難場所・避難所
茨城県,潮来市,新宮農村集落センター,茨城県潮来市大山1766-38,35.963359573188,140.58008397463,1,0,0,-,-,-,,,１次避難所
茨城県,東茨城郡大洗町,磯道児童公園,茨城県東茨城郡大洗町,36.32244422926,140.58042527179,-,-,-,1,0,0,,,一時避難所・指定緊急避難場所
茨城県,古河市,第七小学校,茨城県古河市三和176-1,36.164122477749,139.70447790367,1,0,0,1,0,0,9193人,,避難場所・避難所
茨城県,坂東市,中川小学校,茨城県坂東市小山108番地,36.01794090957,139.87978898231,1,0,0,-,-,-,,,避難場所
茨城県,桜川市,曽根農村集落センター,茨城県桜川市曽根427,36.338205060573,140.14782200224,1,0,0,-,-,-,65人,,一時避難所
茨城県,常陸太田市,工芸交流センター楓,茨城県常陸太田市小島町1263-1,36.504981966021,140.48318194446,1,0,0,-,-,-,,,避難所
茨城県,行方市,行方市立津澄小学校,茨城県行方市繁昌212番地,36.068939206438,140.52376864555,1,0,0,-,-,-,,,避難所
茨城県,鹿嶋市,鹿島中学校,茨城県鹿嶋市宮中2398-1,35.977208896478,140.63915733146,1,0,0,-,-,-,,,避難場所
茨城県,常陸大宮市,小玉集落センター,茨城県常陸大宮市小玉554,36.588937266137,140.3028842224,1,0,0,-,-,-,,,１次避難所
茨城県,那珂郡東海村,村松幼稚園,茨城県那珂郡東海村村松北一丁目4-1,36.466963510483,140.57860833983,1,0,0,-,-,-,,,避難所
茨城県,牛久市,牛久市中央生涯学習センター,茨城県牛久市柏田町1606-1,35.981963100814,140.15485027382,1,0,0,-,-,-,,,２次避難場所
茨城県,北相馬郡利根町,文間小学校,茨城県北相馬郡利根町大房228,35.874733682512,140.17698501219,1,0,0,-,-,-,703人,,避難場所
茨城県,土浦市,上大津公民館,茨城県土浦市手野町3532,36.098519081522,140.24338925667,1,0,0,0,1,0,,,避難所
茨城県,東茨城郡大洗町,下宿集会所,茨城県東茨城郡大洗町成田町126,36.283899437152,140.5548935338,1,0,0,-,-,-,,,避難所
茨城県,ひたちなか市,1中地区コミュニティセンター,茨城県ひたちなか市長堀町3-4-1,36.388051580645,140.54233663474,1,0,0,-,-,-,,,指定避難所
茨城県,行方市,行方市麻生公民館,茨城県行方市麻生1221番地,35.987726530855,140.48787785819,1,0,0,-,-,-,,,避難所
茨城県,つくば市,栄児童館,茨城県つくば市横町127-4,36.105038616302,140.14378895035,1,0,0,-,-,-,,,予備避難所
茨城県,那珂郡東海村,百塚区自治集会所,茨城県那珂郡東海村東海一丁目19-9,36.471887845753,140.5704836444,1,0,0,-,-,-,,,避難所
茨城県,常陸大宮市,御前山中学校体育館,茨城県常陸大宮市野口4088,36.565851066196,140.30560154909,1,0,0,-,-,-,,,２次避難所
茨城県,常陸太田市,薬谷公民館,茨城県常陸太田市薬谷町546-2,36.53110667578,140.47831217846,1,0,0,-,-,-,,,避難所
茨城県,高萩市,肥前町集会所,茨城県高萩市肥前町2-1-2,36.718640975261,140.72005639797,1,0,0,1,1,0,,,避難場所・避難所
茨城県,桜川市,西飯岡農村集落センター,茨城県桜川市西飯岡660-3,36.365897392125,140.07334146791,1,0,0,-,-,-,99人,,一時避難所
茨城県,つくば市,吉沼小学校,茨城県つくば市吉沼1010,36.144612842274,140.01557928569,1,0,0,-,-,-,,,指定避難所
茨城県,常総市,菅原小学校,茨城県常総市大生郷町1615,36.06460130445,139.95109075845,1,0,0,-,-,-,1095人,,避難所
茨城県,東茨城郡城里町,県立常北高等学校,茨城県東茨城郡城里町春園1634,36.463433348805,140.25885365965,1,0,0,-,-,-,,,避難所
茨城県,常陸大宮市,第二中学校,茨城県常陸大宮市石沢1555,36.535304889177,140.41615074853,1,0,0,-,-,-,,,２次避難所
茨城県,笠間市,岩間第三小学校,茨城県笠間市市野谷1542番地19,36.284636653385,140.28452856103,1,0,0,-,-,-,,,避難場所・避難所
茨城県,常陸大宮市,若林新農村集落センター,茨城県常陸大宮市若林1388-1,36.550205222662,140.39168878864,1,0,0,-,-,-,,,１次避難所
茨城県,潮来市,津知小学校,茨城県潮来市辻829-1,35.953768233567,140.55309204626,1,0,0,-,-,-,,,２次避難所
茨城県,つくば市,松代小学校,茨城県つくば市松代3-3-1,36.069865166774,140.10228193743,1,0,0,-,-,-,,,指定避難所
茨城県,久慈郡大子町,オートキャンプ場,茨城県久慈郡大子町矢田15-1,36.796117171499,140.34653456578,1,0,0,-,-,-,,,避難場所
茨城県,那珂市,木崎小学校,茨城県那珂市門部2765,36.488539647334,140.48276340623,1,0,0,-,-,-,,,避難場所・避難所
茨城県,稲敷郡阿見町,大砂公民館,茨城県稲敷郡阿見町吉原3596-28,35.993048857656,140.21198944839,1,0,0,-,-,-,,,一時集合場所・避難所
茨城県,那珂郡東海村,宿区自治集会所,茨城県那珂郡東海村村松4-110,36.449340763545,140.59605736398,1,0,0,-,-,-,,,避難所
茨城県,常陸太田市,東染一区公民館,茨城県常陸太田市東染町617,36.64887093745,140.4960759467,1,0,0,-,-,-,,,避難所
茨城県,稲敷郡阿見町,塙公会堂,茨城県稲敷郡阿見町塙261-4,36.006521183989,140.25967865611,-,-,-,-,-,-,,,一時集合場所
茨城県,常総市,水海道西中学校,茨城県常総市豊岡町乙1005-1,36.027408938336,139.9681242636,1,0,0,1,0,0,1935人,,避難所
茨城県,石岡市,片野集会所,茨城県石岡市片野157,36.222315009514,140.20307873077,1,0,0,-,-,-,,,避難場所・避難所
茨城県,稲敷郡阿見町,福田農村集落センター,茨城県稲敷郡阿見町福田937-1,35.979484038176,140.20633470006,1,0,0,-,-,-,,,一時集合場所・避難所
茨城県,筑西市,長讃小学校,茨城県筑西市宮後1480,36.262856813607,140.05297138978,1,0,0,-,-,-,,,指定避難所
茨城県,取手市,高井小学校,茨城県取手市下高井1745,35.924372666257,140.04415669239,1,0,0,-,-,-,,,避難場所・第一避難所
茨城県,行方市,行方市八木蒔地区学習センター,茨城県行方市八木蒔328番地2,36.13112558623,140.39022420221,1,0,0,-,-,-,,,避難所
茨城県,ひたちなか市,阿字ケ浦中学校,茨城県ひたちなか市阿字ヶ浦町610,36.387936005545,140.60701202869,1,0,0,-,-,-,,,指定避難所
茨城県,那珂市,中里公民館,茨城県那珂市中里583-5,36.48914453768,140.45297718249,1,0,0,-,-,-,,,避難場所・避難所
茨城県,かすみがうら市,千代田中学校,茨城県かすみがうら市上佐谷990,36.161515852387,140.22339304546,1,0,0,-,-,-,,,避難場所・避難所
茨城県,潮来市,新町集会所,茨城県潮来市,35.945001452551,140.55730734327,1,0,0,-,-,-,,,１次避難所
茨城県,ひたちなか市,那珂湊保健相談センター,茨城県ひたちなか市和田町二丁目11番21号,36.343958166024,140.6005870271,1,0,0,-,-,-,,,指定避難所
茨城県,猿島郡五霞町,五霞町中央公民館,茨城県猿島郡五霞町小福田148-1,36.117134695188,139.74442071297,1,0,0,-,-,-,1720人,,避難場所・指定避難所
茨城県,笠間市,武道館,茨城県笠間市石井2068番地1,36.384859188856,140.24588579752,1,0,0,-,-,-,,,避難場所・避難所
茨城県,常陸太田市,竹合新農村集落センター,茨城県常陸太田市竹合町641,36.54801798416,140.45967147091,1,0,0,-,-,-,,,避難所
茨城県,桜川市,本木分館,茨城県桜川市本木634-19,36.331255306512,140.10715891024,1,0,0,-,-,-,70人,,一時避難所
茨城県,結城市,結城第一高等学校,茨城県結城市結城1076,36.304694394121,139.88192962015,1,0,0,1,0,0,9500人,,避難場所・避難所
茨城県,那珂郡東海村,豊岡区自治集会所,茨城県那珂郡東海村豊岡560-1,36.478720673706,140.6022758051,1,0,0,-,-,-,,,避難所
茨城県,常陸大宮市,三美公民館,茨城県常陸大宮市三美386-1,36.547029339047,140.35036243819,1,0,0,-,-,-,,,１次避難所
茨城県,土浦市,土浦第二高等学校,茨城県土浦市立田町9-6,36.088044966398,140.19475346311,1,0,0,1,0,0,,,一時避難所
茨城県,東茨城郡大洗町,上宿集会所,茨城県東茨城郡大洗町成田町16番地,36.287534994164,140.55498219801,1,0,0,-,-,-,,,避難所
茨城県,小美玉市,小川文化センター,茨城県小美玉市小川225,36.179656001748,140.3649464884,1,0,0,-,-,-,2345人,,指定避難所
茨城県,日立市,本郷集会所,茨城県日立市十王町伊師本郷9-2,36.675206662783,140.68982062228,1,0,0,-,-,-,,,避難所
茨城県,高萩市,文化会館,茨城県高萩市高萩6,36.711855238553,140.7075016487,1,0,0,1,1,0,,,避難場所・避難所
茨城県,稲敷郡河内町,第1地区共同利用施設,茨城県稲敷郡河内町幸谷64-2,35.886723160313,140.22359186693,1,0,0,-,-,-,,,避難所
茨城県,稲敷郡阿見町,立ノ越公会堂,茨城県稲敷郡阿見町阿見1546,36.046945560892,140.21224381854,-,-,-,-,-,-,,,一時集合場所
茨城県,水戸市,渡里小学校,茨城県水戸市,36.405357172219,140.42739313305,1,0,0,-,-,-,,,指定避難所
茨城県,鹿嶋市,大同西小学校,茨城県鹿嶋市武井264,36.037447190879,140.57869510055,1,0,0,-,-,-,,,避難場所
茨城県,牛久市,上池台会館,茨城県牛久市岡見町2075-3,35.986929076107,140.16759877539,1,0,0,-,-,-,,,１次避難場所
茨城県,高萩市,サンスポーツランド高萩,茨城県高萩市下手綱2037-2,36.727600469259,140.70796282111,1,0,0,1,1,1,,,避難場所・津波避難場所・避難所
茨城県,ひたちなか市,津田公民館,茨城県ひたちなか市津田2732,36.406381678179,140.49574046183,1,0,0,-,-,-,,,指定避難所
茨城県,牛久市,牛久小学校,茨城県牛久市牛久町2619,35.965540066941,140.13286705587,1,0,0,-,-,-,,,１次避難場所・２次避難場所
茨城県,桜川市,猿田公民館,茨城県桜川市猿田194-1,36.332064053052,140.14865546333,1,0,0,-,-,-,19人,,一時避難所
茨城県,潮来市,日の出8丁目集会所,茨城県潮来市日の出8-24,35.933107235859,140.5632880546,1,0,0,-,-,-,,,１次避難所
茨城県,牛久市,牛久第三中学校,茨城県牛久市城中町1830-1,35.963895638394,140.12768989413,1,0,0,-,-,-,,,２次避難場所
茨城県,常陸大宮市,油河内農村集落センター,茨城県常陸大宮市油河内199-1,36.618743438369,140.26907940273,1,0,0,-,-,-,,,１次避難所
茨城県,鹿嶋市,豊郷まちづくりセンター,茨城県鹿嶋市須賀1692-1,35.985437947762,140.61159057613,1,0,0,-,-,-,,,避難場所
茨城県,牛久市,新地公会堂,茨城県牛久市新地町194,35.961854032988,140.12178209121,1,0,0,-,-,-,,,１次避難場所
茨城県,行方市,行方市立玉造西小学校,茨城県行方市浜1360番地,36.14266601868,140.38547794819,1,0,0,-,-,-,,,避難所
茨城県,那珂郡東海村,東海南中学校,茨城県那珂郡東海村船場768,36.460330372479,140.56028501562,1,0,0,1,0,1,,,避難所・指定緊急避難場所
茨城県,久慈郡大子町,大子西中学校,茨城県久慈郡大子町芦野倉733,36.793861464711,140.31522871602,1,0,0,-,-,-,,,避難場所
茨城県,笠間市,県立笠間高等学校,茨城県笠間市笠間1668番地,36.380043570977,140.24681140431,1,0,0,-,-,-,,,避難場所・避難所
茨城県,潮来市,八丁目会館,茨城県潮来市潮来810,35.942808067688,140.55536854712,1,0,0,-,-,-,,,１次避難所
茨城県,牛久市,牛久市総合福祉センター,茨城県牛久市女化町859-3,35.959288694844,140.18442862633,1,0,0,-,-,-,,,２次避難場所
茨城県,猿島郡境町,勤労青少年ホーム,茨城県猿島郡境町大字長井戸1689-1,36.120821759505,139.79302176742,1,0,0,-,-,-,,,避難場所
茨城県,常陸太田市,西河内市民ふれあいセンター,茨城県常陸太田市西河内上町1435,36.633080893227,140.52104765784,1,0,0,-,-,-,,,避難場所・避難所
茨城県,行方市,行方市小高地区館,茨城県行方市小高925番地,36.032787234538,140.47115320824,1,0,0,-,-,-,,,避難所
茨城県,牛久市,むつみ会館,茨城県牛久市上柏田1-19-2,35.994030675043,140.1518473594,1,0,0,-,-,-,,,１次避難場所
茨城県,古河市,上大野小学校,茨城県古河市上大野1425,36.20452812064,139.78148107723,1,0,0,1,0,0,2535人,,避難場所・避難所
茨城県,小美玉市,野田小学校,茨城県小美玉市野田70,36.188916348604,140.37645074763,1,0,0,-,-,-,1253人,,避難場所・指定避難所
茨城県,日立市,日立商業高等学校,茨城県日立市久慈町6-20-1,36.504721353933,140.6123243291,1,0,0,0,0,1,,,避難場所・避難所
茨城県,日立市,水木小学校,茨城県日立市水木町1-6-1,36.522020167219,140.63094109807,1,0,0,0,0,1,,,避難場所・避難所
茨城県,牛久市,田宮区民会館,茨城県牛久市田宮町1084-3,35.985029271063,140.13745776313,1,0,0,-,-,-,,,１次避難場所
茨城県,つくば市,二の宮保育所,茨城県つくば市二の宮4-9-1,36.060510821201,140.11691458244,1,0,0,-,-,-,,,予備避難所
茨城県,ひたちなか市,金上ふれあいセンター,茨城県ひたちなか市金上562-1,36.371367293484,140.53996509419,1,0,0,-,-,-,,,指定避難所
茨城県,常陸大宮市,長沢農村集落センター,茨城県常陸大宮市長沢1380-5,36.624614837611,140.35112597733,1,0,0,-,-,-,,,１次避難所
茨城県,牛久市,上太田会館,茨城県牛久市上太田町573,35.963260538244,140.18748107574,1,0,0,-,-,-,,,１次避難場所
茨城県,小美玉市,美野里公民館,茨城県小美玉市堅倉835,36.24182815683,140.33453994824,1,0,0,-,-,-,307人,,指定避難所
茨城県,稲敷郡美浦村,木原地区多目的集会施設,茨城県稲敷郡美浦村木原1539,36.020389561701,140.29540597062,1,0,0,-,-,-,,,避難所
茨城県,日立市,久慈川日立南交流センター,茨城県日立市大和田町2、208,36.508232126418,140.58541826519,1,0,0,0,0,1,,,避難場所・避難所
茨城県,行方市,行方市立大和第二小学校,茨城県行方市四鹿367番地,36.040437334168,140.50800770285,1,0,0,-,-,-,,,避難所
茨城県,潮来市,上戸川公民館,茨城県潮来市上戸2046,35.947490635724,140.53479657962,1,0,0,-,-,-,,,１次避難所
茨城県,那珂郡東海村,内宿1区自治集会所,茨城県那珂郡東海村石神内宿2355-5,36.477584384604,140.56549196463,1,0,0,-,-,-,,,避難所
茨城県,那珂郡東海村,舟石川幼稚園,茨城県那珂郡東海村舟石川453,36.46430756102,140.55570193139,1,0,0,-,-,-,,,避難所
茨城県,那珂市,戸多小学校,茨城県那珂市戸2297,36.469717841063,140.42354731799,1,0,0,-,-,-,,,避難場所・避難所
茨城県,鹿嶋市,武井釜新農村集落センター,茨城県鹿嶋市武井釜309,36.065780370305,140.61557289265,1,0,0,-,-,-,,,一時避難場所
茨城県,常陸太田市,機初小学校,茨城県常陸太田市幡町929,36.545332217547,140.54014838968,1,0,0,-,-,-,,,避難場所・避難所
茨城県,久慈郡大子町,田野沢公会堂,茨城県久慈郡大子町田野沢395-1,36.791177152716,140.28044533283,1,0,0,-,-,-,,,避難場所
茨城県,桜川市,岩瀬福祉センター,茨城県桜川市鍬田612,36.361784433439,140.09991401192,1,0,0,-,-,-,1141人,,避難所
茨城県,東茨城郡大洗町,桜道公園,茨城県東茨城郡大洗町,36.316347861933,140.56111739522,1,0,0,-,-,-,,,避難所
茨城県,潮来市,五丁目水郷クラブ,茨城県潮来市,35.940850114772,140.55223514541,1,0,0,-,-,-,,,１次避難所
茨城県,常陸太田市,生涯学習センター,茨城県常陸太田市中城町3280,36.544795381499,140.52646331239,1,0,0,-,-,-,,,避難所
茨城県,那珂市,額田公民館,茨城県那珂市額田北郷612,36.491031360215,140.51824615131,1,0,0,-,-,-,,,避難場所・避難所
茨城県,行方市,玉造工業高等学校,茨城県行方市芹沢1552番地,36.126777803515,140.44115082082,1,0,0,-,-,-,,,避難所
茨城県,高萩市,市民体育館,茨城県高萩市高萩17-4,36.712699643871,140.70751274957,1,0,0,1,1,0,,,避難場所・避難所
茨城県,北茨城市,防災コミュニティセンター,茨城県北茨城市磯原町磯原198-8,36.795720196335,140.75610705615,1,0,0,1,1,0,,,避難場所
茨城県,北相馬郡利根町,利根町生涯学習センター,茨城県北相馬郡利根町中谷967,35.861672178994,140.1803418579,1,0,0,-,-,-,221人,,避難場所
茨城県,潮来市,牛堀農業転作推進センター,茨城県潮来市牛堀289番地3,35.958611122324,140.51592071228,1,0,0,-,-,-,,,１次避難所
茨城県,つくばみらい市,伊奈東中学校,茨城県つくばみらい市南太田254,35.972020270976,140.05920866533,1,0,0,-,-,-,,,避難場所・避難所
茨城県,常陸大宮市,山方公民館久隆分館,茨城県常陸大宮市久隆387-2,36.698256087615,140.34339870775,1,0,0,-,-,-,,,１次避難所
茨城県,鹿嶋市,奈良毛新農村集落センター,茨城県鹿嶋市奈良毛373,36.011097959817,140.59198388462,1,0,0,-,-,-,,,一時避難場所
茨城県,那珂市,本米崎小学校,茨城県那珂市本米崎2706,36.48305277945,140.54822628237,1,0,0,-,-,-,,,避難場所・避難所
茨城県,つくば市,二の宮幼稚園,茨城県つくば市二の宮4-9-2,36.060686291795,140.11782623123,1,0,0,-,-,-,,,予備避難所
茨城県,行方市,麻生東小学校,茨城県行方市蔵川549,36.033891243084,140.52886969486,1,0,0,-,-,-,,,避難所
茨城県,つくば市,茎崎第二小学校,茨城県つくば市上岩崎1076,35.978610285094,140.10198302106,1,0,0,-,-,-,,,指定避難所
茨城県,久慈郡大子町,生瀬コミュニティセンター,茨城県久慈郡大子町小生瀬4016番地2,36.767939418931,140.42825280256,1,0,0,-,-,-,,,避難場所
茨城県,鹿嶋市,棚木農村集落センター,茨城県鹿嶋市棚木370,36.026626792576,140.5999961715,1,0,0,-,-,-,,,一時避難場所
茨城県,猿島郡境町,境高等学校,茨城県猿島郡境町175,36.114481223776,139.80126559389,1,0,0,-,-,-,,,避難場所
茨城県,那珂市,瓜連小学校,茨城県那珂市瓜連1296,36.500465212254,140.44423591599,1,0,0,-,-,-,,,避難場所・避難所
茨城県,稲敷郡阿見町,一区南公会堂,茨城県稲敷郡阿見町阿見4666-619,36.032932594903,140.1893235519,1,0,0,-,-,-,,,一時集合場所・避難所
茨城県,坂東市,新町コミュニティセンターホロニック,茨城県坂東市岩井4624番地8,36.045749611426,139.88708977093,1,0,0,-,-,-,,,避難場所
茨城県,鹿嶋市,中農村集落センター,茨城県鹿嶋市中2381-2,36.018016671842,140.59890229943,1,0,0,-,-,-,,,一時避難場所
茨城県,常陸太田市,坂下農村集落センター,茨城県常陸太田市上高倉町1458-1,36.723336781319,140.46079905055,1,0,0,-,-,-,,,避難所
茨城県,久慈郡大子町,南田気公会堂,茨城県久慈郡大子町南田気638,36.75943585957,140.37246916491,1,0,0,-,-,-,,,避難場所
茨城県,桜川市,上小幡児童館,茨城県桜川市真壁町上小幡1154,36.305074425619,140.11384030697,1,0,0,-,-,-,50人,,一時避難所
茨城県,稲敷郡阿見町,一区北公会堂,茨城県稲敷郡阿見町阿見4666-2538,36.040568096116,140.194714859,1,0,0,-,-,-,,,一時集合場所・避難所
茨城県,水戸市,上中妻小学校,茨城県水戸市,36.383032136722,140.39234334137,1,0,0,-,-,-,,,指定避難所
茨城県,かすみがうら市,農村環境改善センター,茨城県かすみがうら市坂934-1,36.07449537778,140.37694660753,-,-,-,-,-,-,,,避難場所
茨城県,ひたちなか市,那珂湊公民館,茨城県ひたちなか市鍜治屋窪3566,36.352740142603,140.59248376819,1,0,0,-,-,-,,,指定避難所
茨城県,つくば市,県立竹園高等学校,茨城県つくば市竹園3-9-1,36.083052222923,140.12540811748,1,0,0,-,-,-,,,予備避難所
茨城県,桜川市,坂戸幼稚園,茨城県桜川市西飯岡558-1,36.364708640257,140.07742157635,1,0,0,-,-,-,59人,,避難所
茨城県,つくば市,二の宮児童館,茨城県つくば市二の宮4-9-2,36.060508018143,140.11737575674,1,0,0,-,-,-,,,予備避難所
茨城県,常陸太田市,旧佐都小学校,茨城県常陸太田市茅根町369,36.578017071258,140.54359132472,1,0,0,-,-,-,,,避難場所・避難所
茨城県,牛久市,大和田公会堂,茨城県牛久市久野町432-1,35.959653606693,140.23692372295,1,0,0,-,-,-,,,１次避難場所
茨城県,鹿嶋市,浜津賀公民館,茨城県鹿嶋市浜津賀375-4,36.062264283031,140.61557028627,1,0,0,-,-,-,,,一時避難場所
茨城県,稲敷郡阿見町,舟島ふれあいセンター,茨城県稲敷郡阿見町南平台1丁目31-6,36.022220128259,140.25376534268,1,0,0,1,1,0,,,緊急避難場所・避難所
茨城県,水戸市,上大野市民センター,茨城県水戸市吉沼町1765-3,36.363645312698,140.52063377434,1,0,0,-,-,-,,,指定避難所
茨城県,常陸大宮市,大宮公民館大場分館,茨城県常陸大宮市小野219-1,36.534114968822,140.3664807952,1,0,0,-,-,-,,,１次避難所
茨城県,東茨城郡茨城町,上雨谷農村集落センター,茨城県東茨城郡茨城町上雨谷781-1,36.245526780604,140.39068263885,1,0,0,0,1,0,,,一時避難場所・避難所
茨城県,日立市,会瀬交流センター,茨城県日立市会瀬町1-1-18,36.580000134855,140.65904134834,1,0,0,-,-,-,,,避難所
茨城県,坂東市,莚打コミュニティセンター芽吹の郷,茨城県坂東市莚打711番地1,35.994357403004,139.89226648518,1,0,0,-,-,-,,,避難場所
茨城県,桜川市,高幡公民館,茨城県桜川市高幡344,36.344982197159,140.15395458927,1,0,0,-,-,-,19人,,一時避難所
茨城県,高萩市,島名多目的研修会館,茨城県高萩市島名1606,36.707808197587,140.69086394827,1,0,0,1,1,0,,,避難場所・避難所
茨城県,稲敷郡阿見町,阿見台公民館,茨城県稲敷郡阿見町阿見4819-10,36.033238651203,140.20867214481,1,0,0,-,-,-,,,一時集合場所・避難所
茨城県,高萩市,石滝上ノ台集会所,茨城県高萩市石滝2604-3,36.69719024155,140.70634076172,1,0,0,1,1,0,,,避難場所・避難所
茨城県,常陸太田市,太田第一高等学校,茨城県常陸太田市栄町58,36.549108498799,140.52160521712,1,0,0,-,-,-,,,避難所
茨城県,結城郡八千代町,安静小学校,茨城県結城郡八千代町大字蕗田820,36.151465938744,139.89607355129,1,0,0,-,-,-,,,避難場所・避難所
茨城県,桜川市,岩瀬中央児童館,茨城県桜川市岩瀬353,36.362601207307,140.10673273101,1,0,0,-,-,-,53人,,一時避難所
茨城県,常陸大宮市,小舟上集落センター,茨城県常陸大宮市小舟510-2,36.631093012542,140.27502129609,1,0,0,-,-,-,,,１次避難所
茨城県,土浦市,上大津東小学校,茨城県土浦市沖宿町2489,36.080291765493,140.2514692569,1,0,0,1,1,0,,,一時避難所・広域避難場所
茨城県,常陸太田市,大里コミュニティセンター,茨城県常陸太田市大里町4014-1,36.540299659931,140.47977843576,1,0,0,-,-,-,,,避難所
茨城県,稲敷郡阿見町,下島津農村集落センター,茨城県稲敷郡阿見町島津2039-1,36.028759883112,140.26406404174,1,0,0,-,-,-,,,一時集合場所・避難所
茨城県,石岡市,石岡第一高等学校,茨城県石岡市石岡1-9,36.191189123882,140.28387496365,1,0,0,-,-,-,,,避難場所・避難所
茨城県,常陸太田市,西小沢児童クラブ,茨城県常陸太田市内田町1096,36.514281813587,140.54711345942,-,-,-,1,0,1,,,避難場所
茨城県,猿島郡境町,猿島小学校,茨城県猿島郡境町大字大歩245,36.106948167329,139.81929728566,1,0,0,-,-,-,,,避難場所
茨城県,常陸大宮市,諸沢二区農村集落センター,茨城県常陸大宮市諸沢785-2,36.648494105438,140.41427767095,1,0,0,-,-,-,,,１次避難所
茨城県,常陸大宮市,御前山総合運動公園,茨城県常陸大宮市野口3223、3195,36.561947203538,140.31398963283,-,-,-,-,-,-,,,２次避難場所
茨城県,常陸大宮市,宿里ふるさとコミュニティセンター,茨城県常陸大宮市下檜沢3323-1,36.646920541836,140.34136794028,1,0,0,-,-,-,,,１次避難所
茨城県,久慈郡大子町,西保育所,茨城県久慈郡大子町芦野倉401,36.788153958958,140.31900909466,1,0,0,-,-,-,,,避難場所
茨城県,鹿嶋市,県立鹿島高等学校,茨城県鹿嶋市城山2-2-19,35.965488333527,140.62246530686,1,0,0,-,-,-,,,一時避難場所
茨城県,久慈郡大子町,上金沢集会所,茨城県久慈郡大子町上金沢412番地1,36.777812059653,140.27543780423,1,0,0,-,-,-,,,避難場所
茨城県,水戸市,稲荷第二小学校,茨城県水戸市百合が丘町997-204,36.344863978396,140.50999616646,1,0,0,0,1,0,,,風水害等災害避難場所・指定避難所
茨城県,石岡市,園部小学校,茨城県石岡市宮ヶ崎6,36.259683709727,140.25112940138,1,0,0,-,-,-,,,避難場所・避難所
茨城県,土浦市,土浦小学校,茨城県土浦市大手町13-32,36.083384569246,140.19748672873,-,-,-,1,0,0,,,一時避難場所
茨城県,つくばみらい市,伊奈第3保育所,茨城県つくばみらい市長渡呂新田715,35.952413704671,140.0246266952,-,-,-,-,-,-,,,避難場所
茨城県,取手市,県南総合防災センター,茨城県取手市椚木103,35.930420724511,140.10036571258,-,-,-,-,-,-,,,広域避難場所
茨城県,小美玉市,高崎集落センター,茨城県小美玉市高崎884-1,36.157043564979,140.32232250006,1,0,0,-,-,-,153人,,指定避難所
茨城県,常陸太田市,天下野1区農村集落センター,茨城県常陸太田市天下野町7368,36.648770512768,140.48018555234,1,0,0,-,-,-,,,避難所
茨城県,古河市,仁連小学校,茨城県古河市仁連607,36.182381811024,139.80867366243,1,0,0,1,0,0,7531人,,避難場所・避難所
茨城県,潮来市,福島区コミュニティセンター,茨城県潮来市福島3318-1,35.931736107022,140.59046106329,1,0,0,-,-,-,,,１次避難所
茨城県,常陸大宮市,山方高齢者コミニュティセンター,茨城県常陸大宮市野上2111-1,36.607858746794,140.38637894154,1,0,0,-,-,-,,,２次避難所
茨城県,常陸大宮市,小田野下郷営農改善センター,茨城県常陸大宮市小田野2432-1,36.666294389468,140.27640319777,1,0,0,-,-,-,,,１次避難所
茨城県,久慈郡大子町,ルネサンス高等学校,茨城県久慈郡大子町浅川1253,36.801360932033,140.33404090068,1,0,0,-,-,-,,,避難場所
茨城県,古河市,コミュニティセンター三和,茨城県古河市三和176-2,36.163306039277,139.70526953525,1,0,0,1,0,0,125人,,避難所
茨城県,つくば市,高崎中学校,茨城県つくば市高崎1730,36.005635259643,140.12437540228,1,0,0,-,-,-,,,指定避難所
茨城県,稲敷郡阿見町,福祉センターまほろば,茨城県稲敷郡阿見町廻戸372,36.042882470887,140.22312364961,1,0,0,-,-,-,,,避難所
茨城県,ひたちなか市,三反田小学校,茨城県ひたちなか市三反田3065,36.364627129795,140.55540259206,1,0,0,-,-,-,,,指定避難所
茨城県,常陸大宮市,御前山トレーニングセンター,茨城県常陸大宮市野口3195,36.561948903329,140.31398713295,1,0,0,-,-,-,,,２次避難所
茨城県,つくば市,谷田部東中学校,茨城県つくば市東2-25-1,36.053139611744,140.13095551709,1,0,0,-,-,-,,,指定避難所
茨城県,常陸大宮市,花立自然公園,茨城県常陸大宮市高部4611-1,36.652259940863,140.28588630402,-,-,-,-,-,-,,,２次避難場所
茨城県,久慈郡大子町,黒沢中学校,茨城県久慈郡大子町上郷2601,36.838893034664,140.34829051072,1,0,0,-,-,-,,,避難場所
茨城県,久慈郡大子町,前冥賀集会所,茨城県久慈郡大子町冥賀245-1,36.802577876266,140.35658892707,1,0,0,-,-,-,,,避難場所
茨城県,東茨城郡茨城町,明光中学校,茨城県東茨城郡茨城町谷田部510,36.290517279958,140.44580101211,1,0,0,1,1,0,,,指定緊急避難場所・指定避難所
茨城県,那珂郡東海村,百塚保育所,茨城県那珂郡東海村豊岡1831-2,36.473151799579,140.58086643324,1,0,0,-,-,-,,,避難所
茨城県,取手市,藤代中学校,茨城県取手市椚木1343,35.924737805841,140.09188896039,1,0,0,0,1,0,,,避難場所・水害時緊急避難場所
茨城県,常総市,石下紫峰高校,茨城県常総市新石下1192-3,36.10719240649,139.98238389627,1,0,0,-,-,-,4722人,,避難所
茨城県,桜川市,大和中央公民館,茨城県桜川市羽田1028-1,36.326730330229,140.08977595262,1,0,0,-,-,-,300人,,避難所
茨城県,東茨城郡城里町,七会東小学校校庭,茨城県東茨城郡城里町塩子2682,36.486021891624,140.28688699247,1,0,0,-,-,-,,,避難所
茨城県,守谷市,栄町公園,茨城県守谷市中央二丁目6番地,35.953024813431,139.99215034503,-,-,-,-,-,-,,,避難場所
茨城県,常陸大宮市,山方南小学校・体育館,茨城県常陸大宮市野上1067,36.60773962619,140.38908977084,1,0,0,-,-,-,,,２次避難所
茨城県,つくば市,県立つくば工科高等学校,茨城県つくば市谷田部1818,36.024509087201,140.07494179657,1,0,0,-,-,-,,,予備避難所
茨城県,水戸市,吉沢小学校,茨城県水戸市,36.334412339284,140.46207003693,1,0,0,-,-,-,,,指定避難所
茨城県,常陸太田市,幸久公民館,茨城県常陸太田市上河合町1334-3,36.508721372925,140.51597879436,1,0,0,1,0,1,,,避難場所・避難所
茨城県,東茨城郡大洗町,大貫小学校,茨城県東茨城郡大洗町,36.310838358916,140.56264150094,-,-,-,-,-,-,,,指定緊急避難場所・指定避難所
茨城県,久慈郡大子町,佐原ふれあいセンター,茨城県久慈郡大子町左貫3224番地1,36.824073505079,140.28411612214,1,0,0,-,-,-,,,避難場所
茨城県,常陸太田市,和久農村集落センター,茨城県常陸太田市和久町386,36.609744563952,140.48337561808,1,0,0,-,-,-,,,避難所
茨城県,潮来市,潮来第二中学校,茨城県潮来市新宮1868-1,35.961926586379,140.58343079989,1,0,0,-,-,-,,,２次避難所
茨城県,つくば市,筑波総合体育館,茨城県つくば市北条1477-1,36.173945186433,140.10347601435,1,0,0,-,-,-,,,予備避難所
茨城県,土浦市,中村小学校,茨城県土浦市中村南5-29-5,36.042686077154,140.16005932413,1,0,0,1,0,0,,,一時避難所
茨城県,行方市,行方市立大和第一小学校,茨城県行方市小牧140番地,36.045506331948,140.53123273915,1,0,0,-,-,-,,,避難所
茨城県,高萩市,山手集落センター,茨城県高萩市高萩460-3,36.722834123731,140.67799244374,1,0,0,1,1,0,,,避難場所・避難所
茨城県,古河市,中田公民館,茨城県古河市中田新田135-1,36.155134924644,139.71363023292,1,0,0,1,0,0,230人,,避難所
茨城県,常陸大宮市,石沢公民館,茨城県常陸大宮市石沢1158-2,36.535790774623,140.40772374637,1,0,0,-,-,-,,,１次避難所
茨城県,稲敷郡美浦村,大谷小学校,茨城県稲敷郡美浦村興津366,35.994748713604,140.31034965767,1,0,0,-,-,-,,,避難所・広域避難場所
茨城県,常総市,水海道中学校,茨城県常総市小山戸町61,36.035008365676,139.9862915561,1,0,0,1,0,0,2006人,,避難所
茨城県,つくば市,竹園東児童館,茨城県つくば市竹園3-18-1,36.080569830163,140.12500073539,1,0,0,-,-,-,,,予備避難所
茨城県,つくば市,茎崎第三小学校,茨城県つくば市小茎798-1,35.993958786515,140.10997102227,1,0,0,-,-,-,,,指定避難所
茨城県,かすみがうら市,わかぐり保育所,茨城県かすみがうら市下稲吉519-2,36.149653862007,140.24584400334,-,-,-,-,-,-,,,避難場所
茨城県,東茨城郡大洗町,明神町児童公園,茨城県東茨城郡大洗町,36.311946590427,140.58384321592,-,-,-,-,-,-,,,一時避難所・指定緊急避難場所
茨城県,日立市,諏訪小学校,茨城県日立市諏訪町3-10-1,36.570017149855,140.62400644697,1,0,0,-,-,-,,,避難場所・避難所
茨城県,水戸市,寿市民センター,茨城県水戸市平須町1636,36.328295433693,140.42841788776,1,0,0,-,-,-,,,指定避難所
茨城県,取手市,小堀集会所,茨城県取手市小堀3894-1,35.879915650247,140.07410332986,-,-,-,-,-,-,,,避難場所
茨城県,日立市,城の丘集会所,茨城県日立市十王町城の丘1-20,36.669323438297,140.67895096145,1,0,0,-,-,-,,,避難所
茨城県,潮来市,西区農村集落センター,茨城県潮来市延方西2546-5,35.954244174544,140.58377254972,1,0,0,-,-,-,,,１次避難所
茨城県,久慈郡大子町,小生瀬保育所,茨城県久慈郡大子町小生瀬4045,36.768333778652,140.4283666748,1,0,0,-,-,-,,,避難場所
茨城県,笠間市,東小学校,茨城県笠間市大橋1713番地1,36.418526523071,140.3255183148,1,0,0,-,-,-,,,避難場所・避難所
茨城県,日立市,久慈小学校,茨城県日立市久慈町1-23-1,36.497102691256,140.61916274595,1,0,0,0,0,1,,,避難場所・避難所
茨城県,結城市,結城第二高等学校,茨城県結城市結城7355,36.294606390539,139.87566090138,1,0,0,1,0,0,6800人,,避難場所・避難所
茨城県,取手市,藤代小学校,茨城県取手市藤代53,35.927199133588,140.10908176679,1,0,0,0,1,0,,,避難場所・水害時緊急避難場所
茨城県,牛久市,中柏田区公会堂,茨城県牛久市柏田町大日堂1506,35.981429291179,140.16009990906,1,0,0,-,-,-,,,１次避難場所
茨城県,桜川市,真壁農村高齢者センター,茨城県桜川市真壁町東山田2266,36.260310591861,140.08134580385,1,0,0,-,-,-,50人,,一時避難所
茨城県,笠間市,笠間小学校,茨城県笠間市笠間2689番地1,36.3821908188,140.25675203639,1,0,0,-,-,-,,,避難場所・避難所
茨城県,桜川市,富岡公民館,茨城県桜川市富岡528,36.367102954241,140.08719833212,1,0,0,-,-,-,17人,,一時避難所
茨城県,東茨城郡茨城町,神谷農村集落センター,茨城県東茨城郡茨城町神谷215-2,36.261875708065,140.42906252196,1,0,0,0,1,0,,,一時避難場所・避難所
茨城県,かすみがうら市,安飾地区公民館,茨城県かすみがうら市安食1075-1,36.11385409782,140.34764946092,-,-,-,-,-,-,,,避難場所
茨城県,久慈郡大子町,上岡集会所,茨城県久慈郡大子町上岡971番地4,36.777355481648,140.3284753717,1,0,0,-,-,-,,,避難場所
茨城県,笠間市,笠間公民館,茨城県笠間市石井2068番地1,36.386043183503,140.24619023222,1,0,0,-,-,-,,,避難場所・避難所
茨城県,行方市,行方市立大和第三小学校,茨城県行方市宇崎1561番地,36.022598414215,140.54640742084,1,0,0,-,-,-,,,避難所
茨城県,桜川市,公民館谷貝分館,茨城県桜川市真壁町下谷貝1139,36.293042022232,140.05933878102,1,0,0,-,-,-,100人,,一時避難所
茨城県,久慈郡大子町,下野宮東区集会所,茨城県久慈郡大子町下野宮3999番地3,36.825856451663,140.38211330417,1,0,0,-,-,-,,,避難場所
茨城県,結城郡八千代町,クリーンパーク・きぬ,茨城県結城郡八千代町大字大渡戸390,36.23305083611,139.90031298924,-,-,-,-,-,-,,,避難場所
茨城県,筑西市,上野小学校,茨城県筑西市中上野621-3,36.217940959619,140.02934227888,1,0,0,-,-,-,,,指定避難所
茨城県,東茨城郡大洗町,大洗町総合運動公園,茨城県東茨城郡大洗町成田町1626番地,36.274893627798,140.54092042789,1,0,0,1,0,1,,,指定緊急避難場所・避難所・指定避難所・広域避難場所
茨城県,日立市,大沼交流センター,茨城県日立市東金沢町5-7-1,36.538048939677,140.62567133389,1,0,0,0,0,1,,,避難場所・避難所
茨城県,常陸太田市,里美文化センター,茨城県常陸太田市折橋町623,36.716201065665,140.49868930039,1,0,0,-,-,-,,,避難所
茨城県,ひたちなか市,那珂湊総合福祉センター（しあわせプラザ）,茨城県ひたちなか市南神敷台17番地6号,36.353973593024,140.59243413206,1,0,0,-,-,-,,,指定避難所
茨城県,牛久市,向原区民会館,茨城県牛久市小坂町字鹿ヶ作3389-1,35.972126455331,140.19721621533,1,0,0,-,-,-,,,１次避難場所
茨城県,鹿嶋市,高松小学校,茨城県鹿嶋市粟生301,35.941980181817,140.65051202778,1,0,0,-,-,-,,,避難場所
茨城県,日立市,日高交流センター,茨城県日立市日高町2-2-1,36.639321600732,140.67763165084,1,0,0,0,0,1,,,避難場所・避難所
茨城県,常陸大宮市,上岩瀬新農村集落センター,茨城県常陸大宮市上岩瀬840,36.523120739359,140.44231305202,1,0,0,-,-,-,,,１次避難所
茨城県,常総市,水海道総合体育館,茨城県常総市坂手町3552,36.020059433711,139.95189023702,1,0,0,-,-,-,2173人,,避難所
茨城県,取手市,取手第一中学校,茨城県取手市井野3-15-1,35.895452281213,140.07706646886,1,0,0,0,1,0,,,避難場所・水害時緊急避難場所
茨城県,潮来市,徳島小学校,茨城県潮来市徳島1912,35.925487317988,140.60707920007,1,0,0,-,-,-,,,２次避難所
茨城県,水戸市,第四中学校,茨城県水戸市,36.345216484852,140.48248249741,1,0,0,-,-,-,,,指定避難所
茨城県,結城市,江川北小学校,茨城県結城市田間1421,36.254051498482,139.8388010785,1,0,0,1,0,0,3900人,,避難場所・避難所
茨城県,行方市,行方市立太田小学校,茨城県行方市矢幡506番地2,36.014121527423,140.53256213152,1,0,0,-,-,-,,,避難所
茨城県,日立市,中里交流センター,茨城県日立市東河内町1953-2,36.63305496367,140.54620006757,1,0,0,-,-,-,,,避難所
茨城県,高萩市,向洋台集会所,茨城県高萩市島名2118-87,36.714674196636,140.69348595974,1,0,0,1,1,0,,,避難場所・避難所
茨城県,石岡市,石岡運動公園,茨城県石岡市南台3-34-1,36.180404631001,140.30412906658,1,0,0,-,-,-,,,避難場所・避難所
茨城県,鹿嶋市,中野西小学校,茨城県鹿嶋市中1729-3,36.014622459192,140.58924516365,1,0,0,-,-,-,,,避難場所
茨城県,東茨城郡茨城町,中央公民館,茨城県東茨城郡茨城町小提1080,36.287448842093,140.42384557583,1,0,0,1,1,0,,,指定緊急避難場所・指定避難所
茨城県,牛久市,上柏田区民会館,茨城県牛久市上柏田3-8-1,35.99228368277,140.16159350007,1,0,0,-,-,-,,,１次避難場所
茨城県,桜川市,つくば真壁工業団地公園2,茨城県桜川市真壁町東矢貝915,36.30266288997,140.07165704547,-,-,-,-,-,-,,,一時避難所
茨城県,かすみがうら市,上佐谷小学校,茨城県かすみがうら市上佐谷1837,36.165012267533,140.2049361367,1,0,0,-,-,-,,,避難場所・避難所
茨城県,日立市,会瀬小学校,茨城県日立市会瀬町2-17-10,36.577783518836,140.65248929073,1,0,0,0,0,1,,,避難場所・避難所
茨城県,常陸大宮市,第7区集会所（寺町）,茨城県常陸大宮市上町369-1,36.550836158903,140.41271153837,1,0,0,-,-,-,,,１次避難所
茨城県,常陸太田市,高倉コミュニティセンター,茨城県常陸太田市下高倉町50-1,36.709332500178,140.46601854567,1,0,0,-,-,-,,,避難所
茨城県,那珂郡東海村,緑ヶ丘区自治集会所,茨城県那珂郡東海村村松2649-8,36.444510456858,140.56926253293,1,0,0,-,-,-,,,避難所
茨城県,結城市,結城市公民館,茨城県結城市結城196-1,36.302183358546,139.87545796699,1,0,0,1,0,0,2800人,,避難場所・避難所
茨城県,ひたちなか市,佐野公民館,茨城県ひたちなか市高場190,36.434705313301,140.53350194108,1,0,0,-,-,-,,,指定避難所
茨城県,潮来市,上丁会館,茨城県潮来市,35.93837430874,140.54301093787,1,0,0,-,-,-,,,１次避難所
茨城県,北相馬郡利根町,布川地区コミュニティセンター,茨城県北相馬郡利根町布川2958-1,35.856327327555,140.1432032952,1,0,0,-,-,-,181人,,避難場所
茨城県,小美玉市,堅倉小学校,茨城県小美玉市堅倉1698-6,36.234797414591,140.35510886732,1,0,0,-,-,-,889人,,避難場所・指定避難所
茨城県,那珂郡東海村,南台区自治集会所,茨城県那珂郡東海村須和間679-255,36.441377082222,140.55320026296,1,0,0,-,-,-,,,避難所
茨城県,日立市,多賀市民会館,茨城県日立市桜川町1-1-1,36.556849459052,140.62777861642,1,0,0,-,-,-,,,避難所
茨城県,東茨城郡茨城町,秋葉公民館,茨城県東茨城郡茨城町秋葉756-1,36.259559091127,140.41632485647,1,0,0,0,1,0,,,一時避難場所・避難所
茨城県,つくば市,谷田部総合体育館,茨城県つくば市谷田部4711-1,36.03631063429,140.07512916538,1,0,0,-,-,-,,,予備避難所
茨城県,鹿嶋市,龍蔵院・集落センター,茨城県鹿嶋市荒野56-2,36.017806323578,140.63812531232,1,0,0,-,-,-,,,一時避難場所
茨城県,古河市,ふれあい館,茨城県古河市駒羽根1419,36.158799437013,139.75788186941,1,0,0,1,0,0,104人,,避難場所・避難所
茨城県,牛久市,東下根区民館,茨城県牛久市下根町1322-80,35.99376716227,140.17690329984,1,0,0,-,-,-,,,１次避難場所
茨城県,小美玉市,納場小学校,茨城県小美玉市納場444,36.253161153773,140.32294154381,1,0,0,-,-,-,1296人,,避難場所・指定避難所
茨城県,那珂郡東海村,村松小学校,茨城県那珂郡東海村村松1443,36.458947466411,140.57970850915,1,0,0,1,0,1,,,避難所・指定緊急避難場所
茨城県,桜川市,西小塙二公民館,茨城県桜川市西小塙419,36.359097405125,140.14802223925,1,0,0,-,-,-,33人,,一時避難所
茨城県,稲敷郡阿見町,シンワ自治会館,茨城県稲敷郡阿見町荒川本郷1343-79,36.024010689026,140.17145298566,1,0,0,-,-,-,,,一時集合場所・避難所
茨城県,常陸太田市,東連地公会堂,茨城県常陸太田市東連地町916,36.575987648228,140.485346162,1,0,0,-,-,-,,,避難所
茨城県,那珂郡東海村,東海村総合体育館,茨城県那珂郡東海村船場768,36.46032767332,140.56030061442,1,0,0,1,0,1,,,指定緊急避難場所・避難所・広域避難拠点・基幹避難所
茨城県,つくばみらい市,谷井田小学校,茨城県つくばみらい市谷井田2047,35.951400444863,140.05013196596,1,0,0,-,-,-,,,避難場所・避難所
茨城県,水戸市,寿小学校,茨城県水戸市,36.328637937957,140.43183175359,1,0,0,-,-,-,,,指定避難所
茨城県,桜川市,上野原多目的運動広場,茨城県桜川市上野原地新田69,36.355368993402,140.05420955947,1,0,0,-,-,-,6900人,,一時避難所
茨城県,常陸大宮市,美和小学校,茨城県常陸大宮市小田野22,36.659220650795,140.29076611774,1,0,0,-,-,-,,,２次避難所
茨城県,つくば市,茎崎中学校,茨城県つくば市小茎450,35.990003644693,140.11657634964,1,0,0,-,-,-,,,指定避難所
茨城県,常総市,水海道第一保育所,茨城県常総市豊岡町乙1670-2,36.031625322015,139.97820921789,1,0,0,-,-,-,77人,,避難所
茨城県,常陸大宮市,泉コミュニティセンター,茨城県常陸大宮市泉813-1,36.531974723065,140.43199959155,1,0,0,-,-,-,,,１次避難所
茨城県,つくば市,県立茎崎高等学校,茨城県つくば市茎崎447-8,35.992539295668,140.09807439986,1,0,0,-,-,-,,,予備避難所
茨城県,水戸市,上中妻市民センター,茨城県水戸市大塚町1157-1,36.38370060156,140.38876912672,1,0,0,-,-,-,,,指定避難所
茨城県,常総市,内守谷公民館,茨城県常総市内守谷町2743-2,35.987127037838,139.9580633447,1,0,0,-,-,-,76人,,避難所
茨城県,常総市,菅生公民館,茨城県常総市菅生町1187-10,35.9926035403,139.93758159357,1,0,0,-,-,-,68人,,避難所
茨城県,高萩市,秋山中集会所,茨城県高萩市秋山625-5,36.716215616483,140.68524198585,1,0,0,1,1,0,,,避難場所・避難所
茨城県,水戸市,内原小学校,茨城県水戸市,36.361731861819,140.35961520118,1,0,0,-,-,-,,,指定避難所
茨城県,日立市,武道館,茨城県日立市白銀町2-21-15,36.611513049742,140.64555274506,1,0,0,-,-,-,,,避難所
茨城県,行方市,行方市西浦学習センター,茨城県行方市行方541番地,36.044029535706,140.4546661079,1,0,0,-,-,-,,,避難所
茨城県,那珂市,総合センターらぽーる,茨城県那珂市古徳371,36.498771027019,140.44476651593,1,0,0,-,-,-,,,避難場所・拠点避難所
茨城県,北相馬郡利根町,利根町公民館,茨城県北相馬郡利根町下曽根187,35.87115067437,140.14550786775,1,0,0,-,-,-,484人,,避難場所
茨城県,古河市,第三中学校,茨城県古河市下山町9-5,36.189335879129,139.72498089225,1,0,0,1,0,0,14386人,,避難場所・避難所
茨城県,桜川市,上谷貝北部田園都市センター,茨城県桜川市真壁町上谷貝1173-2,36.311959053915,140.05824933781,1,0,0,-,-,-,100人,,一時避難所
茨城県,古河市,ユーセンター総和,茨城県古河市上辺見2369,36.186986184033,139.72954449967,1,0,0,1,0,0,319人,,避難場所・避難所
茨城県,笠間市,岩間中学校,茨城県笠間市下郷4997番地1,36.300526465957,140.28860837763,1,0,0,-,-,-,,,避難場所・避難所
茨城県,取手市,白山小学校,茨城県取手市白山2-3-18,35.900431742054,140.06109542689,1,0,0,-,-,-,,,避難場所・第一避難所
茨城県,つくば市,栗原交流センター,茨城県つくば市栗原5386-2,36.12327305411,140.12335646584,1,0,0,-,-,-,,,予備避難所
茨城県,久慈郡大子町,大子シルバー人材センター,茨城県久慈郡大子町池田1806番地,36.784238553321,140.36447221479,1,0,0,-,-,-,,,避難場所
茨城県,常陸太田市,水府中学校,茨城県常陸太田市町田町696,36.622440537203,140.48499734873,1,0,0,-,-,-,,,避難所
茨城県,ひたちなか市,那珂湊勤労青少年ホーム,茨城県ひたちなか市湊中央1丁目1番1号,36.340519640614,140.58885563697,1,0,0,-,-,-,,,指定避難所
茨城県,東茨城郡茨城町,大山原農村集落センター,茨城県東茨城郡茨城町大戸3734,36.285550774344,140.51302181231,1,0,0,0,1,0,,,一時避難場所・避難所
茨城県,坂東市,岩井第一小学校,茨城県坂東市岩井2029番地1,36.056170643091,139.88296766047,1,0,0,-,-,-,,,避難場所
茨城県,那珂郡東海村,中丸コミュニティセンター,茨城県那珂郡東海村須和間345-1,36.44907065904,140.56589054088,1,0,0,1,0,1,,,指定緊急避難場所・基幹避難所
茨城県,ひたちなか市,那珂湊第三小学校,茨城県ひたちなか市西十三奉行13251-1,36.360158949943,140.59271679083,1,0,0,-,-,-,,,指定避難所
茨城県,つくばみらい市,茨城県立伊奈養護学校,茨城県つくばみらい市青古新田300,35.972033463482,140.02013749057,1,0,0,-,-,-,,,避難場所・避難所
茨城県,久慈郡大子町,袋田小学校,茨城県久慈郡大子町袋田1457,36.759130817848,140.3831492774,1,0,0,-,-,-,,,避難場所
茨城県,稲敷郡阿見町,筑見自治会館,茨城県稲敷郡阿見町実穀1529-75,36.011265164262,140.18990189196,1,0,0,-,-,-,,,避難所
茨城県,北茨城市,腰越集会所（公民館）,茨城県北茨城市華川町小豆畑1606-1,36.845398103112,140.67391828387,1,0,0,-,-,-,,,避難場所
茨城県,日立市,宮の前公園,茨城県日立市十王町友部東4-5-12,36.667785106895,140.68486592898,-,-,-,-,-,-,,,避難場所
茨城県,東茨城郡城里町,常北中学校,茨城県東茨城郡城里町下青山10,36.475235666518,140.37263250581,1,0,0,-,-,-,,,避難所
茨城県,つくば市,県立筑波高等学校,茨城県つくば市北条4387,36.174929559681,140.09015897021,1,0,0,-,-,-,,,予備避難所
茨城県,牛久市,東洋大附属牛久高等学校,茨城県牛久市柏田町1360-2,35.978821915241,140.16089693768,1,0,0,-,-,-,,,２次避難場所
茨城県,水戸市,飯富中学校,茨城県水戸市飯富町4479-1,36.438482150749,140.41400829032,1,0,0,0,1,0,,,風水害等災害避難場所・指定避難所
茨城県,高萩市,高萩市民センター,茨城県高萩市春日町2-22,36.714677077273,140.71393462341,1,0,0,1,1,0,,,避難場所・避難所
茨城県,常陸太田市,上利員生活改善センター,茨城県常陸太田市上利員町1143,36.598575213509,140.43792414696,1,0,0,-,-,-,,,避難所
茨城県,東茨城郡城里町,石塚小学校,茨城県東茨城郡城里町石塚2497,36.475341726027,140.38625076294,1,0,0,-,-,-,,,避難所
茨城県,桜川市,北1号公園,茨城県桜川市御領1丁目41,36.365213312594,140.10413009579,-,-,-,-,-,-,1500人,,一時避難所
茨城県,行方市,行方市立現原小学校,茨城県行方市芹沢1071番地2,36.136604100271,140.43157362335,1,0,0,-,-,-,,,避難所
茨城県,那珂市,芳野小学校,茨城県那珂市飯田3992,36.468082914877,140.45800557755,1,0,0,-,-,-,,,避難場所・避難所
茨城県,常陸太田市,幸久小学校,茨城県常陸太田市上河合町2,36.508187995724,140.51462893263,1,0,0,1,0,1,,,避難場所・避難所
茨城県,稲敷郡阿見町,岡崎公民館,茨城県稲敷郡阿見町岡崎二丁目28-1,36.036699731326,140.2214737996,1,0,0,-,-,-,,,一時集合場所・避難所
茨城県,久慈郡大子町,金町集会所,茨城県久慈郡大子町大子442-1,36.773547999427,140.35148761833,1,0,0,-,-,-,,,避難場所
茨城県,久慈郡大子町,下野宮郷集会所,茨城県久慈郡大子町下野宮5963番地1,36.826044309625,140.36494532172,1,0,0,-,-,-,,,避難場所
茨城県,久慈郡大子町,池田下区集会所,茨城県久慈郡大子町池田2094-3,36.777715198821,140.3645805512,1,0,0,-,-,-,,,避難場所
茨城県,日立市,仲町交流センター,茨城県日立市宮田町4-4-15,36.607830019687,140.65251048724,1,0,0,0,0,1,,,避難場所・避難所
茨城県,桜川市,前原分館,茨城県桜川市大国玉2123,36.323591528392,140.07151778548,1,0,0,-,-,-,30人,,一時避難所
茨城県,日立市,多賀中学校,茨城県日立市鮎川町3-11-2,36.567102239188,140.63872386442,1,0,0,0,0,1,,,避難場所・避難所
茨城県,つくば市,並木児童館,茨城県つくば市並木4-2-3,36.06341320366,140.14300464573,1,0,0,-,-,-,,,予備避難所
茨城県,東茨城郡大洗町,ビンチウ児童公園,茨城県東茨城郡大洗町,36.326572238677,140.57123585576,-,-,-,1,0,0,,,一時避難所・指定緊急避難場所
茨城県,東茨城郡大洗町,南中学校,茨城県東茨城郡大洗町大貫町1212-14,36.294411806545,140.55748436405,1,0,0,0,0,1,,,一時避難所・指定緊急避難場所・指定避難所・広域避難場所
茨城県,牛久市,中央公会堂,茨城県牛久市久野町690-1,35.960805954695,140.22719421802,1,0,0,-,-,-,,,１次避難場所
茨城県,行方市,行方市立図書館,茨城県行方市玉造乙1175番地,36.108198465708,140.41427335252,1,0,0,-,-,-,,,避難所
茨城県,久慈郡大子町,黒沢小学校,茨城県久慈郡大子町町付1543,36.842201106946,140.35240665842,1,0,0,-,-,-,,,避難場所
茨城県,那珂市,門部第5区農村集落センター,茨城県那珂市門部2715-2,36.488959023174,140.47938030458,1,0,0,-,-,-,,,避難場所・避難所
茨城県,那珂市,五台小学校,茨城県那珂市東木倉960-1,36.42462462356,140.47203605492,1,0,0,-,-,-,,,避難場所・避難所
茨城県,鹿嶋市,角折公民館,茨城県鹿嶋市角折1448-1,36.034726583179,140.62965075307,1,0,0,-,-,-,,,一時避難場所
茨城県,日立市,茨城キリスト教学園,茨城県日立市大みか町6-11-1,36.512984639307,140.61613757469,1,0,0,-,-,-,,,避難場所・避難所
茨城県,猿島郡五霞町,大王製紙パッケージ株式会社,茨城県猿島郡五霞町幸主572,36.081619790489,139.7666953293,1,0,0,-,-,-,70人,,避難場所・指定避難所
茨城県,東茨城郡城里町,七会体育館,茨城県東茨城郡城里町徳蔵891-1,36.456176981485,140.24894453283,1,0,0,-,-,-,,,避難所
茨城県,坂東市,東中学校,茨城県坂東市猫実1093番地2,36.044386869468,139.92732127454,1,0,0,-,-,-,,,避難場所
茨城県,かすみがうら市,宍倉小学校,茨城県かすみがうら市宍倉5462,36.128593417385,140.28690723047,1,0,0,-,-,-,,,避難場所・避難所
茨城県,那珂市,ふれあいセンターよこぼり,茨城県那珂市横堀1526-1,36.467665114507,140.51808589352,1,0,0,-,-,-,,,避難場所・拠点避難所
茨城県,東茨城郡城里町,古内小学校,茨城県東茨城郡城里町下古内405,36.45826730958,140.33948566007,1,0,0,-,-,-,,,避難所
茨城県,高萩市,高萩中学校,茨城県高萩市高浜町1-77,36.709280836057,140.71864261917,1,0,0,1,1,1,,,避難場所・津波避難施設・避難所
茨城県,牛久市,牛久第二小学校,茨城県牛久市田宮町530,35.978399592354,140.13225307938,1,0,0,-,-,-,,,１次避難場所・２次避難場所
茨城県,潮来市,川尾区集会所,茨城県潮来市川尾38-44,35.963228415927,140.56215801203,1,0,0,-,-,-,,,１次避難所
茨城県,つくば市,春日交流センター,茨城県つくば市春日2-36-1,36.088949023691,140.09909856463,1,0,0,-,-,-,,,予備避難所
茨城県,桜川市,間中農村集落センター,茨城県桜川市間中236,36.388851579639,140.13897649713,1,0,0,-,-,-,59人,,一時避難所
茨城県,桜川市,中根分館,茨城県桜川市高久462,36.312454323922,140.08240325369,1,0,0,-,-,-,,,一時避難所
茨城県,潮来市,牛堀小学校,茨城県潮来市堀之内1219-1,35.969501731146,140.52658923328,1,0,0,-,-,-,,,２次避難所
茨城県,常陸大宮市,山方公民館下小川分館,茨城県常陸大宮市盛金2478-2,36.6728018407,140.38576823149,1,0,0,-,-,-,,,１次避難所
茨城県,筑西市,小栗小学校,茨城県筑西市小栗5545,36.359626942064,140.02265057243,1,0,0,-,-,-,,,指定避難所
茨城県,牛久市,小坂ふるさとコミュニティセンター,茨城県牛久市小坂町2593-1,35.961783359798,140.20729627157,1,0,0,-,-,-,,,１次避難場所
茨城県,常陸太田市,佐竹高等学校,茨城県常陸太田市稲木町155,36.528269373797,140.52211397158,1,0,0,-,-,-,,,避難場所・避難所
茨城県,水戸市,新荘市民センター,茨城県水戸市新荘2-11-2,36.384903073304,140.45208562112,1,0,0,-,-,-,,,指定避難所
茨城県,つくばみらい市,茨城県立伊奈高等学校,茨城県つくばみらい市福田711,35.96095174942,140.0394216803,1,0,0,-,-,-,,,避難場所・避難所
茨城県,かすみがうら市,茨城千代田農業協同組合旧志筑支所,茨城県かすみがうら市下志筑320-1,36.18421719481,140.24859809275,-,-,-,-,-,-,,,避難場所
茨城県,水戸市,緑岡小学校,茨城県水戸市,36.355662633396,140.44449709689,1,0,0,-,-,-,,,指定避難所
茨城県,水戸市,国田市民センター,茨城県水戸市下国井町1212-4,36.42687869402,140.43090634601,1,0,0,-,-,-,,,指定避難所
茨城県,久慈郡大子町,旧下野宮小学校,茨城県久慈郡大子町下野宮1690,36.816670758971,140.37255068419,1,0,0,-,-,-,,,避難場所
茨城県,行方市,行方市繁昌地区学習センター,茨城県行方市繁昌1180番地1,36.061440465593,140.51933056521,1,0,0,-,-,-,,,避難所
茨城県,高萩市,大能生活改善センター,茨城県高萩市大能653,36.743451805179,140.59305029781,1,0,0,1,0,0,,,避難場所・避難所
茨城県,常総市,坂手公民館,茨城県常総市坂手町6219-1,36.007960947235,139.96147597202,1,0,0,-,-,-,68人,,避難所
茨城県,つくば市,大穂保育所,茨城県つくば市大曽根3410,36.138959867748,140.08514566319,1,0,0,-,-,-,,,予備避難所
茨城県,東茨城郡城里町,桂公民館,茨城県東茨城郡城里町阿波山167,36.516189517359,140.36928949671,1,0,0,-,-,-,,,避難所
茨城県,守谷市,大井沢小学校,茨城県守谷市薬師台四丁目12番地,35.961811466591,139.96494020557,1,0,0,-,-,-,,,避難場所・避難所
茨城県,つくば市,旧大形小学校,茨城県つくば市大形1333-1,36.144707192675,140.12785247369,1,0,0,-,-,-,,,指定避難所
茨城県,鹿嶋市,天長井戸農村集落センター,茨城県鹿嶋市青塚1179-4,36.043808395135,140.61284114236,1,0,0,-,-,-,,,一時避難場所
茨城県,鹿嶋市,鹿野中学校,茨城県鹿嶋市城山4-7-70,35.962538736231,140.62140727025,1,0,0,-,-,-,,,避難場所
茨城県,古河市,第五小学校,茨城県古河市横山町三丁目13-27,36.203067484344,139.70238468233,1,0,0,1,0,0,10216人,,避難場所・避難所
茨城県,取手市,取手松陽高等学校,茨城県取手市小文間4770,35.878896719796,140.12220633103,1,0,0,0,1,0,,,避難場所・水害時緊急避難場所
茨城県,日立市,城の丘北公園,茨城県日立市十王町城の丘2-20,36.670020473127,140.67621670951,-,-,-,-,-,-,,,避難場所
茨城県,日立市,滑川小学校,茨城県日立市滑川本町1-20-7,36.616693298012,140.66824473538,1,0,0,0,0,1,,,避難場所・避難所
茨城県,東茨城郡大洗町,桜道集会所,茨城県東茨城郡大洗町桜道381番地,36.31525861847,140.56081103325,1,0,0,-,-,-,,,避難所
茨城県,取手市,宮和田小学校,茨城県取手市藤代南3-11-1,35.914367652036,140.12166970546,1,0,0,0,1,0,,,避難場所・水害時緊急避難場所
茨城県,鹿嶋市,豊津まちづくりセンター,茨城県鹿嶋市大船津4277-6,35.960847146689,140.61456906661,1,0,0,-,-,-,,,避難場所
茨城県,鹿嶋市,大野中学校,茨城県鹿嶋市津賀1925-1,36.051498745641,140.60087819038,1,0,0,-,-,-,,,避難場所
茨城県,結城市,城西小学校,茨城県結城市結城9633-1,36.288048245526,139.85260431102,1,0,0,1,0,0,5300人,,避難場所・避難所
茨城県,潮来市,小泉農村集落センター,茨城県潮来市小泉2373,35.956035295662,140.57464852573,1,0,0,-,-,-,,,１次避難所
茨城県,北相馬郡利根町,利根町民すこやか交流センター（旧保健センター）,茨城県北相馬郡利根町布川2968,35.856507803747,140.14296159965,1,0,0,-,-,-,424人,,避難場所
茨城県,日立市,泉丘中学校,茨城県日立市水木町2-9-1,36.522553028936,140.62608048461,1,0,0,0,0,1,,,避難場所・避難所
茨城県,水戸市,千波中学校,茨城県水戸市,36.358214397048,140.4773190875,1,0,0,-,-,-,,,指定避難所
茨城県,鹿嶋市,志崎新農村集落センター,茨城県鹿嶋市志崎590,36.064690812231,140.578199281,1,0,0,-,-,-,,,一時避難場所
茨城県,高萩市,若栗公民館,茨城県高萩市若栗227,36.771726957045,140.63488118503,1,0,0,1,0,0,,,避難場所・避難所
茨城県,石岡市,国府地区公民館,茨城県石岡市国府5-7-1,36.186009212427,140.2773121426,1,0,0,-,-,-,,,避難場所・避難所
茨城県,常陸太田市,高齢者生産活動センター,茨城県常陸太田市大中町982-1,36.735533930157,140.4972007469,1,0,0,-,-,-,,,避難所
茨城県,行方市,行方市立行方小学校,茨城県行方市行方643番地,36.043860211247,140.45641873805,1,0,0,-,-,-,,,避難所
茨城県,守谷市,松ケ丘小学校,茨城県守谷市松ケ丘四丁目12番地,35.942446766199,139.98240379942,1,0,0,-,-,-,,,避難所
茨城県,常陸太田市,白幡台コミュニティセンター,茨城県常陸太田市大中町2779-104,36.742683126867,140.49506454271,1,0,0,-,-,-,,,避難所
茨城県,鹿嶋市,大野ふれあいセンター,茨城県鹿嶋市津賀1919-1,36.050193260485,140.59865632061,1,0,0,-,-,-,,,避難場所
茨城県,常陸大宮市,南皆沢集会所,茨城県常陸大宮市山方5466-2,36.630892628566,140.37741795062,1,0,0,-,-,-,,,１次避難所
茨城県,桜川市,福泉分館,茨城県桜川市大国玉4155-1,36.334706562688,140.05691034251,1,0,0,-,-,-,30人,,一時避難所
茨城県,土浦市,真鍋小学校,茨城県土浦市真鍋4-3-1,36.096788441327,140.20397465281,1,0,0,1,1,0,,,一時避難場所・洪水避難場所・避難所
茨城県,小美玉市,玉里東小学校,茨城県小美玉市下玉里457,36.151202844092,140.34542369448,1,0,0,-,-,-,866人,,避難場所・指定避難所
茨城県,高萩市,台高萩集会所,茨城県高萩市高萩903,36.722367665154,140.70079656488,1,0,0,1,1,0,,,避難場所・避難所
茨城県,つくば市,吉沼体育館,茨城県つくば市西高野821,36.141354917142,140.02041790156,1,0,0,-,-,-,,,予備避難所
茨城県,結城郡八千代町,体育センター,茨城県結城郡八千代町大字菅谷882-37、38,36.184898064799,139.8764761077,1,0,0,-,-,-,,,避難所
茨城県,久慈郡大子町,北平集会所,茨城県久慈郡大子町町付312,36.833825672099,140.36340424335,1,0,0,-,-,-,,,避難場所
茨城県,行方市,行方市津澄地区館,茨城県行方市繁昌215番地2,36.068067109129,140.52254101324,1,0,0,-,-,-,,,避難所
茨城県,那珂郡東海村,押延区自治集会所,茨城県那珂郡東海村村松2272-1,36.450298624634,140.56943457773,1,0,0,-,-,-,,,避難所
茨城県,桜川市,金敷分館,茨城県桜川市金敷1263,36.323801994168,140.05701034141,1,0,0,-,-,-,30人,,一時避難所
茨城県,つくば市,田井小学校,茨城県つくば市神郡1200,36.192517672343,140.09633151723,1,0,0,-,-,-,,,指定避難所
茨城県,桜川市,今泉農村集落センター,茨城県桜川市今泉176-1,36.331405096881,140.17028973354,1,0,0,-,-,-,36人,,一時避難所
茨城県,稲敷郡阿見町,上郷公会堂,茨城県稲敷郡阿見町阿見5151-1,36.032777327105,140.19998670811,1,0,0,-,-,-,,,一時集合場所・避難所
茨城県,つくばみらい市,わかくさ幼稚園,茨城県つくばみらい市板橋3023-1,35.979866657452,140.06112775533,-,-,-,-,-,-,,,避難場所
茨城県,牛久市,正直公会堂,茨城県牛久市正直町1155,35.953525872056,140.22195896788,1,0,0,-,-,-,,,１次避難場所
茨城県,桜川市,阿部田分館,茨城県桜川市阿部田934,36.316695929773,140.09524655934,1,0,0,-,-,-,30人,,一時避難所
茨城県,かすみがうら市,美並小学校,茨城県かすみがうら市深谷3660-1,36.08803695772,140.31081253538,1,0,0,-,-,-,,,避難場所・避難所
茨城県,結城郡八千代町,東中学校,茨城県結城郡八千代町大字沼森50,36.188398671326,139.91840060537,1,0,0,-,-,-,,,避難場所・避難所
茨城県,坂東市,児童福祉センター,茨城県坂東市岩井4326番地1,36.048788190837,139.88958114049,1,0,0,-,-,-,,,避難場所
茨城県,鹿嶋市,高松まちづくりセンター,茨城県鹿嶋市木滝478-53,35.943793772903,140.6494343039,1,0,0,-,-,-,,,避難場所
茨城県,つくばみらい市,伊奈中学校,茨城県つくばみらい市市野深600,35.967778589029,140.03206675569,1,0,0,-,-,-,,,避難場所・避難所
茨城県,ひたちなか市,勝田第三中学校,茨城県ひたちなか市馬渡2982,36.411244037815,140.5717963121,1,0,0,-,-,-,,,指定避難所
茨城県,取手市,永山中学校,茨城県取手市下高井2311,35.925724926703,140.03042196092,1,0,0,-,-,-,,,避難場所・第二避難所
茨城県,常陸太田市,国安農村集落センター,茨城県常陸太田市国安町662,36.599315578486,140.48712294805,1,0,0,-,-,-,,,避難所
茨城県,牛久市,竹の台自治会館,茨城県牛久市上柏田1-15-7,35.993783442557,140.15543581214,1,0,0,-,-,-,,,１次避難場所
茨城県,守谷市,けやき台公園,茨城県守谷市けやき台四丁目4番地,35.932979638872,139.99714928234,-,-,-,-,-,-,,,避難場所
茨城県,桜川市,高久分館,茨城県桜川市高久219-7,36.311562923836,140.08776957396,1,0,0,-,-,-,50人,,一時避難所
茨城県,石岡市,柿岡小学校,茨城県石岡市柿岡2159-2,36.239756863379,140.19249886297,1,0,0,-,-,-,,,避難場所・避難所
茨城県,古河市,三和地域福祉センター,茨城県古河市仁連2228-7,36.187043042364,139.82531936538,1,0,0,1,0,0,3813人,,避難場所・避難所
茨城県,牛久市,女化区民会館,茨城県牛久市女化町391-1,35.949136789326,140.17112192474,1,0,0,-,-,-,,,１次避難場所
茨城県,牛久市,岡見会館,茨城県牛久市岡見町1453-9,35.976325376785,140.17618163193,1,0,0,-,-,-,,,１次避難場所
茨城県,かすみがうら市,北中学校,茨城県かすみがうら市下軽部1232,36.097455928619,140.34272570058,1,0,0,-,-,-,,,避難場所・避難所
茨城県,筑西市,嘉田生崎小学校,茨城県筑西市西石田587,36.27682591935,139.99020957275,1,0,0,-,-,-,,,指定避難所
茨城県,常陸大宮市,細草集落センター,茨城県常陸大宮市高部4472-2,36.655240481667,140.29006364124,1,0,0,-,-,-,,,１次避難所
茨城県,潮来市,潮来保健センター,茨城県潮来市辻779,35.949741030907,140.55636944611,1,0,0,-,-,-,,,２次避難所
茨城県,常総市,五箇公民館,茨城県常総市上蛇町1899-1,36.072182270218,140.00255177975,1,0,0,1,0,0,91人,,避難所
茨城県,牛久市,東みどり野区民会館,茨城県牛久市南4-10-18,35.966592988777,140.14702935503,1,0,0,-,-,-,,,１次避難場所
茨城県,稲敷郡阿見町,西郷新農村集落センター,茨城県稲敷郡阿見町阿見4396-7,36.037704785575,140.20507519606,1,0,0,-,-,-,,,一時集合場所・避難所
茨城県,坂東市,猿島幼稚園,茨城県坂東市沓掛6083番地3,36.100779131489,139.90908473916,1,0,0,-,-,-,,,避難場所
茨城県,常陸大宮市,大宮公民館玉川分館,茨城県常陸大宮市東野4313-1,36.575281831532,140.37255097812,1,0,0,-,-,-,,,１次避難所
茨城県,桜川市,青木分館,茨城県桜川市青木801,36.347849994739,140.08705740255,1,0,0,-,-,-,,,一時避難所
茨城県,那珂郡東海村,岡区自治集会所,茨城県那珂郡東海村豊岡1539-2,36.475579119008,140.58501614691,1,0,0,-,-,-,,,避難所
茨城県,常陸大宮市,おがわ幼稚園,茨城県常陸大宮市上小瀬941-1,36.601402948365,140.32668981535,1,0,0,-,-,-,,,２次避難所
茨城県,鹿嶋市,三笠幼稚園（旧第一幼稚園）,茨城県鹿嶋市平井1184-4,35.970918109239,140.64713167645,1,0,0,-,-,-,,,避難場所
茨城県,結城市,結城中学校,茨城県結城市小田林2600,36.299013931473,139.85429289393,1,0,0,1,0,0,16200人,,避難場所・避難所
茨城県,水戸市,老人福祉センター「あかね荘」,茨城県水戸市,36.388457499758,140.4307966112,-,-,-,-,-,-,,,緊急避難場所
茨城県,猿島郡境町,さかい河岸,茨城県猿島郡境町,36.104110840502,139.78938899106,1,0,0,-,-,-,,,避難場所
茨城県,かすみがうら市,志筑小学校,茨城県かすみがうら市中志筑2112,36.184425160891,140.23118305257,1,0,0,-,-,-,,,避難場所・避難所
茨城県,久慈郡大子町,袋田大塩集会所,茨城県久慈郡大子町袋田2242-4,36.748937682122,140.38396071697,1,0,0,-,-,-,,,避難場所
茨城県,桜川市,大和中学校,茨城県桜川市羽田1000,36.326247429986,140.09178269005,1,0,0,-,-,-,500人,,避難所
茨城県,常陸大宮市,野口地区センター,茨城県常陸大宮市野口2084,36.551450428516,140.32620042091,1,0,0,-,-,-,,,１次避難所
茨城県,日立市,多賀高等学校,茨城県日立市鮎川町3-9-1,36.567603954749,140.64159354869,1,0,0,0,0,1,,,避難場所・避難所
茨城県,つくば市,九重小学校,茨城県つくば市上ノ室2126,36.084835317056,140.13056877002,1,0,0,-,-,-,,,指定避難所
茨城県,行方市,行方市文化会館,茨城県行方市山田2175番地,36.083748972323,140.53264839612,1,0,0,-,-,-,,,避難所
茨城県,石岡市,八郷総合運動公園,茨城県石岡市野田600,36.254799501753,140.20178372538,1,0,0,-,-,-,,,避難場所・避難所
茨城県,日立市,大沼小学校,茨城県日立市東大沼町2-1-8,36.534213331266,140.62943781578,1,0,0,0,0,1,,,避難場所・避難所
茨城県,古河市,下辺見小学校,茨城県古河市下辺見2400,36.176365241025,139.73346701607,1,0,0,1,0,0,5122人,,避難場所・避難所
茨城県,つくば市,島名幼稚園,茨城県つくば市島名537-1,36.071866522397,140.04757776762,1,0,0,-,-,-,,,予備避難所
茨城県,つくば市,豊里勤労者体育センター,茨城県つくば市高野1197-20,36.104158137588,140.03755456597,1,0,0,-,-,-,,,予備避難所
茨城県,鹿嶋市,私立清真学園高等学校・中学校,茨城県鹿嶋市宮中4448-5,35.976983912574,140.63467734842,1,0,0,-,-,-,,,一時避難場所
茨城県,久慈郡大子町,宮川自然休養村センター,茨城県久慈郡大子町川山979番地1,36.807597043567,140.36839026803,1,0,0,-,-,-,,,避難場所
茨城県,日立市,日立市民会館,茨城県日立市若葉町1-5-8,36.596486788396,140.65504950351,1,0,0,-,-,-,,,避難所
茨城県,かすみがうら市,老人福祉センター,茨城県かすみがうら市上佐谷33,36.180866863937,140.21669555581,-,-,-,-,-,-,,,避難場所
茨城県,高萩市,松岡小学校,茨城県高萩市下手綱43,36.738238419879,140.70659920036,1,0,0,1,1,0,,,避難場所・避難所
茨城県,稲敷郡阿見町,町立実穀小学校,茨城県稲敷郡阿見町実穀1285、1293合併番地,36.005276920414,140.19477398453,1,0,0,0,1,0,,,緊急避難場所・避難所
茨城県,つくばみらい市,東小学校,茨城県つくばみらい市足高1313,35.951593059547,140.08826282727,1,0,0,-,-,-,,,避難場所・避難所
茨城県,古河市,総和北中学校,茨城県古河市小堤1775,36.202405184403,139.76719931593,1,0,0,1,0,0,13290人,,避難場所・避難所
茨城県,小美玉市,江戸住宅公園,茨城県小美玉市江戸90-161,36.252969022637,140.3092760248,-,-,-,-,-,-,,,避難場所
茨城県,東茨城郡城里町,七会公民館,茨城県東茨城郡城里町徳蔵357-3,36.457449109794,140.26042953878,1,0,0,-,-,-,,,避難所
茨城県,結城郡八千代町,下結城地区公園,茨城県結城郡八千代町大字平塚2175-1,36.160036858927,139.86811366586,-,-,-,-,-,-,,,避難場所
茨城県,久慈郡大子町,高柴集会所,茨城県久慈郡大子町高柴1562番地,36.781651740296,140.43544600884,1,0,0,-,-,-,,,避難場所
茨城県,常陸大宮市,山方運動公園,茨城県常陸大宮市山方5819,36.632838166627,140.38561787885,-,-,-,-,-,-,,,２次避難場所
茨城県,結城郡八千代町,西豊田小学校,茨城県結城郡八千代町大字太田365,36.176783303095,139.92294812824,1,0,0,-,-,-,,,避難場所・避難所
茨城県,牛久市,牛久高等学校,茨城県牛久市岡見町2081-1,35.984907202828,140.16843486865,1,0,0,-,-,-,,,２次避難場所
茨城県,結城市,結城東中学校,茨城県結城市結城3381,36.298358848521,139.88628780127,1,0,0,1,0,0,9900人,,避難場所・避難所
茨城県,日立市,助川中学校,茨城県日立市鹿島町3-5-1,36.588065606983,140.6478615958,1,0,0,0,0,1,,,避難場所・避難所
茨城県,東茨城郡大洗町,舟渡集会所,茨城県東茨城郡大洗町,36.312058478749,140.56170932836,1,0,0,-,-,-,,,避難所
茨城県,坂東市,弓馬田小学校,茨城県坂東市馬立30番地1,36.067233594277,139.8961685828,1,0,0,-,-,-,,,避難場所
茨城県,取手市,取手東中学校,茨城県取手市吉田470,35.893960938277,140.08667957852,1,0,0,0,1,0,,,避難場所・水害時緊急避難場所
茨城県,東茨城郡茨城町,石崎小学校,茨城県東茨城郡茨城町中石崎527,36.290218183496,140.48527758888,1,0,0,1,1,0,,,指定緊急避難場所・指定避難所
茨城県,稲敷郡阿見町,町立君原小学校,茨城県稲敷郡阿見町塙145,36.004765833247,140.25880376513,1,0,0,1,1,0,,,緊急避難場所・避難所
茨城県,東茨城郡大洗町,漁村センター,茨城県東茨城郡大洗町磯浜町6881番地の88,36.312557652871,140.57442518448,1,0,0,-,-,-,,,避難所
茨城県,ひたちなか市,勝田工業高等学校,茨城県ひたちなか市松戸町3-10-1,36.390026536629,140.54731366367,1,0,0,-,-,-,,,指定避難所
茨城県,猿島郡五霞町,西南広域消防五霞分署,茨城県猿島郡五霞町元栗橋1887,36.106405397443,139.74783766168,1,0,0,-,-,-,20人,,避難場所・指定避難所
茨城県,桜川市,シルバー人材センター,茨城県桜川市真壁町下谷貝435,36.282629392405,140.05625625969,1,0,0,-,-,-,,,一時避難所
茨城県,桜川市,大月農村集落センター,茨城県桜川市大月253,36.371973837178,140.16201423923,1,0,0,-,-,-,64人,,一時避難所
茨城県,常陸太田市,太田小学校,茨城県常陸太田市中城町151,36.545541943102,140.51982767748,1,0,0,-,-,-,,,避難所
茨城県,小美玉市,小川公民館,茨城県小美玉市小川1661-1,36.172401027754,140.35839725127,1,0,0,-,-,-,595人,,指定避難所
茨城県,水戸市,柳河市民センター,茨城県水戸市柳河町673-1,36.399932607875,140.46824254865,1,0,0,-,-,-,,,指定避難所
茨城県,つくば市,上郷幼稚園,茨城県つくば市上郷2499,36.097663610174,140.01574253226,1,0,0,-,-,-,,,予備避難所
茨城県,水戸市,笠原小学校,茨城県水戸市,36.34412737891,140.45655366845,1,0,0,-,-,-,,,指定避難所
茨城県,北相馬郡利根町,文間地区農村集落センター,茨城県北相馬郡利根町大房488-2,35.878272727971,140.17746051821,1,0,0,-,-,-,83人,,避難場所
茨城県,那珂市,額田小学校,茨城県那珂市額田北郷311,36.491792687943,140.51940119771,1,0,0,-,-,-,,,避難場所・避難所
茨城県,桜川市,木崎分館,茨城県桜川市大国玉622,36.325447097383,140.07632848721,1,0,0,-,-,-,30人,,一時避難所
茨城県,つくば市,筑波小学校,茨城県つくば市国松1400,36.215064873994,140.07528251134,1,0,0,-,-,-,,,指定避難所
茨城県,ひたちなか市,市毛小学校,茨城県ひたちなか市市毛825,36.401012772347,140.50202075153,1,0,0,-,-,-,,,指定避難所
茨城県,桜川市,南飯田小学校,茨城県桜川市南飯田1-1,36.381985498428,140.13648738215,1,0,0,-,-,-,888人,,避難所
茨城県,久慈郡大子町,上野宮第一集会所,茨城県久慈郡大子町上野宮2597番地1,36.869823053973,140.30432634312,1,0,0,-,-,-,,,避難場所
茨城県,牛久市,東岡見区民会館,茨城県牛久市岡見町971-1,35.970354078561,140.1849393542,1,0,0,-,-,-,,,１次避難場所
茨城県,取手市,江戸川学園取手中・高等学校,茨城県取手市西1-37-1,35.904455281367,140.04060831258,1,0,0,0,1,0,,,避難場所・水害時緊急避難場所
茨城県,土浦市,都和小学校,茨城県土浦市並木5-4826-1,36.116972614303,140.19164903212,1,0,0,1,1,0,,,一時避難所・洪水避難場所
茨城県,行方市,行方市玉造西地区学習センター,茨城県行方市浜502番地,36.108275692403,140.40129378441,1,0,0,-,-,-,,,避難所
茨城県,東茨城郡城里町,岩船地区公民館,茨城県東茨城郡城里町孫根355-1,36.506775670721,140.34186190345,1,0,0,-,-,-,,,避難所
茨城県,ひたちなか市,那珂湊中学校,茨城県ひたちなか市廻り目2896,36.350293452383,140.59594532751,1,0,0,-,-,-,,,指定避難所
茨城県,常陸大宮市,宇留野圷農村文化伝統館,茨城県常陸大宮市宇留野1483-1,36.538190968035,140.43365737915,1,0,0,-,-,-,,,１次避難所
茨城県,取手市,小文間小学校,茨城県取手市小文間4359,35.885434631518,140.10943553762,1,0,0,-,-,-,,,避難場所・第一避難所
茨城県,つくば市,高見原保育所,茨城県つくば市高見原3-7-11,36.002279957145,140.13135247831,1,0,0,-,-,-,,,予備避難所
茨城県,筑西市,認定こども園せきじょう,茨城県筑西市黒子216-1,36.250817278197,139.97646690289,1,0,0,-,-,-,,,指定避難所
茨城県,常陸太田市,大平農村集落センター,茨城県常陸太田市大平町290,36.546980029784,140.49348817406,1,0,0,-,-,-,,,避難所
茨城県,久慈郡大子町,袋田交流センター,茨城県久慈郡大子町大字袋田1923-8,36.754761875834,140.37946640317,1,0,0,-,-,-,,,避難場所
茨城県,常陸大宮市,山方公民館照山分館,茨城県常陸大宮市照山1114-2,36.615017517335,140.42668862204,1,0,0,-,-,-,,,１次避難所
茨城県,常陸大宮市,梶畑集会所,茨城県常陸大宮市家和楽622,36.665658471151,140.3968813788,1,0,0,-,-,-,,,１次避難所
茨城県,日立市,愛宕神社,茨城県日立市十王町伊師2951,36.682727996706,140.70430507386,-,-,-,0,0,1,,,避難場所
茨城県,久慈郡大子町,だいご小学校,茨城県久慈郡大子町大子460,36.772798106979,140.35358186847,1,0,0,-,-,-,,,避難場所
茨城県,那珂郡東海村,（独）日本原子力研究開発機構／太田寮共同棟,茨城県那珂郡東海村照沼1063,36.439651978485,140.58896480604,1,0,0,-,-,-,,,避難所
茨城県,土浦市,常総学院高等学校,茨城県土浦市中村西根1010,36.05842568628,140.16315613345,1,0,0,1,0,0,,,一時避難所
茨城県,日立市,日立第二高等学校,茨城県日立市鹿島町3-2-1,36.589782032758,140.64836708717,1,0,0,0,0,1,,,避難場所・避難所
茨城県,桜川市,明日香公園,茨城県桜川市明日香2丁目20,36.365729196922,140.11018119055,-,-,-,-,-,-,1250人,,一時避難所
茨城県,常陸大宮市,山方公民館諸沢五区分館,茨城県常陸大宮市諸沢5026-3,36.671394034716,140.42191749196,1,0,0,-,-,-,,,１次避難所
茨城県,東茨城郡大洗町,岩崎児童公園,茨城県東茨城郡大洗町,36.322899629717,140.57328272768,-,-,-,1,0,0,,,一時避難所・指定緊急避難場所
茨城県,つくば市,竹園東幼稚園,茨城県つくば市竹園3-12-1,36.081891278388,140.12457211913,1,0,0,-,-,-,,,予備避難所
茨城県,つくばみらい市,三島小学校,茨城県つくばみらい市下島422,35.954361406696,140.06002571971,1,0,0,-,-,-,,,避難場所・避難所
茨城県,桜川市,高森分館,茨城県桜川市高森476-3,36.343308820411,140.0778001943,1,0,0,-,-,-,,,一時避難所
茨城県,稲敷郡阿見町,南平台保育所,茨城県稲敷郡阿見町南平台一丁目31-6,36.022762275556,140.25422729112,1,0,0,-,-,-,,,避難所
茨城県,常陸太田市,金砂郷小学校,茨城県常陸太田市高柿町325-1,36.554692242739,140.46233212442,1,0,0,-,-,-,,,避難所
茨城県,東茨城郡大洗町,大貫集会所,茨城県東茨城郡大洗町大貫町64-412番地,36.308642898298,140.565485893,1,0,0,-,-,-,,,避難所
茨城県,常陸太田市,松栄営農研修センター,茨城県常陸太田市松栄町1027,36.517341242983,140.47055769179,1,0,0,-,-,-,,,避難所
茨城県,高萩市,横川生活改善センター,茨城県高萩市横川9-1,36.802104900056,140.6460486167,1,0,0,1,0,0,,,避難場所・避難所
茨城県,つくばみらい市,総合運動公園,茨城県つくばみらい市小張1770,35.979721905885,140.04650391878,1,0,0,-,-,-,,,避難場所・避難所
茨城県,久慈郡大子町,南中学校,茨城県久慈郡大子町頃藤3870,36.724078018381,140.38647218398,1,0,0,-,-,-,,,避難場所
茨城県,常陸大宮市,村石地区防災センター,茨城県常陸大宮市上村田1123-1,36.529355584049,140.4136652013,1,0,0,-,-,-,,,１次避難所
茨城県,潮来市,六丁目会館,茨城県潮来市潮来754,35.94215580297,140.55388335233,1,0,0,-,-,-,,,１次避難所
茨城県,稲敷郡河内町,中央公民館,茨城県稲敷郡河内町長竿3693-2,35.883107038147,140.28589201625,1,0,0,-,-,-,,,避難所
茨城県,常陸太田市,誉田公民館,茨城県常陸太田市新宿町1283,36.554151973849,140.51911912399,1,0,0,-,-,-,,,避難場所・避難所
茨城県,水戸市,緑岡中学校,茨城県水戸市,36.357679282749,140.44468968292,1,0,0,-,-,-,,,指定避難所
茨城県,水戸市,第一中学校,茨城県水戸市,36.385378303575,140.44929394224,1,0,0,-,-,-,,,指定避難所
茨城県,日立市,諏訪スポーツ広場,茨城県日立市諏訪町963-3,36.572177885916,140.61870694406,-,-,-,-,-,-,,,避難場所
茨城県,常総市,岡田小学校,茨城県常総市向石下1020,36.117922808573,139.94956712346,1,0,0,-,-,-,2477人,,避難所
茨城県,稲敷郡阿見町,二区児童館,茨城県稲敷郡阿見町うずら野一丁目29-11,36.031763438185,140.17699845067,1,0,0,-,-,-,,,避難所
茨城県,日立市,かみね公園,茨城県日立市宮田町5-2,36.609413581244,140.65752384464,-,-,-,0,0,1,,,避難場所
茨城県,潮来市,中央公民館,茨城県潮来市日の出3-11,35.936313791289,140.57142522323,1,0,0,-,-,-,,,２次避難所
茨城県,小美玉市,下吉影小学校,茨城県小美玉市下吉影1763-4,36.192511438809,140.43674024845,1,0,0,-,-,-,1811人,,避難場所・指定避難所
茨城県,常陸太田市,大里ふれあい広場ふれあいセンター,茨城県常陸太田市大里町4401,36.540603976916,140.48708311296,1,0,0,-,-,-,,,避難所
茨城県,東茨城郡茨城町,小幡区民センター,茨城県東茨城郡茨城町小幡2165,36.257455915127,140.39450806207,1,0,0,0,1,0,,,一時避難場所・避難所
茨城県,稲敷郡阿見町,町立朝日中学校,茨城県稲敷郡阿見町荒川本郷1855-1,36.014661934881,140.18532990485,1,0,0,1,1,0,,,緊急避難場所・避難所
茨城県,稲敷郡河内町,金江津中学校,茨城県稲敷郡河内町金江津7501-2,35.878441872318,140.33549220338,1,0,0,-,-,-,,,避難所
茨城県,牛久市,みどり野区民会館,茨城県牛久市南4-37-10,35.966079093281,140.14465463914,1,0,0,-,-,-,,,１次避難場所
茨城県,笠間市,北川根小学校,茨城県笠間市湯崎1085番地1,36.310311984781,140.3275833054,1,0,0,-,-,-,,,避難場所・避難所
茨城県,猿島郡境町,静小学校,茨城県猿島郡境町大字塚崎704,36.129786760055,139.7764923216,1,0,0,-,-,-,,,避難場所
茨城県,高萩市,行人塚集会所,茨城県高萩市高戸192-1,36.722695915782,140.71625110279,1,0,0,1,1,0,,,避難場所・避難所
茨城県,牛久市,柏田台集会所,茨城県牛久市さくら台2-6-2,35.962335244071,140.15951997249,1,0,0,-,-,-,,,１次避難場所
茨城県,久慈郡大子町,下野宮宿公会堂,茨城県久慈郡大子町下野宮1611-3,36.817145962137,140.37144795453,1,0,0,-,-,-,,,避難場所
茨城県,那珂郡東海村,東海村総合福祉センター「絆」,茨城県那珂郡東海村村松2005,36.455148132723,140.57352858645,1,0,0,1,0,1,,,指定緊急避難場所・基幹避難所・福祉避難所
茨城県,ひたちなか市,磯崎小学校,茨城県ひたちなか市磯崎町4598,36.37999277671,140.62456901986,1,0,0,-,-,-,,,指定避難所
茨城県,鹿嶋市,チェリオ・イオン鹿嶋店,茨城県鹿嶋市宮中290-1,35.960389075607,140.64402690135,1,0,0,-,-,-,,,一時避難場所
茨城県,つくば市,大穂中学校,茨城県つくば市篠崎475,36.1384731139,140.06120867696,1,0,0,-,-,-,,,指定避難所
茨城県,石岡市,林小学校,茨城県石岡市下林857-1,36.232327988622,140.21958282149,1,0,0,-,-,-,,,避難場所・避難所
茨城県,桜川市,堤上生活改善センター,茨城県桜川市堤上156,36.369249600732,140.05978421401,1,0,0,-,-,-,46人,,一時避難所
茨城県,潮来市,芝宿農村集落センター,茨城県潮来市上戸176,35.95678088448,140.52215355402,1,0,0,-,-,-,,,１次避難所
茨城県,牛久市,一厚公民館,茨城県牛久市猪子町992-692,35.992231107123,140.13976285441,1,0,0,-,-,-,,,１次避難場所
茨城県,北相馬郡利根町,文小学校,茨城県北相馬郡利根町下曽根254,35.873130942817,140.14414125987,1,0,0,-,-,-,1079人,,避難場所
茨城県,常陸太田市,小菅コミュニティセンター,茨城県常陸太田市小菅町2705,36.696591001611,140.51307582494,1,0,0,-,-,-,,,避難所
茨城県,古河市,三和公民館,茨城県古河市仁連2065,36.189786893675,139.81791990666,-,-,-,-,-,-,439人,,避難場所
茨城県,桜川市,西小塙児童公園,茨城県桜川市西小塙794,36.359855075781,140.14670288914,-,-,-,-,-,-,10000人,,一時避難所
茨城県,久慈郡大子町,仲沢集会所,茨城県久慈郡大子町頃藤4187-1,36.727359470576,140.38191982208,1,0,0,-,-,-,,,避難場所
茨城県,常陸太田市,玉造田園都市センター,茨城県常陸太田市玉造町983,36.557200914545,140.48880776499,1,0,0,-,-,-,,,避難所
茨城県,常陸大宮市,小田野中郷集落センター,茨城県常陸大宮市小田野2176,36.674534908919,140.26929519285,1,0,0,-,-,-,,,１次避難所
茨城県,土浦市,斗利出小学校,茨城県土浦市高岡1367,36.12493400387,140.13776893121,1,0,0,1,0,0,,,一時避難所
茨城県,稲敷郡河内町,みずほ小学校,茨城県稲敷郡河内町源清田1942,35.881285940573,140.25473908305,1,0,0,-,-,-,,,避難所
茨城県,桜川市,大和ふれあいセンター「シトラス」,茨城県桜川市羽田989-1,36.325825170685,140.09118005263,1,0,0,-,-,-,500人,,避難所
茨城県,古河市,上辺見小学校,茨城県古河市上辺見1164,36.188949888453,139.73121657039,1,0,0,1,0,0,4809人,,避難場所・避難所
茨城県,久慈郡大子町,後冥賀集会所,茨城県久慈郡大子町冥賀2306-1,36.820869934056,140.35047187661,1,0,0,-,-,-,,,避難場所
茨城県,北茨城市,中郷第二小学校,茨城県北茨城市中郷町小野矢指720-3,36.756586620603,140.71578439845,1,0,0,-,-,-,,,避難場所
茨城県,鹿嶋市,小志崎農村集落センター,茨城県鹿嶋市大小志崎779,36.071040601002,140.61195904835,1,0,0,-,-,-,,,一時避難場所
茨城県,東茨城郡茨城町,飯塚新農村集落センター,茨城県東茨城郡茨城町上石崎1154-1,36.284314681919,140.4657206341,1,0,0,0,1,0,,,一時避難場所・避難所
茨城県,小美玉市,羽鳥公民館,茨城県小美玉市羽鳥916,36.243417067488,140.28224872954,1,0,0,-,-,-,101人,,指定避難所
茨城県,小美玉市,玉里総合文化センター,茨城県小美玉市高崎291-3,36.154841128993,140.33138852172,1,0,0,-,-,-,1992人,,指定避難所
茨城県,稲敷郡阿見町,寺子公会堂,茨城県稲敷郡阿見町実穀1629-3,36.016242590101,140.19419590806,1,0,0,-,-,-,,,避難所
茨城県,つくば市,上郷小学校,茨城県つくば市上郷2499,36.097418634435,140.0151164956,1,0,0,-,-,-,,,指定避難所
茨城県,日立市,日立電線（株）日高工場グランド,茨城県日立市,36.631800213613,140.68373556453,-,-,-,0,0,1,,,避難場所
茨城県,結城市,江川南小学校,茨城県結城市北南茂呂81,36.215958938948,139.82538479099,1,0,0,1,0,0,4000人,,避難場所・避難所
茨城県,守谷市,高野小学校,茨城県守谷市高野1342番地,35.928645255463,139.98746317924,1,0,0,-,-,-,,,避難場所・避難所
茨城県,那珂郡東海村,舟石川1区自治集会所,茨城県那珂郡東海村舟石川269-1,36.467854365507,140.55436289965,1,0,0,-,-,-,,,避難所
茨城県,水戸市,新荘小学校,茨城県水戸市新荘2-11-1,36.385591915919,140.4521578967,1,0,0,0,1,0,,,風水害等災害避難場所・指定避難所
茨城県,桜川市,亀岡農村集落センター,茨城県桜川市亀岡1,36.379341283788,140.14306331751,1,0,0,-,-,-,100人,,一時避難所
茨城県,ひたちなか市,田彦小学校,茨城県ひたちなか市田彦1457,36.410946162273,140.52038828583,1,0,0,-,-,-,,,指定避難所
茨城県,久慈郡大子町,大子中学校,茨城県久慈郡大子町池田1647・1648,36.780758365762,140.35944778908,1,0,0,-,-,-,,,避難場所
茨城県,常陸大宮市,三王山自然公園,茨城県常陸大宮市秋田485,36.576230587936,140.25708608738,-,-,-,-,-,-,,,２次避難場所
茨城県,久慈郡大子町,奥久慈茶の里公園,茨城県久慈郡大子町左貫1920,36.82707592481,140.28047452653,1,0,0,-,-,-,,,避難場所
茨城県,小美玉市,玉里保健福祉センター,茨城県小美玉市上玉里1122,36.161964098562,140.33570632797,1,0,0,-,-,-,684人,,指定避難所
茨城県,守谷市,大山公園,茨城県守谷市松前台一丁目19番地,35.968370901812,139.96691053319,-,-,-,-,-,-,,,避難場所
茨城県,北茨城市,中郷多目的集会所,茨城県北茨城市中郷町上桜井844-1,36.780609621138,140.73186651845,1,0,0,-,-,-,,,避難場所
茨城県,かすみがうら市,下大津小学校,茨城県かすみがうら市加茂4469,36.078381910873,140.28572134248,1,0,0,-,-,-,,,避難場所・避難所
茨城県,東茨城郡大洗町,角一集会所,茨城県東茨城郡大洗町大貫町245番地,36.302724338475,140.56121973815,1,0,0,-,-,-,,,避難所
茨城県,笠間市,佐城小学校,茨城県笠間市金井83番地1,36.395520195761,140.26230113757,1,0,0,-,-,-,,,避難場所・避難所
茨城県,日立市,駒王中学校,茨城県日立市神峰町3-2-32,36.601639372069,140.65602704303,1,0,0,0,0,1,,,避難場所・避難所
茨城県,桜川市,樺穂小学校,茨城県桜川市真壁町長岡437,36.291404548422,140.11136815703,1,0,0,-,-,-,1000人,,避難所
茨城県,常陸太田市,金砂ふるさと体験交流施設,茨城県常陸太田市下宮河内町820,36.615628749082,140.44181774725,1,0,0,-,-,-,,,避難所
茨城県,高萩市,高萩小学校,茨城県高萩市安良川1048,36.712677412306,140.70554347829,1,0,0,1,1,1,,,避難場所・津波避難場所・避難所
茨城県,常陸大宮市,山方公民館小貫分館,茨城県常陸大宮市小貫675-5,36.611125791631,140.40722109602,1,0,0,-,-,-,,,１次避難所
茨城県,日立市,成沢交流センター,茨城県日立市中成沢町3-6-10,36.575205785172,140.64031013797,1,0,0,-,-,-,,,避難所
茨城県,常陸太田市,世矢幼稚園,茨城県常陸太田市真弓町1854-53,36.524421621239,140.56939427848,1,0,0,-,-,-,,,避難場所・避難所
茨城県,常総市,絹西小学校,茨城県常総市坂手町7303-3,36.001786589963,139.95984859815,1,0,0,-,-,-,942人,,避難所
茨城県,土浦市,土浦第一高等学校,茨城県土浦市真鍋4-4-2,36.098507842528,140.20404123228,1,0,0,1,1,0,,,一時避難所・洪水避難場所
茨城県,つくば市,吾妻小学校,茨城県つくば市吾妻2-16,36.084294306927,140.10948884743,1,0,0,-,-,-,,,指定避難所
茨城県,東茨城郡大洗町,新町会館,茨城県東茨城郡大洗町和銅14-7,36.317849984549,140.57456015344,1,0,0,-,-,-,,,避難所
茨城県,日立市,水木交流センター,茨城県日立市水木町2-23-10,36.518042662272,140.62624739117,1,0,0,0,0,1,,,避難場所・避難所
茨城県,那珂郡東海村,川根区自治集会所,茨城県那珂郡東海村村松3170-2,36.434132127471,140.59468974442,1,0,0,-,-,-,,,避難所
