都道府県,市区町村,避難所名,住所,緯度,経度,避難所,一時避難所,広域避難所,地震,風水害,津波,収容人数,備蓄品,備考
栃木県,芳賀郡市貝町,赤羽小学校,栃木県芳賀郡市貝町赤羽2711,36.51517172,140.06797203,0,0,1,1,1,0,300人,,災害時に危険を一時的に回避する場所（体育館を使用）
栃木県,芳賀郡市貝町,旧小貝中央小学校,栃木県芳賀郡市貝町続谷1143-3,36.58651759,140.11243756,0,0,1,1,1,0,300人,,災害時に危険を一時的に回避する場所（体育館を使用）
栃木県,芳賀郡茂木町,茂木町民センター,栃木県芳賀郡茂木町大字茂木151,36.530960,140.186617,1,1,1,-,-,-,300人,,
栃木県,芳賀郡茂木町,中川小学校,栃木県芳賀郡茂木町大字牧野1861,36.579249,140.210760,1,1,1,-,-,-,300人,,
栃木県,芳賀郡茂木町,県立茂木高等学校,栃木県芳賀郡茂木町大字茂木288,36.531639,140.189472,1,1,1,1,1,0,500人,,
栃木県,芳賀郡茂木町,元気アップ館,栃木県芳賀郡茂木町大字茂木1043-1,36.526341,140.170363,1,1,1,1,0,0,200人,,
栃木県,芳賀郡茂木町,中川中学校,栃木県芳賀郡茂木町大字河井856,36.569737,140.217497,1,1,1,1,1,0,200人,,
栃木県,芳賀郡茂木町,茂木中学校,栃木県芳賀郡茂木町大字茂木72,36.533673,140.194322,1,1,1,-,-,-,500人,,
栃木県,芳賀郡市貝町,市貝中学校,栃木県芳賀郡市貝町市塙4072,36.54531098,140.10714226,0,0,1,1,1,0,500人,,災害時に危険を一時的に回避する場所（体育館・武道館等を使用）
栃木県,那須塩原市,穴沢小学校,栃木県那須塩原市百村678,37.027423497931,139.94827316831,1,0,0,-,-,-,128人,,指定避難所
栃木県,芳賀郡茂木町,茂木小学校,栃木県芳賀郡茂木町大字茂木1621,36.531389,140.184129,1,1,1,1,0,0,500人,,
栃木県,芳賀郡茂木町,逆川小学校,栃木県芳賀郡茂木町大字飯2210,36.469463,140.174474,1,1,1,1,1,0,200人,,
栃木県,芳賀郡市貝町,赤羽保育園,栃木県芳賀郡市貝町赤羽2648-7,36.51581048,140.06600272,0,0,1,1,1,0,100人,,災害時に危険を一時的に回避する場所
栃木県,芳賀郡茂木町,逆川中学校,栃木県芳賀郡茂木町大字飯1650,36.472124,140.172156,1,1,1,1,1,0,200人,,
栃木県,芳賀郡市貝町,ふれあい館,栃木県芳賀郡市貝町赤羽2648-1,36.51574800,140.06653630,0,0,1,1,1,0,100人,,災害時に危険を一時的に回避する場所
栃木県,芳賀郡茂木町,須藤小学校,栃木県芳賀郡茂木町大字千本457,36.568458,140.149458,1,1,1,1,1,0,300人,,
栃木県,芳賀郡市貝町,きら里館,栃木県芳賀郡市貝町杉山118-7,36.58044869,140.10837697,0,0,1,1,1,0,50人,,災害時に危険を一時的に回避する場所
栃木県,佐野市,旗川小学校,栃木県佐野市並木町964,36.32400847685,139.54994516213,1,0,0,-,-,-,1040人,,指定避難場所
栃木県,下野市,祇園原公園,栃木県下野市祇園3-4,36.392185709564,139.86030306722,-,-,-,-,-,-,,,広域避難場所
栃木県,芳賀郡茂木町,茂木町民体育館,栃木県芳賀郡茂木町大字小井戸2664-1,36.544559,140.175240,1,1,1,1,1,0,1000人,,
栃木県,芳賀郡市貝町,市貝小学校,栃木県芳賀郡市貝町市塙2184,36.53409277,140.10519008,0,0,1,1,1,0,300人,,災害時に危険を一時的に回避する場所（体育館を使用）
栃木県,芳賀郡市貝町,杉山保育所,栃木県芳賀郡市貝町杉山692-1,36.57722124,140.10732717,0,0,1,1,1,0,50人,,災害時に危険を一時的に回避する場所
栃木県,塩谷郡高根沢町,図書館中央館,栃木県塩谷郡高根沢町宝積寺1220-2,36.6275,139.9821,1,1,1,-,-,-,,,地域防災計画に基づく避難所　
栃木県,芳賀郡市貝町,中央公民館,栃木県芳賀郡市貝町上根1577,36.52987893,140.09002489,0,0,1,1,1,0,1500人,,災害時に危険を一時的に回避する場所（町民ホール・トレセン・武道館等を使用）
栃木県,芳賀郡市貝町,小貝小学校,栃木県芳賀郡市貝町文谷1188,36.56876111,140.10848016,0,0,1,1,1,0,300人,,災害時に危険を一時的に回避する場所（体育館を使用）
栃木県,矢板市,東泉公民館,栃木県矢板市東泉593-3,36.837350907691,139.92025271087,1,0,0,-,-,-,,,その他の避難場所
栃木県,那須塩原市,いきいきふれあいセンター,栃木県那須塩原市桜町1-5,36.975471072387,140.05152370059,1,0,0,-,-,-,500人,,指定避難所
栃木県,芳賀郡市貝町,市貝町役場,栃木県芳賀郡市貝町市塙1280,36.54324162,140.10211219,0,0,1,1,1,0,100人,飲料水、食糧品、毛布など,災害時に危険を一時的に回避する場所（厚生棟を使用）
栃木県,塩谷郡高根沢町,東小学校,栃木県塩谷郡高根沢町太田715,36.6275,140.0349,1,1,1,-,-,-,,,地域防災計画に基づく避難所、防災備蓄品配備　
栃木県,芳賀郡市貝町,琴平公民館,栃木県芳賀郡市貝町見上67,36.61955300,140.13158600,0,0,1,1,1,0,50人,,災害時に危険を一時的に回避する場所
栃木県,塩谷郡高根沢町,仁井田ふれあい広場,栃木県塩谷郡高根沢町平田2012-2,36.6553,140.0296,1,1,1,-,-,-,,,地域防災計画に基づく避難所　
栃木県,芳賀郡市貝町,保健福祉センター,栃木県芳賀郡市貝町市塙1720-1,36.53987557,140.10952837,0,0,1,1,1,0,300人,,災害時に危険を一時的に回避する場所
栃木県,塩谷郡高根沢町,上高根沢小学校,栃木県塩谷郡高根沢町上高根沢2080,36.5966,140.0279,1,1,1,-,-,-,,,地域防災計画に基づく避難所、防災備蓄品配備　
栃木県,栃木市,大平南体育館,栃木県栃木市大平町西野田905-1,36.327917017798,139.71509331581,1,0,0,-,-,-,390人,,指定避難場所
栃木県,小山市,城南公園,栃木県小山市東城南4-17,36.292401665784,139.80850251516,-,-,-,-,-,-,,,広域避難場所
栃木県,塩谷郡高根沢町,阿久津小学校,栃木県塩谷郡高根沢町宝積寺1178,36.6281,139.9744,1,1,1,-,-,-,,,地域防災計画に基づく避難所、防災備蓄品配備　
栃木県,塩谷郡高根沢町,台新田公民館,栃木県塩谷郡高根沢町亀梨478,36.6412,140.0571,1,1,1,-,-,-,,,地域防災計画に基づく避難所　
栃木県,塩谷郡高根沢町,北小学校,栃木県塩谷郡高根沢町飯室876,36.6561,140.0359,1,1,1,-,-,-,,,地域防災計画に基づく避難所、防災備蓄品配備　
栃木県,鹿沼市,旧粟野第三小学校,栃木県鹿沼市入粟野,36.581525320732,139.57353867546,-,-,-,-,-,-,100人,,広域避難場所
栃木県,塩谷郡高根沢町,桑窪公民館,栃木県塩谷郡高根沢町桑窪400,36.6167,140.0511,1,1,1,-,-,-,,,地域防災計画に基づく避難所　
栃木県,塩谷郡高根沢町,高根沢高等学校,栃木県塩谷郡高根沢町文挟32-2,36.6585,140.0294,1,1,1,-,-,-,,,地域防災計画に基づく避難所　
栃木県,足利市,南大町自治会館,栃木県足利市,36.319199150989,139.41946321726,-,-,-,-,-,-,,,一時避難場所
栃木県,宇都宮市,豊郷北小学校,栃木県宇都宮市横山町411-3,36.617524176857,139.87976815879,1,0,0,-,-,-,630人,,避難所
栃木県,栃木市,藤岡保育所,栃木県栃木市藤岡町藤岡1135-4,36.261399661653,139.64915670769,1,0,0,-,-,-,100人,,指定避難場所
栃木県,塩谷郡高根沢町,柏崎公民館,栃木県塩谷郡高根沢町中柏崎254-1,36.6110,140.0787,1,1,1,-,-,-,,,地域防災計画に基づく避難所　
栃木県,塩谷郡高根沢町,西小学校,栃木県塩谷郡高根沢町光陽台3-2-3,36.6206,139.9874,1,1,1,-,-,-,,,地域防災計画に基づく避難所、防災備蓄品配備　
栃木県,佐野市,小見町南小見集会所,栃木県佐野市小見町5-1,36.33516586971,139.57067916488,1,0,0,-,-,-,50人,,指定避難場所
栃木県,塩谷郡高根沢町,阿久津中学校,栃木県塩谷郡高根沢町中阿久津1470,36.6385,139.9762,1,1,1,-,-,-,,,地域防災計画に基づく避難所　
栃木県,塩谷郡高根沢町,町民広場,栃木県塩谷郡高根沢町石末1825,36.6374,140.0013,1,1,1,-,-,-,,,地域防災計画に基づく避難所　
栃木県,佐野市,ときわ保育園,栃木県佐野市豊代町2134,36.435103968331,139.58946729842,1,0,0,-,-,-,100人,,指定避難場所
栃木県,宇都宮市,今里集落センター,栃木県宇都宮市今里町903,36.694128791829,139.89485841947,1,0,0,-,-,-,100人,,避難所
栃木県,宇都宮市,桜小学校,栃木県宇都宮市桜3-2-22,36.562888842909,139.86921563491,1,0,0,-,-,-,1300人,,一時避難場所・避難所
栃木県,小山市,小山市立文化センター,栃木県小山市中央町1-1-1,36.313409989694,139.7999997837,1,0,0,-,-,-,201人,,指定避難所
栃木県,佐野市,佐野日大高校,栃木県佐野市石塚町2555,36.354924521718,139.55554080306,1,0,0,-,-,-,4490人,,指定避難場所
栃木県,矢板市,後岡公民館,栃木県矢板市片岡620-1,36.773480777125,139.94409560572,1,0,0,-,-,-,,,その他の避難場所
栃木県,塩谷郡高根沢町,北高根沢中学校,栃木県塩谷郡高根沢町太田753,36.6248,140.0322,1,1,1,-,-,-,,,地域防災計画に基づく避難所　
栃木県,塩谷郡高根沢町,中央小学校,栃木県塩谷郡高根沢町石末2247-1,36.6407,139.9986,1,1,1,-,-,-,,,地域防災計画に基づく避難所、防災備蓄品配備　
栃木県,真岡市,総合福祉保健センター,栃木県真岡市荒町110-1,36.44037903844,140.01676026564,1,0,0,-,-,-,100人,,避難場所
栃木県,那須烏山市,輪之内公民館,栃木県那須烏山市森田561,36.637461411592,140.1178127452,1,0,0,-,-,-,900人,,避難施設
栃木県,栃木市,大平南中学校,栃木県栃木市大平町西野田825,36.327897644457,139.71764023102,1,0,0,-,-,-,450人,,指定避難場所
栃木県,那須郡那珂川町,小川小学校,栃木県那須郡那珂川町小川2846,36.760668957177,140.12948630093,1,0,0,-,-,-,200人,,指定避難所
栃木県,塩谷郡塩谷町,町民熊ノ木体育館,栃木県塩谷郡塩谷町熊の木802,36.800560115569,139.84629106939,1,0,0,-,-,-,600人,,指定避難場所
栃木県,鹿沼市,菊沢コミュニティセンター,栃木県鹿沼市御成橋町2-2197-1,36.585324660135,139.747564028,1,0,0,-,-,-,264人,,指定避難場所・地区別避難所
栃木県,塩谷郡高根沢町,大谷集落センター,栃木県塩谷郡高根沢町大谷914,36.6605,139.9868,1,1,1,-,-,-,,,地域防災計画に基づく避難所　
栃木県,さくら市,喜連川中学校,栃木県さくら市喜連川5691,36.731008297791,140.03366540547,1,0,0,-,-,-,1000人,,避難所
栃木県,足利市,八幡町三丁目公園,栃木県足利市,36.322780614749,139.43308451943,-,-,-,-,-,-,,,一時避難場所
栃木県,足利市,上濁沼自治会館,栃木県足利市,36.385985644415,139.36524555917,-,-,-,-,-,-,,,一時避難場所
栃木県,大田原市,佐良土ほほえみセンター,栃木県大田原市佐良土1396,36.79278444705,140.12399407417,1,0,0,-,-,-,156人,,避難場所
栃木県,大田原市,両郷地区コミュニティーセンター,栃木県大田原市中野内773,36.918323988454,140.15240183632,1,0,0,-,-,-,65人,,避難場所
栃木県,宇都宮市,新田小学校,栃木県宇都宮市針ケ谷1-18-21,36.493981822335,139.85259769638,1,0,0,-,-,-,1100人,,避難所
栃木県,日光市,とちぎ日光材細尾モデルセンター,栃木県日光市細尾町428-1,36.729924224035,139.5478100164,1,0,0,-,-,-,45人,,避難所
栃木県,さくら市,氏家中学校,栃木県さくら市氏家3243,36.699846502009,139.96964571043,1,0,0,-,-,-,2200人,,避難所
栃木県,宇都宮市,御幸地域コミュニティセンター,栃木県宇都宮市御幸本町4638-1,36.575968317181,139.92461963877,1,0,0,-,-,-,20人,,避難所
栃木県,宇都宮市,白沢小学校,栃木県宇都宮市白沢町1643,36.636462534477,139.94041475638,1,0,0,-,-,-,500人,,避難所
栃木県,足利市,常見町東児童公園,栃木県足利市,36.317807542302,139.48892760625,-,-,-,-,-,-,,,一時避難場所
栃木県,大田原市,湯津上小学校,栃木県大田原市湯津上1156,36.827069319603,140.12137670506,1,0,0,-,-,-,246人,,避難場所
栃木県,宇都宮市,雀宮中学校,栃木県宇都宮市雀の宮7-28-16,36.487705020045,139.86301116425,1,0,0,-,-,-,1500人,,避難所
栃木県,さくら市,氏家福祉センター,栃木県さくら市桜野1329,36.686623533165,139.97023965989,1,0,0,-,-,-,150人,,避難所
栃木県,宇都宮市,宇都宮地方裁判所,栃木県宇都宮市小幡1-1-38,36.562447377811,139.87492072233,-,-,-,-,-,-,1600人,,一時避難場所
栃木県,佐野市,秋山川浄化センター,栃木県佐野市植下町3300,36.290789956418,139.57111489168,1,0,0,-,-,-,200人,,指定避難場所
栃木県,日光市,藤原総合文化会館,栃木県日光市鬼怒川温泉大原1404-1,36.82346263309,139.7150740863,1,0,0,-,-,-,1579人,,避難所
栃木県,那須塩原市,大山公民館,栃木県那須塩原市下永田8-7-86,36.87287214774,140.00167002483,1,0,0,-,-,-,200人,,指定避難所
栃木県,鹿沼市,北犬飼コミュニティセンター,栃木県鹿沼市さつき町15,36.536942961438,139.80604974985,1,0,0,-,-,-,160人,,地区別避難所
栃木県,大田原市,蜂巣集落センター,栃木県大田原市蜂巣195,36.879551591755,140.10321185998,1,0,0,-,-,-,30人,,避難場所
栃木県,佐野市,植野地区公民館,栃木県佐野市寺中町2297-1,36.301633514682,139.57609450979,1,0,0,-,-,-,260人,,指定避難場所
栃木県,矢板市,木幡東公民館,栃木県矢板市木幡879,36.787635597777,139.93451479775,1,0,0,-,-,-,,,その他の避難場所
栃木県,宇都宮市,篠井小学校,栃木県宇都宮市下小池町569-37,36.681342099517,139.81307354389,1,0,0,-,-,-,640人,,避難所
栃木県,下都賀郡壬生町,壬生小学校,栃木県下都賀郡壬生町本丸2-3-7,36.425763119574,139.79932136622,1,0,0,-,-,-,5368人,,指定避難場所
栃木県,日光市,餅が瀬集会所,栃木県日光市足尾町3792-2,36.621473650697,139.39114912392,1,0,0,-,-,-,45人,,避難所
栃木県,栃木市,大平公民館,栃木県栃木市大平町蔵井2001-3,36.344680956917,139.7121314928,1,0,0,-,-,-,90人,,指定避難場所
栃木県,小山市,白鴎大学本校舎,栃木県小山市大字大行寺1117,36.315118463109,139.79278340742,1,0,0,-,-,-,738人,,指定避難所
栃木県,那須郡那須町,黒田原小学校,栃木県那須郡那須町寺子乙3968-1,37.020139591486,140.12290035094,1,0,0,-,-,-,970人,,指定避難所
栃木県,大田原市,両郷中央小学校,栃木県大田原市中野内809,36.918151846842,140.15459604567,1,0,0,-,-,-,230人,,避難場所
栃木県,鹿沼市,粟野第二小学校,栃木県鹿沼市中粟野1057,36.550996594478,139.61498703655,1,0,0,-,-,-,281人,,避難所
栃木県,真岡市,中村小学校,栃木県真岡市中302,36.420201867466,139.95496713263,1,0,0,-,-,-,200人,,避難場所
栃木県,河内郡上三川町,明治南小学校,栃木県河内郡上三川町多功1412,36.42727071386,139.8797540302,1,0,0,-,-,-,300人,,指定避難場所
栃木県,真岡市,長沼中学校,栃木県真岡市長沼706,36.359722634225,139.93111265571,1,0,0,-,-,-,200人,,避難場所
栃木県,鹿沼市,清洲コミュニティセンター,栃木県鹿沼市深程116-1,36.495742256537,139.71824409494,1,0,0,-,-,-,86人,,地区別避難所
栃木県,佐野市,アリーナたぬま,栃木県佐野市戸奈良町21,36.373925213515,139.56858339176,1,0,0,-,-,-,1500人,,指定避難場所
栃木県,那須烏山市,志鳥地区公民館,栃木県那須烏山市志鳥930,36.718119650159,140.10493347711,1,0,0,-,-,-,1200人,,避難施設
栃木県,さくら市,女性アグリセンター,栃木県さくら市箱森新田157,36.715650305937,139.96864809863,1,0,0,-,-,-,90人,,避難所
栃木県,宇都宮市,富屋地区市民センター,栃木県宇都宮市徳次郎町80-2,36.644745038052,139.84738928003,1,0,0,-,-,-,220人,,避難所
栃木県,芳賀郡芳賀町,体育館,栃木県芳賀郡芳賀町祖母井570,36.549825648574,140.05979877363,1,0,0,-,-,-,200人,,指定避難場所
栃木県,宇都宮市,金田多目的集会施設,栃木県宇都宮市金田町798,36.665688642717,139.89795764759,1,0,0,-,-,-,90人,,避難所
栃木県,足利市,梁田公民館,栃木県足利市,36.305942015108,139.48114467858,-,-,-,-,-,-,,,一時避難場所
栃木県,小山市,小山第三中学校,栃木県小山市犬塚3-29-1,36.314353151487,139.83182823428,1,0,0,-,-,-,445人,,指定避難所
栃木県,真岡市,真岡市公民館真岡西分館,栃木県真岡市西高間木539-1,36.446571974226,139.97970543135,1,0,0,-,-,-,100人,,避難場所
栃木県,大田原市,大田原女子高等学校,栃木県大田原市元町1-5-43,36.861402158613,140.03374549697,1,0,0,-,-,-,530人,,避難場所
栃木県,宇都宮市,今泉小学校,栃木県宇都宮市元今泉1-7-29,36.560420787325,139.90250473292,1,0,0,-,-,-,970人,,一時避難場所・避難所
栃木県,大田原市,親園中学校,栃木県大田原市花園1-87,36.832310261748,140.02606725341,1,0,0,-,-,-,425人,,避難場所
栃木県,栃木市,藤岡第一中学校,栃木県栃木市藤岡町藤岡10,36.269437698171,139.65267861347,1,0,0,-,-,-,500人,,指定避難場所
栃木県,下野市,南河内東体育館,栃木県下野市本吉田783,36.374256176107,139.90908095222,1,0,0,-,-,-,400人,,指定避難場所・指定避難所
栃木県,足利市,鵤木町自治会館,栃木県足利市,36.317833745559,139.49242222854,-,-,-,-,-,-,,,一時避難場所
栃木県,宇都宮市,城山地区市民センター,栃木県宇都宮市大谷町1059-5,36.589145747568,139.82556210648,1,0,0,-,-,-,250人,,避難所
栃木県,大田原市,木佐美集会所,栃木県大田原市木佐美287,36.909394202818,140.17062599225,1,0,0,-,-,-,30人,,避難場所
栃木県,足利市,北中学校セミナーハウス,栃木県足利市名草中町1618-1,36.393957035754,139.47795825493,1,0,0,-,-,-,382人,,指定避難所
栃木県,足利市,愛宕台中学校,栃木県足利市高松町433,36.282347045005,139.492564973,1,0,0,-,-,-,696人,,一時避難場所・指定避難所
栃木県,足利市,磯入自治会館,栃木県足利市,36.325996063149,139.50759102318,-,-,-,-,-,-,,,一時避難場所
栃木県,栃木市,皆川中学校,栃木県栃木市皆川城内町1856,36.39271902291,139.6812805233,1,0,0,-,-,-,600人,,指定避難場所
栃木県,那須塩原市,三島体育センター,栃木県那須塩原市三島5-1番地内,36.900842518082,139.96861923938,1,0,0,-,-,-,600人,,指定避難所
栃木県,宇都宮市,平石北小学校,栃木県宇都宮市平出町1804,36.575662439835,139.95191599369,1,0,0,-,-,-,630人,,避難所
栃木県,足利市,三島神社境内,栃木県足利市,36.359725857034,139.38918160305,-,-,-,-,-,-,,,一時避難場所
栃木県,矢板市,きずな館,栃木県矢板市扇町2-4-19,36.812396429862,139.93123035988,1,0,0,-,-,-,26人,,指定避難場所
栃木県,佐野市,下牧農村生活センター,栃木県佐野市牧794-1,36.44283635878,139.58030697054,1,0,0,-,-,-,100人,,指定避難場所
栃木県,下野市,石橋小学校体育館,栃木県下野市石橋113,36.431911521367,139.86227443643,1,0,0,-,-,-,410人,,指定避難場所・指定避難所
栃木県,那須烏山市,藤田公民館,栃木県那須烏山市藤田784-1,36.680477250173,140.08704327778,1,0,0,-,-,-,700人,,避難施設
栃木県,足利市,名草上町自治会館,栃木県足利市,36.410588175916,139.4700823054,-,-,-,-,-,-,,,一時避難場所
栃木県,足利市,長福寺境内,栃木県足利市,36.303733240188,139.48742743263,-,-,-,-,-,-,,,一時避難場所
栃木県,大田原市,久野又集会所,栃木県大田原市久野又249-2,36.895187058328,140.14714164754,1,0,0,-,-,-,30人,,避難場所
栃木県,日光市,藤原中学校,栃木県日光市鬼怒川温泉大原790,36.817749155516,139.71472992883,1,0,0,-,-,-,439人,,避難所・広域避難場所
栃木県,矢板市,城の湯ふれあい館,栃木県矢板市幸岡18,36.794456388915,139.91706908441,1,0,0,-,-,-,50人,,指定避難場所
栃木県,那須烏山市,神長公民館,栃木県那須烏山市神長760,36.657178558021,140.13699857824,1,0,0,-,-,-,50人,,避難施設
栃木県,栃木市,保健センター,栃木県栃木市西方町本城1,36.465962388385,139.74445653123,1,0,0,-,-,-,102人,,指定避難場所
栃木県,矢板市,田野原公民館,栃木県矢板市田野原315-1,36.848069053715,139.91071465356,1,0,0,-,-,-,,,その他の避難場所
栃木県,足利市,生涯学習センター,栃木県足利市相生町1-1,36.334851536847,139.45991698798,1,0,0,-,-,-,427人,,一時避難場所・指定避難所
栃木県,大田原市,前田集会所,栃木県大田原市前田212-3,36.868324943134,140.12561932655,1,0,0,-,-,-,30人,,避難場所
栃木県,栃木市,いまいずみ保育園,栃木県栃木市今泉町2-2-1,36.382877783204,139.74508740014,1,0,0,-,-,-,30人,,指定避難場所
栃木県,足利市,小俣運動公園,栃木県足利市,36.366438901847,139.37500365605,-,-,-,-,-,-,,,一時避難場所
栃木県,佐野市,多田町集会所,栃木県佐野市多田町804-3,36.376150240231,139.59724190438,1,0,0,-,-,-,60人,,指定避難場所
栃木県,さくら市,草川第1公園,栃木県さくら市草川18-1,36.686516965399,139.94975358266,-,-,-,-,-,-,910人,,避難場所
栃木県,栃木市,学悠館高校,栃木県栃木市河合町12-2,36.373445184703,139.733847728,1,0,0,-,-,-,745人,,指定避難場所
栃木県,足利市,足工大付属高校,栃木県足利市,36.315700228223,139.46197691134,-,-,-,-,-,-,,,一時避難場所
栃木県,佐野市,葛生中学校,栃木県佐野市葛生西3-4-1,36.410490161225,139.61072155957,1,0,0,-,-,-,600人,,指定避難場所
栃木県,佐野市,米山保育園,栃木県佐野市米山南町39,36.324015290093,139.60756278291,1,0,0,-,-,-,60人,,指定避難場所
栃木県,足利市,北郷公園,栃木県足利市,36.34920598807,139.46890440802,-,-,-,-,-,-,,,一時避難場所
栃木県,小山市,小山工業高等専門学校,栃木県小山市大字中久喜771,36.318740944777,139.84292925539,1,0,0,-,-,-,553人,,指定避難所
栃木県,日光市,足尾小学校,栃木県日光市足尾町赤沢6-2,36.636019675483,139.44316805969,1,0,0,-,-,-,255人,,避難所・広域避難場所
栃木県,真岡市,山前小学校,栃木県真岡市小林672-2,36.429847762105,140.04134161697,1,0,0,-,-,-,200人,,避難場所
栃木県,足利市,中橋緑地公園,栃木県足利市,36.332075178517,139.44559769117,-,-,-,-,-,-,,,一時避難場所
栃木県,足利市,富田中学校,栃木県足利市駒場町359,36.32125844059,139.53279932022,1,0,0,-,-,-,648人,,一時避難場所・指定避難所
栃木県,河内郡上三川町,北小学校,栃木県河内郡上三川町上蒲生1725,36.457162213834,139.90198968418,1,0,0,-,-,-,500人,,指定避難場所
栃木県,鹿沼市,粕尾コミュニティセンター,栃木県鹿沼市粕尾273-2,36.520304057993,139.60784030668,1,0,0,-,-,-,73人,,地区別避難所
栃木県,鹿沼市,南押原小学校,栃木県鹿沼市磯町117,36.492129704158,139.75500251965,1,0,0,-,-,-,446人,,避難所
栃木県,小山市,間々田八幡公園,栃木県小山市間々田2369,36.275306259296,139.7669318581,-,-,-,-,-,-,,,広域避難場所
栃木県,小山市,萱橋小学校,栃木県小山市萱橋1169-1,36.329002737576,139.86834161547,1,0,0,-,-,-,199人,,指定避難所
栃木県,宇都宮市,城山東小学校,栃木県宇都宮市駒生町2360,36.590542878867,139.83168109548,1,0,0,-,-,-,560人,,避難所
栃木県,佐野市,常盤中学校,栃木県佐野市豊代町2167,36.433195866661,139.59062004763,1,0,0,-,-,-,300人,,指定避難場所
栃木県,那須塩原市,三島小学校,栃木県那須塩原市三島1-21,36.895529571387,139.97652149563,1,0,0,-,-,-,250人,,指定避難所
栃木県,宇都宮市,宇都宮商業高校,栃木県宇都宮市大曽3-1-46,36.572113303834,139.8910410735,-,-,-,-,-,-,3900人,,一時避難場所
栃木県,佐野市,伊勢山保育園,栃木県佐野市相生町207-1,36.315751670574,139.5826404879,1,0,0,-,-,-,100人,,指定避難場所
栃木県,那須塩原市,烏ヶ森公園,栃木県那須塩原市三区町636番地内,36.889630877483,139.96395646595,-,-,-,-,-,-,200人,,指定避難所
栃木県,那須塩原市,共英小学校,栃木県那須塩原市共墾社99-1,36.963189021673,140.04649104893,1,0,0,-,-,-,263人,,指定避難所
栃木県,宇都宮市,宇都宮文星女子高校,栃木県宇都宮市北一の沢町24-35,36.572748595184,139.86196291737,-,-,-,-,-,-,3250人,,一時避難場所
栃木県,足利市,農協いちご集荷場,栃木県足利市,36.295024496413,139.48474172134,-,-,-,-,-,-,,,一時避難場所
栃木県,鹿沼市,藤江地区コミュニティセンター,栃木県鹿沼市,36.497263490704,139.76702279398,1,0,0,-,-,-,60人,,避難所
栃木県,那須烏山市,熊田西公民館,栃木県那須烏山市熊田555,36.682460736538,140.11202423217,1,0,0,-,-,-,1000人,,避難施設
栃木県,那須郡那須町,伊王野基幹集落センター,栃木県那須郡那須町伊王野1440,36.958547502032,140.16446913808,1,0,0,-,-,-,90人,,指定避難所
栃木県,宇都宮市,豊郷中央小学校,栃木県宇都宮市関堀町337,36.597488684077,139.89781147359,1,0,0,-,-,-,1100人,,避難所
栃木県,日光市,上栗山集会所,栃木県日光市上栗山197-31,36.8651215977,139.58388868206,1,0,0,-,-,-,98人,,避難所
栃木県,那須郡那珂川町,浄法寺公民館,栃木県那須郡那珂川町浄法寺882,36.785445713316,140.10750656737,1,0,0,-,-,-,30人,,指定避難所
栃木県,那須郡那須町,美野沢小学校,栃木県那須郡那須町蓑沢563-4,36.983968030921,140.20729241163,1,0,0,-,-,-,370人,,指定避難所
栃木県,大田原市,黒羽中学校,栃木県大田原市北野上3597-1,36.887651221682,140.13570938805,1,0,0,-,-,-,966人,,避難場所
栃木県,大田原市,ピアートホール,栃木県大田原市堀之内656-1,36.881340517549,140.1302460855,1,0,0,-,-,-,1023人,,避難場所
栃木県,鹿沼市,鹿沼商工高等学校,栃木県鹿沼市,36.555704836411,139.7408804116,1,0,0,-,-,-,1511人,,避難所
栃木県,足利市,恵性院,栃木県足利市,36.382722064055,139.3719355948,-,-,-,-,-,-,,,一時避難場所
栃木県,足利市,民俗資料室,栃木県足利市月谷町1105,36.371750848885,139.45511949012,1,0,0,-,-,-,355人,,一時避難場所・指定避難所
栃木県,宇都宮市,細谷小学校,栃木県宇都宮市細谷1-4-38,36.591026708637,139.8552766801,1,0,0,-,-,-,1100人,,一時避難場所・避難所
栃木県,さくら市,上松山小学校,栃木県さくら市氏家3496,36.706751047491,139.96944831454,1,0,0,-,-,-,980人,,避難所
栃木県,那須塩原市,稲村小学校,栃木県那須塩原市埼玉8,36.97955059656,140.02742596668,1,0,0,-,-,-,220人,,指定避難所
栃木県,下野市,国分寺小学校体育館,栃木県下野市小金井4-2-3,36.380409007174,139.84101718952,1,0,0,-,-,-,400人,,指定避難場所・指定避難所
栃木県,佐野市,飛駒基幹集落センター,栃木県佐野市飛駒町1576-2,36.454680960041,139.46720038674,1,0,0,-,-,-,100人,,指定避難場所
栃木県,日光市,藤原保育園,栃木県日光市藤原419,36.854739863243,139.73231595047,1,0,0,-,-,-,138人,,避難所
栃木県,日光市,今市中学校,栃木県日光市今市1659,36.727587745079,139.71430468279,1,0,0,-,-,-,1090人,,避難所・広域避難場所
栃木県,足利市,西中学校,栃木県足利市山下町2539,36.347494287002,139.41517236415,1,0,0,-,-,-,1000人,,一時避難場所・指定避難所
栃木県,宇都宮市,県庁,栃木県宇都宮市塙田1-1-20,36.565755591778,139.88290331064,-,-,-,-,-,-,3900人,,一時避難場所
栃木県,矢板市,片俣公民館,栃木県矢板市片俣610,36.802096931883,139.88944343204,1,0,0,-,-,-,,,その他の避難場所
栃木県,那須郡那須町,那須高等学校,栃木県那須郡那須町寺子乙3932-48,37.012612714061,140.12779184168,1,0,0,-,-,-,1800人,,指定避難所
栃木県,矢板市,荒井公民館,栃木県矢板市荒井295-3,36.820555957903,139.92269473863,1,0,0,-,-,-,,,その他の避難場所
栃木県,足利市,山辺中学校,栃木県足利市西新井町3157,36.316663811712,139.43376444764,1,0,0,-,-,-,1222人,,一時避難場所・指定避難所
栃木県,宇都宮市,城山中学校,栃木県宇都宮市大谷町1423,36.592486592932,139.81288256374,1,0,0,-,-,-,780人,,避難所
栃木県,芳賀郡芳賀町,芳賀中学校,栃木県芳賀郡芳賀町与能855-1,36.539479321418,140.03774831574,1,0,0,-,-,-,500人,,指定避難場所・指定避難所
栃木県,足利市,第三中学校,栃木県足利市常磐町67,36.326599341079,139.46807077098,1,0,0,-,-,-,942人,,一時避難場所・指定避難所
栃木県,宇都宮市,国本中央小学校,栃木県宇都宮市宝木本町1864-1,36.613776164375,139.83949619428,1,0,0,-,-,-,590人,,避難所
栃木県,栃木市,寺尾南小学校,栃木県栃木市尻内町680-1,36.428856036162,139.67306242925,1,0,0,-,-,-,300人,,指定避難場所
栃木県,那須郡那須町,田代小学校,栃木県那須郡那須町高久乙196-3,37.020570650093,140.02587556081,1,0,0,-,-,-,400人,,指定避難所
栃木県,小山市,小山北桜高等学校,栃木県小山市東山田448-29,36.355940669047,139.86516631258,1,0,0,-,-,-,3182人,,指定避難所
栃木県,真岡市,真岡小学校,栃木県真岡市台町4184,36.443059204957,140.00645573376,1,0,0,-,-,-,250人,,避難場所
栃木県,宇都宮市,陽東小学校,栃木県宇都宮市陽東2-16-36,36.551667400442,139.92687072656,1,0,0,-,-,-,1100人,,避難所
栃木県,足利市,上児童公園,栃木県足利市,36.27303707833,139.46577990862,-,-,-,-,-,-,,,一時避難場所
栃木県,栃木市,とちぎコミュニティプラザ,栃木県栃木市箱森町36-31,36.393281256056,139.72638052436,1,0,0,-,-,-,700人,,指定避難場所
栃木県,佐野市,旗川地区公民館,栃木県佐野市並木町957-1,36.325005587596,139.55062566177,1,0,0,-,-,-,140人,,指定避難場所
栃木県,芳賀郡益子町,あぐり館,栃木県芳賀郡益子町大沢3535,36.495027613903,140.1139307295,1,0,0,-,-,-,200人,,指定避難場所
栃木県,宇都宮市,清原北小学校,栃木県宇都宮市板戸町1765,36.595280030168,139.98060691079,1,0,0,-,-,-,370人,,避難所
栃木県,佐野市,堀米保育園,栃木県佐野市堀米町990,36.328594653624,139.58172030591,1,0,0,-,-,-,90人,,指定避難場所
栃木県,宇都宮市,陽南小学校,栃木県宇都宮市大和1-10-15,36.533522863334,139.86382457482,1,0,0,-,-,-,1400人,,一時避難場所・避難所
栃木県,那須塩原市,ハロープラザ,栃木県那須塩原市関谷1266-4,36.945133522733,139.89646919507,1,0,0,-,-,-,550人,,指定避難所
栃木県,那須烏山市,南那須公民館,栃木県那須烏山市岩子6-1,36.659296876622,140.09990740216,1,0,0,-,-,-,,,避難施設
栃木県,芳賀郡益子町,県立益子芳星高校,栃木県芳賀郡益子町塙2382-1,36.488319727726,140.085999497,1,0,0,-,-,-,2400人,,指定避難場所
栃木県,那須郡那珂川町,旧大山田小学校,栃木県那須郡那珂川町大山田下郷955,36.803169113229,140.21704410541,1,0,0,-,-,-,150人,,指定避難所
栃木県,矢板市,玉田公民館,栃木県矢板市玉田131,36.758663487954,139.92025645268,1,0,0,-,-,-,,,その他の避難場所
栃木県,那須烏山市,烏山高校,栃木県那須烏山市中央3-9-8,36.663345079712,140.15266903363,1,0,0,-,-,-,2000人,,避難施設
栃木県,宇都宮市,陽東中学校,栃木県宇都宮市石井町2800-42,36.544528702964,139.92983357883,1,0,0,-,-,-,1900人,,避難所
栃木県,那須烏山市,境小学校,栃木県那須烏山市上境1404,36.63709027486,140.17417674056,1,0,0,-,-,-,1400人,,避難施設
栃木県,日光市,今市保健福祉センター,栃木県日光市平ケ崎109,36.72107368405,139.68409420869,1,0,0,-,-,-,1049人,,避難所・広域避難場所
栃木県,那須郡那須町,ゆめプラザ（保健センター）,栃木県那須郡那須町寺子乙2566-1,37.016387043208,140.10937650495,1,0,0,-,-,-,490人,,指定避難所
栃木県,宇都宮市,一条中学校,栃木県宇都宮市一条1-4-7,36.553590160956,139.88000139827,1,0,0,-,-,-,1800人,,一時避難場所・避難所
栃木県,さくら市,駅西2号公園,栃木県さくら市卯の里2-25-3,36.682409386083,139.95978610807,-,-,-,-,-,-,130人,,避難場所
栃木県,那須烏山市,境公民館,栃木県那須烏山市上境290-1,36.649516355341,140.17342090514,1,0,0,-,-,-,100人,,避難施設
栃木県,下都賀郡岩舟町,岩舟下津原集会所,栃木県栃木市岩舟町下津原620-1,36.314756342446,139.64266798795,1,0,0,-,-,-,,,指定避難場所
栃木県,矢板市,平野公民館,栃木県矢板市平野471,36.850996196011,139.89522712342,1,0,0,-,-,-,,,その他の避難場所
栃木県,足利市,山前公民館,栃木県足利市,36.347838537201,139.40726902988,-,-,-,-,-,-,,,一時避難場所
栃木県,足利市,上渋垂町住宅団地公園,栃木県足利市,36.304137012739,139.46736650841,-,-,-,-,-,-,,,一時避難場所
栃木県,宇都宮市,宇都宮女子高校,栃木県宇都宮市操町5-19,36.558205979445,139.87018800188,-,-,-,-,-,-,1600人,,一時避難場所
栃木県,下野市,保健福祉センターきらら館,栃木県下野市下古山1220,36.445120344366,139.84358085819,1,0,0,-,-,-,700人,,指定避難場所・指定避難所・福祉避難所
栃木県,大田原市,野崎研修センター,栃木県大田原市下石上1695-8,36.848843703069,139.95457901003,1,0,0,-,-,-,88人,,避難場所
栃木県,日光市,大沢小学校,栃木県日光市大沢町97,36.696418150582,139.75490386785,1,0,0,-,-,-,320人,,避難所・広域避難場所
栃木県,足利市,上野田町児童公園,栃木県足利市,36.37389734227,139.37950073685,-,-,-,-,-,-,,,一時避難場所
栃木県,足利市,宮先自治会館,栃木県足利市,36.328176092735,139.48351307522,-,-,-,-,-,-,,,一時避難場所
栃木県,下野市,細谷小学校体育館,栃木県下野市細谷693,36.425639092953,139.83148800281,1,0,0,-,-,-,250人,,指定避難場所・指定避難所
栃木県,真岡市,真岡東中学校,栃木県真岡市田町1256-18,36.437626740793,140.0220682304,1,0,0,-,-,-,300人,,避難場所
栃木県,佐野市,赤見城保育園,栃木県佐野市赤見町3572,36.353313210972,139.5338009781,1,0,0,-,-,-,70人,,指定避難場所
栃木県,日光市,三依小学校,栃木県日光市芹沢20,36.984684771274,139.69200383999,1,0,0,-,-,-,,,広域避難場所
栃木県,栃木市,栃木文化会館,栃木県栃木市旭町12-16,36.376906069159,139.73733042562,1,0,0,-,-,-,700人,,指定避難場所
栃木県,那須郡那珂川町,第8区農村生活センター,栃木県那須郡那珂川町片平184-1,36.74428997666,140.12211514292,1,0,0,-,-,-,50人,,指定避難所
栃木県,宇都宮市,清原中学校,栃木県宇都宮市鐺山町231,36.541338311356,139.97424096183,1,0,0,-,-,-,1200人,,避難所
栃木県,さくら市,氏家小学校,栃木県さくら市氏家2491,36.685897947341,139.96319675725,1,0,0,-,-,-,1550人,,避難所
栃木県,小山市,小山城南高等学校,栃木県小山市西城南4-26-1,36.292068236929,139.80278628194,1,0,0,-,-,-,1428人,,指定避難所
栃木県,日光市,湯西川下地区集会所,栃木県日光市湯西川168-7,36.966734523144,139.61243657469,1,0,0,-,-,-,169人,,避難所
栃木県,宇都宮市,宮原運動公園,栃木県宇都宮市陽南4-5-6,36.538313571834,139.86831685759,-,-,-,-,-,-,7600人,,広域避難場所
栃木県,日光市,小原地区多目的集会所,栃木県日光市藤原128,36.845313061612,139.72785556235,1,0,0,-,-,-,95人,,避難所
栃木県,宇都宮市,豊郷地区市民センター,栃木県宇都宮市岩曽町825-1,36.587742725317,139.90300026056,1,0,0,-,-,-,220人,,避難所
栃木県,佐野市,戸奈良地区コミュニティセンター,栃木県佐野市戸奈良町970-1,36.376602419981,139.55895353522,1,0,0,-,-,-,70人,,指定避難場所
栃木県,さくら市,旧河戸小学校体育館,栃木県さくら市上河戸1826,36.773577670882,140.0036494599,1,0,0,-,-,-,140人,,避難所
栃木県,下都賀郡壬生町,稲葉地区公民館,栃木県下都賀郡壬生町上稲葉932,36.448501572574,139.77953058982,1,0,0,-,-,-,312人,,指定避難場所
栃木県,鹿沼市,粟野中学校,栃木県鹿沼市口粟野1160,36.508520078922,139.66084917209,1,0,0,-,-,-,1090人,,避難所・広域避難場所
栃木県,栃木市,栃木第三小学校,栃木県栃木市小平町13-39,36.389420836444,139.73084393754,1,0,0,-,-,-,1400人,,指定避難場所
栃木県,足利市,赤城神社境内,栃木県足利市,36.284896057261,139.50583112203,-,-,-,-,-,-,,,一時避難場所
栃木県,芳賀郡益子町,益子町保健センター,栃木県芳賀郡益子町益子1591-3,36.463622638299,140.0891836609,1,0,0,-,-,-,200人,,指定避難場所
栃木県,佐野市,犬伏東小学校,栃木県佐野市伊勢山町1534,36.318016135113,139.61167102849,1,0,0,-,-,-,1220人,,指定避難場所
栃木県,佐野市,くずう保育園,栃木県佐野市葛生東1-15-20,36.402457964411,139.61392475116,1,0,0,-,-,-,160人,,指定避難場所
栃木県,足利市,母衣輪神社,栃木県足利市,36.306120997149,139.45607081514,-,-,-,-,-,-,,,一時避難場所
栃木県,佐野市,葛生農業者トレーニングセンター,栃木県佐野市あくと町3092,36.406968298695,139.6056252618,1,0,0,-,-,-,700人,,指定避難場所
栃木県,矢板市,矢板市泉公民館,栃木県矢板市泉428,36.843180791608,139.90980098931,1,0,0,-,-,-,145人,,指定避難場所・その他の避難場所
栃木県,大田原市,須佐木中組公民館,栃木県大田原市須佐木750,36.83895872017,140.19112090012,1,0,0,-,-,-,30人,,避難場所
栃木県,栃木市,栃木第四小学校,栃木県栃木市城内町1-3-15,36.375859047881,139.74143298264,1,0,0,-,-,-,900人,,指定避難場所
栃木県,足利市,神社登り口（亀山商店前）,栃木県足利市,36.327427721598,139.49701525224,-,-,-,-,-,-,,,一時避難場所
栃木県,日光市,南橋集会所,栃木県日光市足尾町南橋2-6,36.662719671632,139.44500876921,1,0,0,-,-,-,33人,,避難所
栃木県,下都賀郡壬生町,南犬飼地区公民館,栃木県下都賀郡壬生町安塚1179,36.479824584056,139.83238613968,1,0,0,-,-,-,1249人,,指定避難場所
栃木県,大田原市,堀之内集会所,栃木県大田原市堀之内87,36.873720984481,140.12793077934,1,0,0,-,-,-,30人,,避難場所
栃木県,大田原市,奥沢小学校,栃木県大田原市奥沢175,36.856611806563,140.0683905246,1,0,0,-,-,-,224人,,避難場所
栃木県,栃木市,部屋地区公民館,栃木県栃木市藤岡町部屋454-1,36.274379532048,139.71240678487,1,0,0,-,-,-,100人,,指定避難場所
栃木県,栃木市,ゆうゆうプラザ,栃木県栃木市大平町西野田666-1,36.335871670105,139.71840663097,1,0,0,-,-,-,350人,,指定避難場所
栃木県,佐野市,船越北部集落センター,栃木県佐野市船越町1791-9,36.413739044822,139.56689856145,1,0,0,-,-,-,50人,,指定避難場所
栃木県,佐野市,葛生あくとプラザ,栃木県佐野市あくと町3084,36.407815361031,139.6044475435,1,0,0,-,-,-,600人,,指定避難場所
栃木県,那須郡那珂川町,旧健武小学校,栃木県那須郡那珂川町健武2146,36.75025993097,140.19017582457,1,0,0,-,-,-,300人,,指定避難所
栃木県,足利市,毛野南小学校,栃木県足利市常見町1-4,36.318306749381,139.48399593723,1,0,0,-,-,-,439人,,一時避難場所・指定避難所
栃木県,鹿沼市,西大芦小学校,栃木県鹿沼市草久960,36.639831927133,139.6061586167,1,0,0,-,-,-,229人,,避難所
栃木県,芳賀郡芳賀町,南高根沢保育園,栃木県芳賀郡芳賀町芳志戸1024,36.575669703786,140.04837374183,1,0,0,-,-,-,50人,,指定避難場所
栃木県,那須烏山市,旧烏山女子高校,栃木県那須烏山市金井1-4-23,36.654412736577,140.15037525423,1,0,0,-,-,-,1500人,,避難施設
栃木県,佐野市,あづま保育園,栃木県佐野市上羽田町829-1,36.299874497121,139.54328287509,1,0,0,-,-,-,200人,,指定避難場所
栃木県,宇都宮市,瑞穂野南小学校,栃木県宇都宮市西刑部町444,36.491834300513,139.94029012116,1,0,0,-,-,-,290人,,避難所
栃木県,大田原市,黒羽体育館,栃木県大田原市前田1020,36.870644324182,140.12270276821,1,0,0,-,-,-,991人,,避難場所
栃木県,芳賀郡益子町,益子町総合体育館,栃木県芳賀郡益子町益子3667-3,36.470472579748,140.09951322674,1,0,0,-,-,-,1200人,,指定避難場所
栃木県,下野市,グリムの館,栃木県下野市下古山747,36.449067855226,139.85873233457,1,0,0,-,-,-,230人,,指定避難場所・指定避難所
栃木県,日光市,栗山中学校,栃木県日光市日向1456,36.878924012646,139.64793333942,1,0,0,-,-,-,283人,,避難所・広域避難場所
栃木県,那須郡那珂川町,上芳井公民館,栃木県那須郡那珂川町芳井148,36.7819923406,140.06074606138,1,0,0,-,-,-,40人,,指定避難所
栃木県,那須郡那須町,大島小学校,栃木県那須郡那須町大島18-1,37.044352451906,140.08779682283,1,0,0,-,-,-,430人,,指定避難所
栃木県,宇都宮市,国本中学校,栃木県宇都宮市新里町丁1608-19,36.616253588942,139.83794336995,1,0,0,-,-,-,670人,,避難所
栃木県,大田原市,黒羽運動公園,栃木県大田原市大輪1726,36.886603804017,140.13543443479,-,-,-,-,-,-,123681人,,避難場所
栃木県,鹿沼市,加蘇コミュニティセンター,栃木県鹿沼市加園1364,36.561049733067,139.68925929633,1,0,0,-,-,-,260人,,地区別避難所
栃木県,那須郡那珂川町,第一区公民館,栃木県那須郡那珂川町小川3414,36.775574822217,140.11912272314,1,0,0,-,-,-,20人,,指定避難所
栃木県,那須郡那珂川町,馬頭西体育館,栃木県那須郡那珂川町小口1702,36.768318590409,140.14402397325,1,0,0,-,-,-,200人,,指定避難所
栃木県,塩谷郡塩谷町,船生西小学校,栃木県塩谷郡塩谷町船生6000,36.769625591483,139.76629610632,1,0,0,-,-,-,700人,,指定避難場所
栃木県,足利市,坂西北小学校,栃木県足利市板倉町669,36.381754241269,139.4130042779,1,0,0,-,-,-,322人,,一時避難場所・指定避難所
栃木県,足利市,毛野中学校,栃木県足利市八椚町27,36.319424618734,139.50078570446,1,0,0,-,-,-,345人,,一時避難場所・指定避難所
栃木県,大田原市,両郷集会所,栃木県大田原市両郷1421,36.941816124349,140.17060208785,1,0,0,-,-,-,30人,,避難場所
栃木県,大田原市,旧両郷中学校,栃木県大田原市中野内580,36.912774137037,140.14941332464,1,0,0,-,-,-,201人,,避難場所
栃木県,栃木市,総合文化体育館,栃木県栃木市西方町本郷1705-1,36.454615944533,139.73954728343,1,0,0,-,-,-,604人,,指定避難場所
栃木県,大田原市,市野沢小学校,栃木県大田原市市野沢2077,36.893685025486,140.04782389029,1,0,0,-,-,-,215人,,避難場所
栃木県,栃木市,栃木商業高校,栃木県栃木市片柳町5-1-30,36.373225285659,139.71676920244,1,0,0,-,-,-,1000人,,指定避難場所
栃木県,那須塩原市,関谷小学校,栃木県那須塩原市関谷2018-1,36.951408415879,139.90181565413,1,0,0,-,-,-,670人,,指定避難所
栃木県,栃木市,国府北小学校,栃木県栃木市大塚町1278,36.407936665394,139.77383484454,1,0,0,-,-,-,600人,,指定避難場所
栃木県,真岡市,真岡高等学校,栃木県真岡市白布ケ丘24-1,36.439662216622,139.99899270172,1,0,0,-,-,-,,,避難場所
栃木県,矢板市,山田公民館,栃木県矢板市山田1415,36.838776425831,139.93323179337,1,0,0,-,-,-,,,その他の避難場所
栃木県,宇都宮市,雀宮体育館,栃木県宇都宮市南町6-3,36.482133530582,139.86489106949,1,0,0,-,-,-,360人,,避難所
栃木県,大田原市,寒井北部公民館,栃木県大田原市寒井1643,36.92222636135,140.10943240471,1,0,0,-,-,-,30人,,避難場所
栃木県,宇都宮市,晃宝小学校,栃木県宇都宮市宝木本町1263-1,36.606344035067,139.8549233641,1,0,0,-,-,-,880人,,避難所
栃木県,足利市,中里自治会館,栃木県足利市,36.311030072991,139.45950516663,-,-,-,-,-,-,,,一時避難場所
栃木県,大田原市,湯津上支所会議室,栃木県大田原市湯津上5-1081,36.821330524697,140.10356163551,1,0,0,-,-,-,100人,,避難場所
栃木県,佐野市,農林漁家高齢者センター,栃木県佐野市仙波2445-1,36.455232172469,139.58931345568,1,0,0,-,-,-,200人,,指定避難場所
栃木県,宇都宮市,宮の原小学校,栃木県宇都宮市宮原4-1-14,36.542104418706,139.8737774005,1,0,0,-,-,-,1100人,,一時避難場所・避難所
栃木県,那須郡那須町,朝日小学校,栃木県那須郡那須町豊原丙1340,37.058003964723,140.11193889847,1,0,0,-,-,-,500人,,指定避難所
栃木県,日光市,日光総合会館,栃木県日光市安川町2-47,36.753176475435,139.598174022,1,0,0,-,-,-,387人,,避難所・広域避難場所
栃木県,塩谷郡塩谷町,玉生小学校,栃木県塩谷郡塩谷町玉生395,36.777140260618,139.8528222167,1,0,0,-,-,-,1500人,,指定避難場所
栃木県,那須郡那珂川町,南小学校,栃木県那須郡那珂川町谷田944,36.733363718287,140.13489529393,1,0,0,-,-,-,170人,,指定避難所
栃木県,那須郡那珂川町,旧和見小学校,栃木県那須郡那珂川町和見1945,36.761616882658,140.16381715268,1,0,0,-,-,-,200人,,指定避難所
栃木県,栃木市,大宮南小学校,栃木県栃木市藤田町135-2,36.370744012446,139.76105377766,1,0,0,-,-,-,300人,,指定避難場所
栃木県,小山市,白鴎大学東キャンパス,栃木県小山市駅東通り2-2-2,36.311968686677,139.80748548653,1,0,0,-,-,-,320人,,指定避難所
栃木県,小山市,間々田美しが丘公園,栃木県小山市美しが丘3-1,36.263706809978,139.77317075015,-,-,-,-,-,-,,,広域避難場所
栃木県,さくら市,喜連川保健センター,栃木県さくら市喜連川807-8,36.723131101526,140.03084120977,1,0,0,-,-,-,190人,,避難所
栃木県,日光市,小来川小中学校,栃木県日光市中小来川2817,36.665739295738,139.61868032749,1,0,0,-,-,-,419人,,避難所・広域避難場所
栃木県,さくら市,氏家体育館,栃木県さくら市氏家2730,36.686073063783,139.96884341297,1,0,0,-,-,-,720人,,避難所
栃木県,小山市,小山第一小学校,栃木県小山市宮本町1-3-1,36.313173852657,139.79814440219,1,0,0,-,-,-,319人,,指定避難所
栃木県,佐野市,作原生活改善センター,栃木県佐野市作原町780-1,36.484041727237,139.49763486219,1,0,0,-,-,-,80人,,指定避難場所
栃木県,日光市,落合中学校,栃木県日光市小代310,36.651546655927,139.7164241107,1,0,0,-,-,-,340人,,避難所・広域避難場所
栃木県,那須烏山市,烏山体育館,栃木県那須烏山市中央2-13-12,36.658068018783,140.15582736945,1,0,0,-,-,-,,,避難施設
栃木県,下都賀郡壬生町,羽生田小学校,栃木県下都賀郡壬生町羽生田2139-1,36.474157027966,139.77732704088,1,0,0,-,-,-,1591人,,指定避難場所
栃木県,足利市,名草小学校,栃木県足利市名草中町1151-1,36.386785800114,139.48093042095,1,0,0,-,-,-,557人,,一時避難場所・指定避難所
栃木県,さくら市,氏家駅西近隣公園,栃木県さくら市卯の里1-8,36.684586857656,139.95680020443,-,-,-,-,-,-,1000人,,避難場所
栃木県,宇都宮市,富士見小学校,栃木県宇都宮市鶴田町2708-3,36.554374789684,139.86324289106,1,0,0,-,-,-,1400人,,避難所
栃木県,矢板市,塩田公民館,栃木県矢板市塩田467-2,36.812500637355,139.88094914114,1,0,0,-,-,-,,,その他の避難場所
栃木県,大田原市,蛭田小学校,栃木県大田原市蛭田1720,36.811850177602,140.07982488796,1,0,0,-,-,-,267人,,避難場所
栃木県,小山市,小山中学校,栃木県小山市渋井779-1,36.332491292262,139.80190246479,1,0,0,-,-,-,443人,,指定避難所
栃木県,宇都宮市,古里中学校,栃木県宇都宮市中岡本町3130,36.616929127445,139.94555899219,1,0,0,-,-,-,1000人,,避難所
栃木県,日光市,黒部集会所,栃木県日光市黒部208,36.868466300399,139.60289709154,1,0,0,-,-,-,120人,,避難所
栃木県,宇都宮市,陽南地域コミュニティセンター,栃木県宇都宮市大和1-10-15,36.534195278293,139.86304880186,1,0,0,-,-,-,10人,,避難所
栃木県,塩谷郡塩谷町,尚仁沢はーとらんど,栃木県塩谷郡塩谷町上寺島1618-4,36.848012037833,139.82255572329,1,0,0,-,-,-,,,指定避難場所
栃木県,日光市,唐風呂集会所,栃木県日光市足尾町3435-1,36.615910925435,139.41063871993,1,0,0,-,-,-,27人,,避難所
栃木県,那須塩原市,南公民館,栃木県那須塩原市二区町401,36.855042133024,139.969718948,1,0,0,-,-,-,230人,,指定避難所
栃木県,足利市,南高校,栃木県足利市,36.294452916121,139.47679100728,-,-,-,-,-,-,,,一時避難場所
栃木県,河内郡上三川町,明治小学校,栃木県河内郡上三川町大山524,36.442396571694,139.88095322116,1,0,0,-,-,-,300人,,指定避難場所
栃木県,矢板市,土屋公民館,栃木県矢板市土屋822,36.824575315173,139.94549501696,1,0,0,-,-,-,,,その他の避難場所
栃木県,大田原市,大久保集会所,栃木県大田原市大久保365,36.907166930903,140.16015678462,1,0,0,-,-,-,30人,,避難場所
栃木県,日光市,足尾中学校,栃木県日光市足尾町向原7-1,36.638083576579,139.4450428333,1,0,0,-,-,-,619人,,避難所・広域避難場所
栃木県,那須塩原市,黒磯中学校,栃木県那須塩原市豊町5-3,36.968544086594,140.05032672853,1,0,0,-,-,-,309人,,指定避難所
栃木県,那須郡那須町,成沢集落センター,栃木県那須郡那須町豊原甲3112-1,37.058547912817,140.15997102891,1,0,0,-,-,-,30人,,指定避難所
栃木県,下野市,石橋図書館,栃木県下野市大松山1-7-3,36.430692009819,139.85627768676,1,0,0,-,-,-,250人,,指定避難場所・指定避難所
栃木県,大田原市,大田原中学校,栃木県大田原市美原1-14-2,36.858837774538,140.00525383316,1,0,0,-,-,-,487人,,避難場所
栃木県,足利市,さいこうふれあいセンター,栃木県足利市,36.340499103978,139.44172982811,1,0,0,-,-,-,483人,,一時避難場所・指定避難所
栃木県,小山市,勤労青少年ホーム,栃木県小山市犬塚3-1-2,36.313855639246,139.82729247966,1,0,0,-,-,-,415人,,指定避難所
栃木県,足利市,稲荷神社,栃木県足利市,36.323951295738,139.43550078273,-,-,-,-,-,-,,,一時避難場所
栃木県,矢板市,大槻公民館,栃木県矢板市大槻1027,36.735261223736,139.93905826395,1,0,0,-,-,-,,,その他の避難場所
栃木県,宇都宮市,清原中央小学校,栃木県宇都宮市道場宿町848,36.562369927974,139.97708947578,1,0,0,-,-,-,900人,,避難所
栃木県,大田原市,蛭畑公民館,栃木県大田原市蛭畑868-2,36.803613994339,140.0986832376,1,0,0,-,-,-,30人,,避難場所
栃木県,宇都宮市,河内中学校,栃木県宇都宮市中岡本町3743,36.607877118928,139.93136043897,1,0,0,-,-,-,500人,,避難所
栃木県,那須郡那須町,伊王野小学校,栃木県那須郡那須町伊王野1542,36.958716471139,140.16010278616,1,0,0,-,-,-,640人,,指定避難所
栃木県,那須烏山市,烏山小学校,栃木県那須烏山市愛宕台2800,36.655388402227,140.14554807744,1,0,0,-,-,-,2300人,,避難施設
栃木県,足利市,助戸新山町自治会館,栃木県足利市,36.343824184877,139.47234068936,-,-,-,-,-,-,,,一時避難場所
栃木県,さくら市,押上小学校,栃木県さくら市長久保814,36.71480506443,139.94720285119,1,0,0,-,-,-,930人,,避難所
栃木県,真岡市,長沼小学校,栃木県真岡市長沼716,36.359825387226,139.92980447994,1,0,0,-,-,-,250人,,避難場所
栃木県,鹿沼市,板荷コミュニティセンター,栃木県鹿沼市板荷3051-1,36.641457763099,139.69644560658,1,0,0,-,-,-,100人,,地区別避難所
栃木県,宇都宮市,海道小学校,栃木県宇都宮市海道町35-1,36.599136410771,139.92401424125,1,0,0,-,-,-,470人,,避難所
栃木県,宇都宮市,西が岡小学校,栃木県宇都宮市宝木町2-1075-12,36.595617234151,139.8447050112,1,0,0,-,-,-,1000人,,避難所
栃木県,栃木市,大平体育館,栃木県栃木市大平町蔵井2001-3,36.344965122412,139.71219227736,1,0,0,-,-,-,500人,,指定避難場所
栃木県,大田原市,篠原公民館,栃木県大田原市蜂巣730,36.887225802783,140.09321200625,1,0,0,-,-,-,30人,,避難場所
栃木県,宇都宮市,西原小学校,栃木県宇都宮市西原2-5-42,36.554271163711,139.87234104913,1,0,0,-,-,-,1300人,,一時避難場所・避難所
栃木県,さくら市,道の駅きつれがわ,栃木県さくら市喜連川4145-10,36.715993433572,140.03199429447,1,0,0,-,-,-,230人,,避難所
栃木県,矢板市,第2農場公民館,栃木県矢板市下井佐野974-13,36.874074328209,139.87734946136,1,0,0,-,-,-,,,その他の避難場所
栃木県,大田原市,北滝公会堂,栃木県大田原市北滝593,36.82780839246,140.13063975912,1,0,0,-,-,-,20人,,避難場所
栃木県,那須塩原市,西那須野庁舎前広場,栃木県那須塩原市あたご町2-3,36.882395305264,139.98307981958,-,-,-,-,-,-,100人,,指定避難所
栃木県,栃木市,部屋保育所,栃木県栃木市藤岡町蛭沼1232-1,36.281420208552,139.70608481572,1,0,0,-,-,-,100人,,指定避難場所
栃木県,大田原市,黒羽、川西地区公民館,栃木県大田原市黒羽田町848,36.863000912295,140.12168651218,1,0,0,-,-,-,92人,,避難場所
栃木県,足利市,水処理センター,栃木県足利市,36.314670706435,139.49310524934,-,-,-,-,-,-,,,一時避難場所
栃木県,那須烏山市,烏山中学校,栃木県那須烏山市南1-2810,36.647599631134,140.1458676812,1,0,0,-,-,-,2400人,,避難施設
栃木県,下野市,国分寺運動公園,栃木県下野市小金井277-2,36.384361600017,139.83429274666,-,-,-,-,-,-,,,広域避難場所
栃木県,栃木市,国府南小学校,栃木県栃木市寄居町949-3,36.387797852267,139.77964923534,1,0,0,-,-,-,300人,,指定避難場所
栃木県,足利市,北郷公民館,栃木県足利市利保町2-14-1,36.356469517811,139.47231827293,1,0,0,-,-,-,290人,,指定避難所
栃木県,宇都宮市,泉が丘中学校,栃木県宇都宮市泉が丘4-11-40,36.567059478425,139.9189722162,1,0,0,-,-,-,1200人,,一時避難場所・避難所
栃木県,さくら市,氏家図書館,栃木県さくら市桜野1321,36.684932571762,139.96772636301,1,0,0,-,-,-,210人,,避難所
栃木県,佐野市,野上小学校,栃木県佐野市長谷場町499,36.436616705135,139.53889433623,1,0,0,-,-,-,290人,,指定避難場所
栃木県,真岡市,物部会館,栃木県真岡市物井4307,36.399124920671,140.00556841419,1,0,0,-,-,-,50人,,避難場所
栃木県,大田原市,親園農村環境改善センター,栃木県大田原市花園1973,36.826469278084,140.03965522799,1,0,0,-,-,-,240人,,避難場所
栃木県,真岡市,物部中学校,栃木県真岡市高田1838,36.395714477797,140.0169784624,1,0,0,-,-,-,300人,,避難場所
栃木県,鹿沼市,黒川緑地,栃木県鹿沼市朝日町他,36.566016647377,139.75411420459,-,-,-,-,-,-,4100人,,広域避難場所
栃木県,日光市,所野保育園,栃木県日光市所野689-8,36.747849882863,139.63903118201,1,0,0,-,-,-,117人,,避難所
栃木県,下都賀郡岩舟町,岩舟公民館,栃木県栃木市岩舟町静2292-1,36.317070383775,139.66457924485,1,0,0,-,-,-,,,指定避難場所
栃木県,宇都宮市,陽南中学校,栃木県宇都宮市陽南2-4-58,36.535572005414,139.87586644209,1,0,0,-,-,-,1500人,,一時避難場所・避難所
栃木県,日光市,栗山小学校,栃木県日光市日蔭570,36.868521501179,139.61251886617,1,0,0,-,-,-,,,広域避難場所
栃木県,小山市,大谷中学校,栃木県小山市横倉新田97,36.27486535937,139.8224320929,1,0,0,-,-,-,446人,,指定避難所
栃木県,那須郡那須町,室野井小学校,栃木県那須郡那須町高久乙3371-3,37.053119169534,139.9913012221,1,0,0,-,-,-,380人,,指定避難所
栃木県,那須郡那珂川町,馬頭小学校,栃木県那須郡那珂川町馬頭169,36.739008218176,140.1688009605,1,0,0,-,-,-,200人,,指定避難所
栃木県,宇都宮市,清原体育館,栃木県宇都宮市清原工業団地14,36.545777532898,139.98307053916,1,0,0,-,-,-,1000人,,避難所
栃木県,大田原市,寒井南部公民館,栃木県大田原市寒井245,36.901907720608,140.11486017213,1,0,0,-,-,-,30人,,避難場所
栃木県,鹿沼市,西大芦コミュニティセンター,栃木県鹿沼市草久960,36.639566350804,139.60551616655,1,0,0,-,-,-,90人,,地区別避難所
栃木県,宇都宮市,岡本西小学校,栃木県宇都宮市中岡本町3709-2,36.606296830985,139.9316882886,1,0,0,-,-,-,500人,,避難所
栃木県,真岡市,駅前どんとこい広場,栃木県真岡市久下田848-5,36.3763925964,139.96982311353,-,-,-,-,-,-,50人,,避難場所
栃木県,鹿沼市,東大芦コミュニティセンター,栃木県鹿沼市上日向375,36.565567325527,139.71578732942,1,0,0,-,-,-,110人,,地区別避難所
栃木県,那須塩原市,塩原公民館,栃木県那須塩原市中塩原1-2,36.977584877921,139.80947757597,1,0,0,-,-,-,41人,,指定避難所
栃木県,宇都宮市,雀宮地区市民センター,栃木県宇都宮市新富町9-4,36.486163747433,139.87336330384,1,0,0,-,-,-,230人,,避難所
栃木県,矢板市,下井佐野公民館,栃木県矢板市下井佐野376-1,36.863215762943,139.9105243186,1,0,0,-,-,-,,,その他の避難場所
栃木県,那須塩原市,くろいそ運動場武道館,栃木県那須塩原市上厚崎664,36.959563840953,140.03171435088,1,0,0,-,-,-,510人,,指定避難所
栃木県,佐野市,吾妻小学校,栃木県佐野市上羽田町1369-1,36.296472080529,139.5413554195,1,0,0,-,-,-,620人,,指定避難場所
栃木県,芳賀郡益子町,田野中学校,栃木県芳賀郡益子町長堤402,36.430240419914,140.08562983102,1,0,0,-,-,-,1500人,,指定避難場所
栃木県,栃木市,吹上小学校,栃木県栃木市吹上町115,36.411125793834,139.71980333499,1,0,0,-,-,-,700人,,指定避難場所
栃木県,大田原市,紫塚小学校,栃木県大田原市紫塚1-7-1,36.875580695435,140.01480208529,1,0,0,-,-,-,360人,,避難場所
栃木県,大田原市,山村開発センター,栃木県大田原市前田1014,36.870683187417,140.12174174801,1,0,0,-,-,-,92人,,避難場所
栃木県,那須郡那珂川町,旧武茂小学校,栃木県那須郡那珂川町松野1647,36.697691139804,140.17085272353,1,0,0,-,-,-,150人,,指定避難所
栃木県,矢板市,川崎公民館,栃木県矢板市川崎反町202,36.791557214825,139.92140215145,1,0,0,-,-,-,,,その他の避難場所
栃木県,大田原市,佐久山地区公民館,栃木県大田原市佐久山2287-1,36.805401690092,140.01129206069,1,0,0,-,-,-,85人,,避難場所
栃木県,鹿沼市,西中学校,栃木県鹿沼市日吉町527,36.562426513958,139.73054985448,1,0,0,-,-,-,876人,,避難所
栃木県,那須郡那珂川町,大山田上郷生活改善センター,栃木県那須郡那珂川町大山田上郷941,36.812456811249,140.21544947089,1,0,0,-,-,-,50人,,指定避難所
栃木県,鹿沼市,みどりが丘小学校,栃木県鹿沼市西茂呂3丁目7-19,36.550437481884,139.76968841527,1,0,0,-,-,-,466人,,避難所
栃木県,足利市,北郷小学校,栃木県足利市田島町1,36.360621951302,139.47400967275,1,0,0,-,-,-,697人,,一時避難場所・指定避難所
栃木県,河内郡上三川町,上三川町役場,栃木県河内郡上三川町しらさぎ1-1,36.439289565191,139.90994870413,1,0,0,-,-,-,1000人,,指定避難場所
栃木県,大田原市,宇田川小学校,栃木県大田原市宇田川829,36.833905186513,140.04817640846,1,0,0,-,-,-,220人,,避難場所
栃木県,さくら市,2号鬼怒グリーンパーク,栃木県さくら市上阿久津字川岸,36.649067036067,139.95741297635,-,-,-,-,-,-,18500人,,避難場所
栃木県,佐野市,城北地区公民館,栃木県佐野市堀米町1173,36.324961655029,139.57995954753,1,0,0,-,-,-,220人,,指定避難場所
栃木県,鹿沼市,中央小学校,栃木県鹿沼市今宮町1624,36.564798970917,139.74454842253,1,0,0,-,-,-,440人,,避難所
栃木県,日光市,大沢中学校,栃木県日光市大沢町97,36.694753076653,139.75555975866,1,0,0,-,-,-,778人,,避難所・広域避難場所
栃木県,宇都宮市,横川中学校,栃木県宇都宮市屋板町143,36.518821692065,139.90368428101,1,0,0,-,-,-,750人,,避難所
栃木県,足利市,北中学校,栃木県足利市菅田町100,36.360827632226,139.47707047646,1,0,0,-,-,-,1291人,,一時避難場所・指定避難所
栃木県,さくら市,さくら清修高等学校,栃木県さくら市氏家2807,36.688356020328,139.96578533026,1,0,0,-,-,-,2400人,,避難所
栃木県,栃木市,真名子夢ホール,栃木県栃木市西方町真名子,36.472407024614,139.7011681812,1,0,0,-,-,-,101人,,避難所
栃木県,宇都宮市,平石中央小学校,栃木県宇都宮市下平出町479,36.554120003804,139.94573157567,1,0,0,-,-,-,360人,,避難所
栃木県,足利市,とうこうコミュニティセンター,栃木県足利市伊勢町3-7-5,36.334559614933,139.45492577484,1,0,0,-,-,-,367人,,一時避難場所・指定避難所
栃木県,鹿沼市,さつきが丘小学校,栃木県鹿沼市茂呂1086-5,36.550485215542,139.77723496147,1,0,0,-,-,-,542人,,避難所
栃木県,下野市,祇園小学校体育館,栃木県下野市祇園2-21-3,36.393119268127,139.86228739258,1,0,0,-,-,-,450人,,指定避難場所・指定避難所
栃木県,那須塩原市,西那須野中学校,栃木県那須塩原市下永田4-3,36.8774957538,139.98741289905,1,0,0,-,-,-,460人,,指定避難所
栃木県,大田原市,佐良土多目的交流センター,栃木県大田原市佐良土853,36.789798124328,140.12226178527,1,0,0,-,-,-,50人,,避難場所
栃木県,鹿沼市,鹿沼運動公園,栃木県鹿沼市旭が丘,36.54059216001,139.69766221268,-,-,-,-,-,-,8750人,,広域避難場所
栃木県,矢板市,乙畑小学校,栃木県矢板市乙畑1902,36.737394999438,139.95519287049,1,0,0,-,-,-,302人,,指定避難場所
栃木県,小山市,間々田小学校,栃木県小山市間々田1512,36.269194710207,139.76390766565,1,0,0,-,-,-,324人,,指定避難所
栃木県,佐野市,吉水小学校,栃木県佐野市吉水町832,36.350455835018,139.57336167046,1,0,0,-,-,-,350人,,指定避難場所
栃木県,日光市,南原小学校,栃木県日光市土沢460,36.691192116832,139.72409795422,1,0,0,-,-,-,540人,,避難所・広域避難場所
栃木県,宇都宮市,上河内西小学校,栃木県宇都宮市関白町471,36.683863333244,139.88846782903,1,0,0,-,-,-,400人,,避難所
栃木県,矢板市,末広町公民館,栃木県矢板市末広町41-2,36.807411089515,139.93623012645,1,0,0,-,-,-,,,その他の避難場所
栃木県,矢板市,山苗代公民館,栃木県矢板市山苗代339-2,36.772928966167,139.92445553824,1,0,0,-,-,-,,,その他の避難場所
栃木県,芳賀郡芳賀町,工業団地管理センター,栃木県芳賀郡芳賀町芳賀台98,36.563929164631,140.01249123494,1,0,0,-,-,-,200人,,指定避難場所・指定避難所
栃木県,芳賀郡芳賀町,芳志戸小学校跡,栃木県芳賀郡芳賀町芳志戸1956,36.583088319941,140.05842530564,1,0,0,-,-,-,100人,,指定避難場所
栃木県,真岡市,真岡中学校,栃木県真岡市並木町3-120,36.444512333061,139.99606476303,1,0,0,-,-,-,300人,,避難場所
栃木県,宇都宮市,昭和小学校,栃木県宇都宮市戸祭元町1-15,36.568383098748,139.88255869371,1,0,0,-,-,-,970人,,一時避難場所・避難所
栃木県,宇都宮市,宇都宮南高校,栃木県宇都宮市東谷町660-1,36.485514471957,139.89654187819,-,-,-,-,-,-,2200人,,一時避難場所
栃木県,栃木市,ふれあいプラザ,栃木県栃木市西方町元1600-1,36.465695458324,139.73119453357,1,0,0,-,-,-,20人,,指定避難場所
栃木県,日光市,大室小学校,栃木県日光市大室356,36.7184145202,139.74682157734,1,0,0,-,-,-,250人,,避難所・広域避難場所
栃木県,佐野市,運動公園,栃木県佐野市赤見町2130-2,36.352435806039,139.54881365129,-,-,-,-,-,-,1490人,,指定避難場所
栃木県,宇都宮市,清原東小学校,栃木県宇都宮市氷室町1713-1,36.531695732879,139.99624747309,1,0,0,-,-,-,930人,,避難所
栃木県,那須塩原市,東小学校,栃木県那須塩原市太夫塚1-193,36.884266992681,139.9806354904,1,0,0,-,-,-,500人,,指定避難所
栃木県,足利市,三和運動公園,栃木県足利市,36.388299781287,139.42088388942,-,-,-,-,-,-,,,一時避難場所
栃木県,日光市,鶏頂地区活性化センター,栃木県日光市高原216,36.923611756235,139.73760432748,1,0,0,-,-,-,71人,,避難所
栃木県,鹿沼市,上南摩小学校,栃木県鹿沼市上南摩町732,36.543934974719,139.67847159849,1,0,0,-,-,-,416人,,避難所
栃木県,宇都宮市,泉が丘地域コミュニティセンター,栃木県宇都宮市泉が丘7-12-14,36.567310572794,139.91973462304,1,0,0,-,-,-,60人,,避難所
栃木県,芳賀郡芳賀町,生涯学習センター,栃木県芳賀郡芳賀町下高根沢2552,36.569775905507,140.03751643796,1,0,0,-,-,-,150人,,指定避難場所・指定避難所
栃木県,宇都宮市,晃陽中学校,栃木県宇都宮市徳次郎町1964,36.655493566505,139.83980051267,1,0,0,-,-,-,660人,,避難所
栃木県,日光市,藤原地区集会所,栃木県日光市藤原419,36.85475107209,139.73266031092,1,0,0,-,-,-,110人,,避難所
栃木県,さくら市,わくわく保育園,栃木県さくら市喜連川837-1,36.722642566522,140.03095512441,1,0,0,-,-,-,200人,,避難所
栃木県,宇都宮市,宇都宮工業高校,栃木県宇都宮市京町9-25,36.553881483698,139.87161032475,-,-,-,-,-,-,2500人,,一時避難場所
栃木県,鹿沼市,鹿沼南高校,栃木県鹿沼市みなみ町8-73,36.522254559141,139.77047288582,1,0,0,-,-,-,370人,,避難所
栃木県,塩谷郡塩谷町,老人福祉センター,栃木県塩谷郡塩谷町玉生872,36.776290431171,139.85693576322,1,0,0,-,-,-,300人,,指定避難場所
栃木県,足利市,ふるさと学習・資料館,栃木県足利市小俣町3306,36.411519912421,139.38673809492,1,0,0,-,-,-,1107人,,一時避難場所・指定避難所
栃木県,佐野市,田沼児童館,栃木県佐野市栃本町2384-12,36.362971076715,139.57708587025,1,0,0,-,-,-,50人,,指定避難場所
栃木県,栃木市,寺尾公民館,栃木県栃木市梅沢町1183,36.444411796966,139.64938538738,1,0,0,-,-,-,350人,,指定避難場所
栃木県,宇都宮市,横川東小学校,栃木県宇都宮市下栗町963,36.533026200149,139.90723626697,1,0,0,-,-,-,1200人,,避難所
栃木県,塩谷郡塩谷町,大平崎野球場,栃木県塩谷郡塩谷町熊ノ木987-4,36.787191860326,139.85179956537,1,0,0,-,-,-,,,指定避難場所
栃木県,宇都宮市,明保小学校,栃木県宇都宮市下荒針町3456-2,36.568307901862,139.83890918792,1,0,0,-,-,-,1100人,,避難所
栃木県,栃木市,藤岡スポーツふれあいセンター,栃木県栃木市藤岡町藤岡1218-1,36.259413780804,139.65337560399,1,0,0,-,-,-,50人,,指定避難場所
栃木県,那須郡那珂川町,大内保育園,栃木県那須郡那珂川町大内3170,36.758201323639,140.21927612112,1,0,0,-,-,-,80人,,指定避難所
栃木県,芳賀郡芳賀町,武道館,栃木県芳賀郡芳賀町与能1142-1,36.546858998962,140.04276144143,1,0,0,-,-,-,200人,,指定避難場所
栃木県,矢板市,勤労青少年ホーム,栃木県矢板市末広町3-2,36.809666275534,139.93565505618,1,0,0,-,-,-,105人,,指定避難場所
栃木県,那須塩原市,金沢小学校,栃木県那須塩原市金沢1969-2,36.909261798866,139.90059018384,1,0,0,-,-,-,630人,,指定避難所
栃木県,日光市,伊の原自治公民館,栃木県日光市藤原1357,36.861393762298,139.71881043708,1,0,0,-,-,-,49人,,避難所
栃木県,真岡市,二宮保健センター,栃木県真岡市久下田西4-30,36.380131234842,139.96548161574,1,0,0,-,-,-,50人,,避難場所
栃木県,大田原市,黒羽高等学校,栃木県大田原市前田780,36.867397729143,140.13780439185,1,0,0,-,-,-,933人,,避難場所
栃木県,日光市,日光小学校,栃木県日光市萩垣面2390-2,36.754146080915,139.61058113339,1,0,0,-,-,-,,,広域避難場所
栃木県,那須烏山市,烏山運動公園,栃木県那須烏山市南1-13-12,36.645766375223,140.15184785166,-,-,-,-,-,-,1500人,,指定避難場所
栃木県,宇都宮市,平出工業団地公園,栃木県宇都宮市平出工業団地29-1,36.573045466477,139.93569807504,-,-,-,-,-,-,6600人,,広域避難場所
栃木県,栃木市,栃木第五小学校,栃木県栃木市薗部町2-7-25,36.373788996665,139.71268079007,1,0,0,-,-,-,1500人,,指定避難場所
栃木県,宇都宮市,豊郷中学校,栃木県宇都宮市関堀町350,36.600016190042,139.89754750051,1,0,0,-,-,-,730人,,避難所
栃木県,小山市,美田中学校,栃木県小山市下国府塚287,36.316877678886,139.76139517586,1,0,0,-,-,-,455人,,指定避難所
栃木県,佐野市,新吉水地区コミュニティセンター,栃木県佐野市吉水駅前1-19-6,36.347539475056,139.57719196038,1,0,0,-,-,-,100人,,指定避難場所
栃木県,足利市,松田町三丁目自治会館,栃木県足利市,36.399369596364,139.43109885807,-,-,-,-,-,-,,,一時避難場所
栃木県,佐野市,多田小学校,栃木県佐野市多田町998,36.381427342,139.59678063521,1,0,0,-,-,-,340人,,指定避難場所
栃木県,大田原市,金田北中学校,栃木県大田原市市野沢2067,36.894888012203,140.04859878671,1,0,0,-,-,-,509人,,避難場所
栃木県,宇都宮市,五代小学校,栃木県宇都宮市五代2-22-33,36.495351061666,139.86479680509,1,0,0,-,-,-,1400人,,避難所
栃木県,足利市,毛野新町北児童公園,栃木県足利市,36.325158645453,139.49106021256,-,-,-,-,-,-,,,一時避難場所
栃木県,矢板市,矢板小学校,栃木県矢板市本町8-13,36.807979919092,139.92639504357,1,0,0,-,-,-,719人,,指定避難場所
栃木県,宇都宮市,宮の原地域コミュニティセンター,栃木県宇都宮市宮原4-1-14,36.542098595842,139.87281187073,1,0,0,-,-,-,20人,,避難所
栃木県,足利市,山下町五丁目自治会館,栃木県足利市,36.355962398966,139.41954742041,-,-,-,-,-,-,,,一時避難場所
栃木県,那須烏山市,やまびこの湯,栃木県那須烏山市横枕473-1,36.645317902612,140.20693503354,1,0,0,-,-,-,80人,,避難施設
栃木県,栃木市,つがスポーツ公園運動場,栃木県栃木市都賀町家中6681,36.443626108607,139.76064877199,-,-,-,-,-,-,80人,,指定避難場所
栃木県,小山市,小山南高等学校,栃木県小山市間々田23-1,36.258293751653,139.77982877082,1,0,0,-,-,-,1708人,,指定避難所
栃木県,日光市,掛水集会所,栃木県日光市足尾町掛水4-18,36.641072197704,139.44859526203,1,0,0,-,-,-,49人,,避難所
栃木県,宇都宮市,栃木県庁,栃木県宇都宮市,36.565720617309,139.88353956129,-,-,-,-,-,-,,,一時避難場所
栃木県,小山市,あけぼの公園,栃木県小山市横倉新田465,36.292098132239,139.82974678379,-,-,-,-,-,-,,,広域避難場所
栃木県,宇都宮市,西地域コミュニティセンター,栃木県宇都宮市西1-2-13,36.559303104673,139.87780516184,1,0,0,-,-,-,60人,,避難所
栃木県,宇都宮市,城山西小学校,栃木県宇都宮市古賀志町583,36.609508513488,139.76411372147,1,0,0,-,-,-,320人,,避難所
栃木県,栃木市,大平こどもセンター,栃木県栃木市大平町西水代1893,36.320426292892,139.71384099514,1,0,0,-,-,-,50人,,指定避難場所
栃木県,栃木市,栃木東中学校,栃木県栃木市日ノ出町1-11,36.382944192853,139.73990736276,1,0,0,-,-,-,1500人,,指定避難場所
栃木県,塩谷郡塩谷町,塩谷町総合公園,栃木県塩谷郡塩谷町飯岡1160,36.763819443413,139.83757386887,1,0,0,-,-,-,10000人,,指定避難場所
栃木県,下野市,緑小学校体育館,栃木県下野市緑3-16-1,36.387133676851,139.85568531008,1,0,0,-,-,-,450人,,指定避難場所・指定避難所
栃木県,佐野市,田沼北部地区コミュニティセンター,栃木県佐野市多田町3776-3,36.376189216283,139.60067217529,1,0,0,-,-,-,90人,,指定避難場所
栃木県,真岡市,中村東小学校,栃木県真岡市寺内1191,36.418269609615,139.97773473091,1,0,0,-,-,-,150人,,避難場所
栃木県,那須郡那珂川町,大内地区生活改善センター,栃木県那須郡那珂川町大内2422,36.759515317959,140.22180081618,1,0,0,-,-,-,40人,,指定避難所
栃木県,下野市,ふれあいセンター,栃木県下野市下長田146,36.449989459364,139.84206141819,1,0,0,-,-,-,90人,,指定避難場所・指定避難所
栃木県,宇都宮市,陽東地域コミュニティセンター,栃木県宇都宮市陽東2-16-36,36.552984473519,139.9264837995,1,0,0,-,-,-,20人,,避難所
栃木県,宇都宮市,宇都宮白楊高校,栃木県宇都宮市今泉町2021,36.564476418877,139.91036545622,-,-,-,-,-,-,3000人,,一時避難場所
栃木県,佐野市,山薗地区コミュニティセンター,栃木県佐野市山形町650-25,36.385395338642,139.53808854282,1,0,0,-,-,-,160人,,指定避難場所
栃木県,宇都宮市,明保地域コミュニティセンター,栃木県宇都宮市下荒針町3456-2,36.569111412477,139.83929521371,1,0,0,-,-,-,20人,,避難所
栃木県,大田原市,片田集会所,栃木県大田原市片田572,36.813708228373,140.13282609066,1,0,0,-,-,-,30人,,避難場所
栃木県,那須郡那須町,稲沢地区体育センター,栃木県那須郡那須町稲沢978-1,36.943393009592,140.13549666395,1,0,0,-,-,-,90人,,指定避難所
栃木県,大田原市,羽田小学校,栃木県大田原市羽田644,36.91114564231,140.08552052707,1,0,0,-,-,-,257人,,避難場所
栃木県,宇都宮市,錦中央公園,栃木県宇都宮市今泉町157,36.568681465868,139.89916226904,-,-,-,-,-,-,2700人,,一時避難場所
栃木県,芳賀郡益子町,益子町民会館,栃木県芳賀郡益子町益子3667-3,36.470273393163,140.09865921404,1,0,0,-,-,-,1400人,,指定避難場所
栃木県,栃木市,三鴨保育所,栃木県栃木市藤岡町甲64-2,36.287490540992,139.63413112266,1,0,0,-,-,-,100人,,指定避難場所
栃木県,日光市,鬼怒川小学校,栃木県日光市藤原19,36.841433646933,139.72452892683,1,0,0,-,-,-,531人,,避難所・広域避難場所
栃木県,小山市,中小学校,栃木県小山市南小林109,36.318335264276,139.73801656663,1,0,0,-,-,-,292人,,指定避難所
栃木県,下都賀郡野木町,野木第二中学校,栃木県下都賀郡野木町野木4048,36.225987199404,139.71870758203,1,0,0,-,-,-,800人,,指定避難場所
栃木県,佐野市,田之入老人福祉センター,栃木県佐野市田之入町834,36.34528985376,139.58820221242,1,0,0,-,-,-,150人,,指定避難場所
栃木県,宇都宮市,宇大附属小学校,栃木県宇都宮市松原1-7-38,36.568738255051,139.87090682616,-,-,-,-,-,-,1200人,,一時避難場所
栃木県,大田原市,金田南地区公民館,栃木県大田原市南金丸1870-5,36.858053851446,140.08674216636,1,0,0,-,-,-,249人,,避難場所
栃木県,下野市,仁良川コミュニティセンター,栃木県下野市仁良川1468,36.377043754436,139.87719224458,1,0,0,-,-,-,90人,,指定避難場所・指定避難所
栃木県,鹿沼市,永野小学校,栃木県鹿沼市上永野310,36.497483346386,139.60014609983,1,0,0,-,-,-,281人,,避難所
栃木県,栃木市,藤岡文化会館,栃木県栃木市藤岡町藤岡810,36.266624087764,139.65087320471,1,0,0,-,-,-,300人,,指定避難場所
栃木県,宇都宮市,文星芸術大学附属高校,栃木県宇都宮市睦町1-4,36.560344127153,139.86293281514,-,-,-,-,-,-,3800人,,一時避難場所
栃木県,下野市,国分寺武道館,栃木県下野市駅東7-3-3,36.370124180606,139.84422320706,1,0,0,-,-,-,70人,,指定避難場所・指定避難所
栃木県,日光市,独鈷沢自治公民館,栃木県日光市独鈷沢地内,36.977814776556,139.69068463609,1,0,0,-,-,-,30人,,避難所
栃木県,真岡市,亀山小学校,栃木県真岡市亀山1037-3,36.458581766594,139.98201306913,1,0,0,-,-,-,200人,,避難場所
栃木県,小山市,網戸小学校,栃木県小山市網戸1514,36.271302206701,139.74303761399,1,0,0,-,-,-,266人,,指定避難所
栃木県,宇都宮市,中央小学校（中央地域コミニティセンター）,栃木県宇都宮市中央本町1-29,36.558975867857,139.88485623103,1,0,0,-,-,-,1100人,,一時避難場所・避難所
栃木県,那須郡那須町,芦野基幹集落センター,栃木県那須郡那須町芦野1867-1,36.99287939927,140.16042357997,1,0,0,-,-,-,90人,,指定避難所
栃木県,那須塩原市,鍋掛小学校,栃木県那須塩原市鍋掛1091,36.962139522614,140.06272862401,1,0,0,-,-,-,128人,,指定避難所
栃木県,那須烏山市,三箇地区公民館,栃木県那須烏山市三箇1258,36.69219178425,140.06572524421,1,0,0,-,-,-,900人,,避難施設
栃木県,栃木市,部屋小学校,栃木県栃木市藤岡町部屋158,36.272996297942,139.71216526982,1,0,0,-,-,-,500人,,指定避難場所
栃木県,足利市,三重小学校,栃木県足利市五十部町1060,36.348163853885,139.42809574998,1,0,0,-,-,-,267人,,一時避難場所・指定避難所
栃木県,栃木市,栃木高校,栃木県栃木市入舟町12-4,36.383879949952,139.73056103059,1,0,0,-,-,-,1000人,,指定避難場所
栃木県,日光市,日向集会所,栃木県日光市日向579,36.887064795964,139.65029414444,1,0,0,-,-,-,140人,,避難所
栃木県,さくら市,喜連川小学校,栃木県さくら市喜連川3911,36.720600978299,140.02662239044,1,0,0,-,-,-,1500人,,避難所
栃木県,宇都宮市,中央卸売市場,栃木県宇都宮市簗瀬町1493,36.546874180699,139.89189803703,-,-,-,-,-,-,16300人,,広域避難場所
栃木県,栃木市,都賀中学校,栃木県栃木市都賀町家中5818,36.431726767722,139.74298652026,1,0,0,-,-,-,1100人,,指定避難場所
栃木県,矢板市,下太田公民館,栃木県矢板市下太田86,36.821666751488,139.91668985839,1,0,0,-,-,-,,,その他の避難場所
栃木県,下都賀郡岩舟町,静和地区公民館,栃木県栃木市岩舟町静和2170-1,36.315451602125,139.68469982602,1,0,0,-,-,-,,,指定避難場所
栃木県,栃木市,大平東小学校,栃木県栃木市大平町上高島809,36.346781810454,139.73359944472,1,0,0,-,-,-,300人,,指定避難場所
栃木県,日光市,安良沢小学校,栃木県日光市久次良町1777,36.748439973994,139.57780394632,1,0,0,-,-,-,419人,,避難所・広域避難場所
栃木県,矢板市,越畑公民館,栃木県矢板市越畑404-2,36.753234947028,139.96066653873,1,0,0,-,-,-,,,その他の避難場所
栃木県,さくら市,曽根田公民館,栃木県さくら市下河戸328-2,36.759935028973,140.01882366326,1,0,0,-,-,-,30人,,避難所
栃木県,日光市,所野コミュニティセンター,栃木県日光市所野2832-2,36.748330368629,139.62930441683,1,0,0,-,-,-,138人,,避難所
栃木県,足利市,八幡町一丁目運動公園,栃木県足利市,36.32341164469,139.44137197182,-,-,-,-,-,-,,,一時避難場所
栃木県,足利市,南小学校,栃木県足利市堀込町2719,36.318213657181,139.43862770635,1,0,0,-,-,-,379人,,一時避難場所・指定避難所
栃木県,那須塩原市,黒磯小学校,栃木県那須塩原市豊町2-1,36.96929957394,140.05358471503,1,0,0,-,-,-,345人,,指定避難所
栃木県,那須烏山市,七合小学校,栃木県那須烏山市谷浅見910,36.692427402205,140.15677067616,1,0,0,-,-,-,1000人,,避難施設
栃木県,日光市,鬼怒川児童館,栃木県日光市藤原19,36.842289131641,139.72344210175,1,0,0,-,-,-,104人,,避難所
栃木県,那須郡那珂川町,山村開発センター,栃木県那須郡那珂川町馬頭555,36.736175327407,140.17270634766,1,0,0,-,-,-,300人,,指定避難所
栃木県,大田原市,若草中学校,栃木県大田原市若草2-1234,36.856505602843,140.04092851348,1,0,0,-,-,-,454人,,避難場所
栃木県,小山市,関東職業能力開発大学校,栃木県小山市大字横倉612-1,36.282225928545,139.82980627777,1,0,0,-,-,-,391人,,指定避難所
栃木県,真岡市,物部小学校,栃木県真岡市物井1180,36.396897454975,140.00607673184,1,0,0,-,-,-,250人,,避難場所
栃木県,矢板市,合会公民館,栃木県矢板市館ノ川852,36.788837579461,139.90152644594,1,0,0,-,-,-,,,その他の避難場所
栃木県,栃木市,社会福祉協議会都賀支所,栃木県栃木市都賀町家中2375-15,36.432599304765,139.74995259513,1,0,0,-,-,-,410人,,指定避難場所
栃木県,塩谷郡塩谷町,自然休養村センター,栃木県塩谷郡塩谷町熊の木987-2,36.786972800282,139.85268841248,1,0,0,-,-,-,300人,,指定避難場所
栃木県,宇都宮市,姿川中央小学校,栃木県宇都宮市下砥上町121,36.52745303074,139.84136378959,1,0,0,-,-,-,600人,,避難所
栃木県,栃木市,真名子夢ホール,栃木県栃木市西方町真名子1086,36.472402325238,139.70117458078,1,0,0,-,-,-,61人,,指定避難場所
栃木県,宇都宮市,横川西小学校,栃木県宇都宮市上横田町850,36.522917854081,139.87878619913,1,0,0,-,-,-,1100人,,避難所
栃木県,栃木市,寺尾中学校,栃木県栃木市鍋山町86-2,36.445481431508,139.64647167625,1,0,0,-,-,-,700人,,指定避難場所
栃木県,真岡市,真岡市総合体育館,栃木県真岡市田町1251-1,36.438495886003,140.01430506896,1,0,0,-,-,-,600人,,避難場所
栃木県,鹿沼市,粕尾小学校,栃木県鹿沼市下粕尾1444-1,36.51012951001,139.61916041956,1,0,0,-,-,-,281人,,避難所
栃木県,栃木市,都賀公民館,栃木県栃木市都賀町原宿521,36.428749266689,139.73937858307,1,0,0,-,-,-,600人,,指定避難場所
栃木県,真岡市,西田井小学校,栃木県真岡市西田井1505-2,36.451959402216,140.05557290748,1,0,0,-,-,-,200人,,避難場所
栃木県,下都賀郡壬生町,壬生中央公民館・城址公園,栃木県下都賀郡壬生町本丸1-8,36.427611960275,139.79800753421,1,0,0,-,-,-,2234人,,指定避難場所
栃木県,小山市,間々田中学校,栃木県小山市間々田2364,36.275988352075,139.76628771062,1,0,0,-,-,-,358人,,指定避難所
栃木県,宇都宮市,旭中学校,栃木県宇都宮市天神1-1-42,36.555509370639,139.88906999843,1,0,0,-,-,-,1600人,,一時避難場所・避難所
栃木県,河内郡上三川町,上三川いきいきプラザ,栃木県河内郡上三川町上蒲生127-1,36.437145597097,139.90938401258,1,0,0,-,-,-,2000人,,指定避難場所・福祉避難所
栃木県,足利市,御厨小学校,栃木県足利市福居町19,36.303432528164,139.4575589387,1,0,0,-,-,-,371人,,一時避難場所・指定避難所
栃木県,那須郡那珂川町,馬頭東小学校,栃木県那須郡那珂川町大内1640,36.746553123862,140.23536972507,1,0,0,-,-,-,100人,,指定避難所
栃木県,芳賀郡益子町,（旧）山本小学校,栃木県芳賀郡益子町山本702,36.429077008117,140.10506712691,1,0,0,-,-,-,600人,,指定避難場所
栃木県,真岡市,大内中央小学校,栃木県真岡市飯貝457-1,36.476444543391,140.02062865745,1,0,0,-,-,-,200人,,避難場所
栃木県,宇都宮市,競輪場駐車場,栃木県宇都宮市戸祭町地内,36.574373804403,139.88116961377,-,-,-,-,-,-,4250人,,一時避難場所
栃木県,鹿沼市,情報センター,栃木県鹿沼市,36.569694542865,139.75150591754,1,0,0,-,-,-,500人,,避難所
栃木県,那須郡那須町,東陽中学校,栃木県那須郡那須町芦野100,36.970518280465,140.16020509576,1,0,0,-,-,-,850人,,指定避難所
栃木県,足利市,第二中学校,栃木県足利市本城1-1472,36.348533530188,139.45733356438,1,0,0,-,-,-,809人,,一時避難場所・指定避難所
栃木県,塩谷郡塩谷町,大宮小学校,栃木県塩谷郡塩谷町大宮2166,36.742525417795,139.87288579171,1,0,0,-,-,-,800人,,指定避難場所
栃木県,足利市,南町緑地,栃木県足利市,36.331375550391,139.44741886341,-,-,-,-,-,-,,,一時避難場所
栃木県,日光市,川俣公民館,栃木県日光市川俣805,36.872760041247,139.50607397957,1,0,0,-,-,-,211人,,避難所
栃木県,矢板市,東小学校,栃木県矢板市東町616,36.800995281637,139.93633886326,1,0,0,-,-,-,389人,,指定避難場所
栃木県,河内郡上三川町,上三川中学校,栃木県河内郡上三川町上三川4279,36.427180137719,139.90849850153,1,0,0,-,-,-,320人,,指定避難場所
栃木県,小山市,乙女小学校,栃木県小山市乙女1954,36.261381265551,139.7499345748,1,0,0,-,-,-,303人,,指定避難所
栃木県,下都賀郡野木町,町公民館、町体育センター,栃木県下都賀郡野木町丸林571,36.234111614804,139.73997527751,1,0,0,-,-,-,650人,,指定避難場所
栃木県,栃木市,西方中学校,栃木県栃木市西方町元908-1,36.460762476761,139.73341408155,1,0,0,-,-,-,531人,,指定避難場所
栃木県,佐野市,飛駒小学校,栃木県佐野市飛駒町1497,36.455100389344,139.46574502753,1,0,0,-,-,-,290人,,指定避難場所
栃木県,宇都宮市,南生涯学習センター,栃木県宇都宮市江曽島2-4-23,36.52312055215,139.86457603905,1,0,0,-,-,-,150人,,避難所
栃木県,足利市,山辺小学校,栃木県足利市八幡町386,36.323490842538,139.4368750939,1,0,0,-,-,-,573人,,一時避難場所・指定避難所
栃木県,宇都宮市,河内生涯学習センター,栃木県宇都宮市中岡本町3225-5,36.617081823127,139.94282865304,1,0,0,-,-,-,1400人,,避難所
栃木県,栃木市,吹上中学校,栃木県栃木市吹上町434-1,36.414035833062,139.70852670399,1,0,0,-,-,-,600人,,指定避難場所
栃木県,那須塩原市,黒磯北中学校,栃木県那須塩原市埼玉6,36.981452770735,140.02205426969,1,0,0,-,-,-,517人,,指定避難所
栃木県,宇都宮市,国本地区市民センター,栃木県宇都宮市宝木本町1868-1,36.615159286921,139.83951562974,1,0,0,-,-,-,220人,,避難所
栃木県,那須塩原市,狩野公民館,栃木県那須塩原市槻沢231,36.90531828868,139.99962165173,1,0,0,-,-,-,200人,,指定避難所
栃木県,足利市,桜小学校,栃木県足利市千歳町89,36.326238910092,139.46580560249,1,0,0,-,-,-,697人,,一時避難場所・指定避難所
栃木県,下野市,南河内第二中学校体育館,栃木県下野市祇園4-16-3,36.389530721637,139.85987381404,1,0,0,-,-,-,800人,,指定避難場所・指定避難所
栃木県,小山市,城東公園,栃木県小山市城東1-19,36.310336022855,139.8169070786,-,-,-,-,-,-,,,広域避難場所
栃木県,宇都宮市,篠井地区市民センター,栃木県宇都宮市下小池町466-1,36.680225737776,139.81104871598,1,0,0,-,-,-,200人,,避難所
栃木県,芳賀郡益子町,（旧）大羽小学校,栃木県芳賀郡益子町上大羽709,36.455246166788,140.13164115441,1,0,0,-,-,-,600人,,指定避難場所
栃木県,日光市,三依中学校,栃木県日光市中三依835-1,36.990506234367,139.69876118836,1,0,0,-,-,-,,,広域避難場所
栃木県,河内郡上三川町,体育センター,栃木県河内郡上三川町上三川4270,36.426668940887,139.90696537964,1,0,0,-,-,-,1000人,,指定避難場所
栃木県,小山市,豊田中学校,栃木県小山市松沼397,36.347172336456,139.78197052455,1,0,0,-,-,-,437人,,指定避難所
栃木県,宇都宮市,陽西中学校,栃木県宇都宮市陽西町1-16,36.573017860389,139.85898812821,1,0,0,-,-,-,1500人,,一時避難場所・避難所
栃木県,宇都宮市,東地域コミュニティセンター,栃木県宇都宮市東塙田1-6-14,36.565643724357,139.89168839743,1,0,0,-,-,-,50人,,避難所
栃木県,塩谷郡塩谷町,玉生コミュニティセンター,栃木県塩谷郡塩谷町玉生681,36.777934794918,139.84858358008,1,0,0,-,-,-,,,指定避難場所
栃木県,足利市,毛野新町中央児童公園,栃木県足利市,36.324102154947,139.49268580923,-,-,-,-,-,-,,,一時避難場所
栃木県,那須烏山市,境保育園,栃木県那須烏山市下境1165,36.623380799483,140.17280238075,1,0,0,-,-,-,50人,,避難施設
栃木県,日光市,今市第二小学校,栃木県日光市瀬尾227,36.735711198025,139.68445752839,1,0,0,-,-,-,230人,,避難所・広域避難場所
栃木県,日光市,日光市農山村生活体験の家,栃木県日光市横川128-1,37.056782941597,139.73635795286,1,0,0,-,-,-,62人,,避難所
栃木県,宇都宮市,瑞穂野中学校,栃木県宇都宮市下桑島町1078,36.506676748387,139.93009880962,1,0,0,-,-,-,740人,,避難所
栃木県,下都賀郡壬生町,壬生東小学校,栃木県下都賀郡壬生町落合3-5-21,36.454791051823,139.82128808916,1,0,0,-,-,-,3067人,,指定避難場所
栃木県,那須郡那珂川町,薬利小学校,栃木県那須郡那珂川町薬利945,36.781698404725,140.09474095789,1,0,0,-,-,-,170人,,指定避難所
栃木県,河内郡上三川町,旧老人福祉センター,栃木県河内郡上三川町上三川5082-15,36.436687280939,139.9165307593,1,0,0,-,-,-,500人,,指定避難場所
栃木県,那須塩原市,厚崎中学校,栃木県那須塩原市上厚崎385,36.958608477215,140.03370033967,1,0,0,-,-,-,300人,,指定避難所
栃木県,日光市,下原児童館,栃木県日光市鬼怒川温泉大原2-24,36.797228987663,139.70409817586,1,0,0,-,-,-,135人,,避難所
栃木県,芳賀郡芳賀町,芳賀南小学校,栃木県芳賀郡芳賀町西水沼41,36.521639379548,140.02753644004,1,0,0,-,-,-,400人,,指定避難場所・指定避難所
栃木県,那須郡那珂川町,馬頭北保育園,栃木県那須郡那珂川町小砂835,36.795643600109,140.17020136305,1,0,0,-,-,-,80人,,指定避難所
栃木県,宇都宮市,瑞穂野地区市民センター,栃木県宇都宮市下桑島町1030-1,36.506662894483,139.93227080029,1,0,0,-,-,-,220人,,避難所
栃木県,那須郡那須町,那須高原海城中学校・高等学校,栃木県那須郡那須町豊原乙2944-2,37.098718926643,140.13121641188,1,0,0,-,-,-,1000人,,指定避難所
栃木県,小山市,豊田南小学校,栃木県小山市松沼668,36.346194256146,139.77190986193,1,0,0,-,-,-,248人,,指定避難所
栃木県,足利市,福富公園運動場,栃木県足利市,36.313227658967,139.46968556339,-,-,-,-,-,-,,,一時避難場所
栃木県,那須塩原市,豊浦小学校,栃木県那須塩原市豊浦17,36.961014307254,140.06075382782,1,0,0,-,-,-,212人,,指定避難所
栃木県,矢板市,旧日新小学校,栃木県矢板市土屋635,36.830022129674,139.94307546753,1,0,0,-,-,-,412人,,指定避難場所
栃木県,佐野市,葛生清和荘老人福祉センター,栃木県佐野市葛生西2-7-19,36.408409878372,139.60802482594,1,0,0,-,-,-,250人,,指定避難場所
栃木県,宇都宮市,上河内体育館,栃木県宇都宮市中里町182-1,36.682410984651,139.90106107343,1,0,0,-,-,-,600人,,避難所
栃木県,真岡市,真岡女子高等学校,栃木県真岡市台町2815,36.435629556344,140.00532935803,1,0,0,-,-,-,,,避難場所
栃木県,小山市,乙女中学校,栃木県小山市乙女1731,36.262553498406,139.75530060661,1,0,0,-,-,-,362人,,指定避難所
栃木県,足利市,元サンフィールド駐車場,栃木県足利市,36.364638431089,139.44072265763,-,-,-,-,-,-,,,一時避難場所
栃木県,宇都宮市,岡本北小学校,栃木県宇都宮市中岡本町2481-1,36.61259099258,139.95188924924,1,0,0,-,-,-,500人,,避難所
栃木県,足利市,利保児童公園,栃木県足利市,36.352674909569,139.47245779275,-,-,-,-,-,-,,,一時避難場所
栃木県,栃木市,吹上公民館,栃木県栃木市吹上町782-1,36.410564232776,139.70492723653,1,0,0,-,-,-,200人,,指定避難場所
栃木県,那須烏山市,保健福祉センター,栃木県那須烏山市田野倉85-1,36.658722043144,140.096138373,1,0,0,-,-,-,2600人,,避難施設
栃木県,栃木市,そのべ保育園,栃木県栃木市薗部町1-13-20,36.381363214725,139.71947671648,1,0,0,-,-,-,30人,,指定避難場所
栃木県,栃木市,渡良瀬の里,栃木県栃木市藤岡町赤麻502-1,36.263419139205,139.66939055359,1,0,0,-,-,-,200人,,指定避難場所
栃木県,日光市,今市文化会館（中央公民館）,栃木県日光市平ケ崎160,36.723440034023,139.68018901025,1,0,0,-,-,-,650人,,避難所・広域避難場所
栃木県,芳賀郡芳賀町,水橋分館,栃木県芳賀郡芳賀町西水沼2254,36.520189079881,140.01183251058,1,0,0,-,-,-,70人,,指定避難場所・指定避難所
栃木県,栃木市,栃木南中学校,栃木県栃木市本町5-5,36.376183932865,139.73936082348,1,0,0,-,-,-,1200人,,指定避難場所
栃木県,大田原市,蜂巣小学校,栃木県大田原市蜂巣295,36.883240114411,140.10551145843,1,0,0,-,-,-,119人,,避難場所
栃木県,佐野市,文化会館、栄公園、とみあさ公園,栃木県佐野市浅沼町508-5,36.307944514586,139.5939623692,-,-,-,-,-,-,1140人,,指定避難場所
栃木県,那須烏山市,つくし幼稚園,栃木県那須烏山市東原50,36.656828004407,140.0994743047,1,0,0,-,-,-,,,避難施設
栃木県,宇都宮市,横川中央小学校,栃木県宇都宮市屋板町1072,36.51721631048,139.89477687225,1,0,0,-,-,-,580人,,避難所
栃木県,真岡市,真岡北陵高等学校,栃木県真岡市下籠谷396,36.480538623527,139.98641056619,1,0,0,-,-,-,,,避難場所
栃木県,那須烏山市,旧境小学校,栃木県那須烏山市下境2226,36.630513284446,140.17315485383,1,0,0,-,-,-,700人,,避難施設
栃木県,日光市,今市工業高等学校,栃木県日光市荊沢615,36.728465778321,139.72764793519,1,0,0,-,-,-,490人,,避難所・広域避難場所
栃木県,塩谷郡塩谷町,日々輝学園高等学校,栃木県塩谷郡塩谷町大宮2475,36.740786602115,139.86712247017,1,0,0,-,-,-,1100人,,指定避難場所
栃木県,下野市,ふれあい館,栃木県下野市三王山698-5,36.397753043057,139.90313077871,1,0,0,-,-,-,620人,,指定避難場所・指定避難所・福祉避難所
栃木県,佐野市,新合総合センター,栃木県佐野市閑馬町361-1,36.401032096728,139.52088667088,1,0,0,-,-,-,160人,,指定避難場所
栃木県,芳賀郡芳賀町,水沼小学校跡,栃木県芳賀郡芳賀町東水沼1721,36.541562332563,140.02008300499,1,0,0,-,-,-,100人,,指定避難場所
栃木県,大田原市,黒羽商工会,栃木県大田原市黒羽向町112,36.862890621186,140.11749080841,1,0,0,-,-,-,80人,,避難場所
栃木県,足利市,葉鹿小学校,栃木県足利市葉鹿町1-14-2,36.364814092761,139.38922080203,1,0,0,-,-,-,439人,,一時避難場所・指定避難所
栃木県,佐野市,氷室地区公民館,栃木県佐野市水木846,36.486376445679,139.54342391452,1,0,0,-,-,-,100人,,指定避難場所
栃木県,大田原市,交流促進センター若杉山,栃木県大田原市大輪675-22,36.88555375566,140.13100978358,1,0,0,-,-,-,65人,,避難場所
栃木県,佐野市,上牧集落センター,栃木県佐野市牧1940-4,36.452471305923,139.57653728957,1,0,0,-,-,-,60人,,指定避難場所
栃木県,真岡市,東沼小学校,栃木県真岡市東沼657,36.423288940471,140.00920038168,1,0,0,-,-,-,150人,,避難場所
栃木県,那須烏山市,烏山農村婦人の家,栃木県那須烏山市初音7-16,36.651819615105,140.15696039058,1,0,0,-,-,-,,,避難施設
栃木県,佐野市,栃本小学校,栃木県佐野市栃本町1037,36.360249272381,139.59046533331,1,0,0,-,-,-,280人,,指定避難場所
栃木県,佐野市,会沢地区コミュニティセンター,栃木県佐野市会沢町681,36.42295291468,139.62725822767,1,0,0,-,-,-,300人,,指定避難場所
栃木県,芳賀郡益子町,農村環境改善センター,栃木県芳賀郡益子町前沢490-1,36.435117752746,140.09168197266,1,0,0,-,-,-,500人,,指定避難場所
栃木県,足利市,日光鹿島神社境内,栃木県足利市,36.317114574619,139.50387408217,-,-,-,-,-,-,,,一時避難場所
栃木県,那須郡那須町,那須小学校,栃木県那須郡那須町湯本201-1,37.089317292228,140.00479759947,1,0,0,-,-,-,420人,,指定避難所
栃木県,栃木市,千塚小学校,栃木県栃木市大森町196,36.413466421837,139.69665026442,1,0,0,-,-,-,400人,,指定避難場所
栃木県,栃木市,都賀南部コミュニティセンター,栃木県栃木市都賀町平川481,36.409988374544,139.75188843031,1,0,0,-,-,-,460人,,指定避難場所
栃木県,下野市,石橋公民館,栃木県下野市石町416,36.436212934898,139.86234094128,1,0,0,-,-,-,190人,,指定避難場所・指定避難所
栃木県,足利市,旭幼稚園職員駐車場,栃木県足利市,36.333015432766,139.50245149037,-,-,-,-,-,-,,,一時避難場所
栃木県,下野市,石橋中学校体育館,栃木県下野市石橋1130,36.43745483068,139.84506430332,1,0,0,-,-,-,730人,,指定避難場所・指定避難所
栃木県,佐野市,田沼中央公民館,栃木県佐野市戸奈良町1-1,36.374597317313,139.56883614583,1,0,0,-,-,-,100人,,指定避難場所
栃木県,宇都宮市,上田公民館,栃木県宇都宮市上田町849-2,36.675678675441,139.91107540181,1,0,0,-,-,-,50人,,避難所
栃木県,小山市,福良小学校,栃木県小山市福良2246,36.330408531706,139.89626944225,1,0,0,-,-,-,248人,,指定避難所
栃木県,足利市,今福グランドゴルフ場,栃木県足利市,36.337707963641,139.42442392641,-,-,-,-,-,-,,,一時避難場所
栃木県,小山市,下生井小学校,栃木県小山市下生井1546,36.247098729793,139.70855809157,1,0,0,-,-,-,265人,,指定避難所
栃木県,下野市,南河内東公民館,栃木県下野市本吉田783,36.374543946381,139.90936621425,1,0,0,-,-,-,200人,,指定避難場所・指定避難所
栃木県,矢板市,矢板市コミュニティホール,栃木県矢板市片岡2098-3,36.756739863824,139.94655663323,1,0,0,-,-,-,209人,,指定避難場所
栃木県,那須郡那珂川町,馬頭西小学校,栃木県那須郡那珂川町小砂2712,36.787452934007,140.16170517984,1,0,0,-,-,-,150人,,指定避難所
栃木県,芳賀郡芳賀町,第二体育館,栃木県芳賀郡芳賀町与能861-1,36.540059761021,140.03830373867,1,0,0,-,-,-,300人,,指定避難場所・指定避難所
栃木県,栃木市,栃木工業高校,栃木県栃木市岩出町129,36.38503180101,139.70746995405,1,0,0,-,-,-,1000人,,指定避難場所
栃木県,栃木市,大平中学校,栃木県栃木市大平町蔵井2026-1,36.344220588406,139.7156288594,1,0,0,-,-,-,600人,,指定避難場所
栃木県,那須烏山市,荒川中学校,栃木県那須烏山市大金285,36.653480851678,140.09568875776,1,0,0,-,-,-,1600人,,避難施設
栃木県,下野市,国分寺東小学校体育館,栃木県下野市柴897-1,36.373023995346,139.84916702458,1,0,0,-,-,-,400人,,指定避難場所・指定避難所
栃木県,栃木市,大平運動公園,栃木県栃木市大平町蔵井1547,36.343131817018,139.71530952482,-,-,-,-,-,-,40000人,,指定避難場所
栃木県,那須塩原市,三島公民館,栃木県那須塩原市東三島6-337,36.900292663842,139.97068856871,1,0,0,-,-,-,200人,,指定避難所
栃木県,那須塩原市,大貫小学校,栃木県那須塩原市上大貫2077-2,36.895574969182,139.92539139376,1,0,0,-,-,-,590人,,指定避難所
栃木県,日光市,日光体育館,栃木県日光市相生町15,36.745481249173,139.6201579058,1,0,0,-,-,-,540人,,避難所
栃木県,大田原市,金田南中学校,栃木県大田原市南金丸1870-4,36.859350590903,140.08625602378,1,0,0,-,-,-,195人,,避難場所
栃木県,塩谷郡塩谷町,塩谷高校,栃木県塩谷郡塩谷町大宮2579-1,36.7503494978,139.8716606135,1,0,0,-,-,-,2400人,,指定避難場所
栃木県,宇都宮市,宇都宮大学,栃木県宇都宮市峰町350,36.550241377564,139.91284616278,-,-,-,-,-,-,32400人,,広域避難場所
栃木県,矢板市,倉掛公民館,栃木県矢板市倉掛815-1,36.786292904601,139.88220308014,1,0,0,-,-,-,,,その他の避難場所
栃木県,矢板市,二区自治公民館,栃木県矢板市本町14-3,36.808874287027,139.92585894982,1,0,0,-,-,-,,,その他の避難場所
栃木県,矢板市,泉中学校,栃木県矢板市泉526,36.844750027067,139.91049247256,1,0,0,-,-,-,664人,,指定避難場所
栃木県,鹿沼市,千手山公園,栃木県鹿沼市千手町,36.572768692287,139.74414508567,-,-,-,-,-,-,1850人,,広域避難場所
栃木県,小山市,豊田北小学校,栃木県小山市大本808,36.358546445556,139.78566619783,1,0,0,-,-,-,248人,,指定避難所
栃木県,足利市,梁田小学校,栃木県足利市福富町392-2,36.305599966771,139.47951840684,1,0,0,-,-,-,679人,,一時避難場所・指定避難所
栃木県,足利市,小俣小学校,栃木県足利市小俣町670-1,36.376159814845,139.37521599469,1,0,0,-,-,-,439人,,一時避難場所・指定避難所
栃木県,日光市,日光中学校,栃木県日光市久次良町2096-1,36.755739413885,139.58286711923,1,0,0,-,-,-,403人,,避難所・広域避難場所
栃木県,鹿沼市,南摩コミュニティセンター,栃木県鹿沼市油田町924-5,36.51943093725,139.71594064494,1,0,0,-,-,-,260人,,地区別避難所
栃木県,真岡市,長田小学校,栃木県真岡市長田1302-1,36.445021393095,139.96468463722,1,0,0,-,-,-,200人,,避難場所
栃木県,栃木市,学悠館高等学校,栃木県栃木市沼和田町2-2,36.372836980621,139.73442271997,1,0,0,-,-,-,,,指定避難場所
栃木県,宇都宮市,横川地区市民センター,栃木県宇都宮市屋板町576-1,36.516785872256,139.8988931095,1,0,0,-,-,-,90人,,避難所
栃木県,真岡市,真岡市武道体育館,栃木県真岡市田町1330,36.437110189447,140.01544389937,1,0,0,-,-,-,600人,,避難場所
栃木県,小山市,小山中央公園,栃木県小山市中央町1-1,36.314573747721,139.79943866472,-,-,-,-,-,-,,,広域避難場所
栃木県,栃木市,大平西地区公民館,栃木県栃木市大平町富田1641,36.339691019163,139.69665265261,1,0,0,-,-,-,100人,,指定避難場所
栃木県,日光市,日光霧降スケートセンター,栃木県日光市所野2854番地先,36.760736965241,139.6100559909,1,0,0,-,-,-,356人,,避難所
栃木県,栃木市,栃木農業高校,栃木県栃木市平井町911,36.373752664395,139.70438176639,1,0,0,-,-,-,1000人,,指定避難場所
栃木県,足利市,松田町四丁目自治会館,栃木県足利市,36.415083727603,139.43548583785,-,-,-,-,-,-,,,一時避難場所
栃木県,宇都宮市,田原中学校,栃木県宇都宮市下田原町1722,36.637458800085,139.90512608698,1,0,0,-,-,-,300人,,避難所
栃木県,大田原市,西原小学校,栃木県大田原市美原3-2-8,36.858331893111,140.00203186654,1,0,0,-,-,-,363人,,避難場所
栃木県,足利市,白山神社（自治会館）,栃木県足利市,36.313612256884,139.44152709062,-,-,-,-,-,-,,,一時避難場所
栃木県,鹿沼市,北押原小学校,栃木県鹿沼市樅山町82,36.534247163609,139.74875986766,1,0,0,-,-,-,494人,,避難所
栃木県,栃木市,藤岡小学校,栃木県栃木市藤岡町藤岡1500,36.25599193499,139.6510203313,1,0,0,-,-,-,500人,,指定避難場所
栃木県,足利市,山下南公園,栃木県足利市,36.347335949128,139.41334810848,-,-,-,-,-,-,,,一時避難場所
栃木県,足利市,板倉ふれあい児童館,栃木県足利市,36.375542308978,139.40412534972,-,-,-,-,-,-,,,一時避難場所
栃木県,宇都宮市,宇都宮カンツリークラブ,栃木県宇都宮市上戸祭町3100,36.601295258115,139.86316468862,-,-,-,-,-,-,,,一時避難場所
栃木県,日光市,元川俣小中学校,栃木県日光市川俣966,36.871929304065,139.50553514322,1,0,0,-,-,-,,,広域避難場所
栃木県,宇都宮市,姿川地区市民センター,栃木県宇都宮市西川田町805-1,36.529502975559,139.84910195705,1,0,0,-,-,-,70人,,避難所
栃木県,芳賀郡益子町,（旧）小宅小学校,栃木県芳賀郡益子町小宅681,36.508823850385,140.12560054721,1,0,0,-,-,-,600人,,指定避難場所
栃木県,下都賀郡岩舟町,小野寺北小学校,栃木県栃木市岩舟町小野寺2113-3,36.362163982482,139.62469547565,1,0,0,-,-,-,,,指定避難場所
栃木県,下野市,国分寺B＆G海洋センター体育館,栃木県下野市小金井277-2,36.384174985747,139.83618682369,1,0,0,-,-,-,430人,,指定避難場所・指定避難所
栃木県,矢板市,高塩公民館,栃木県矢板市高塩175,36.777402727287,139.90779582035,1,0,0,-,-,-,,,その他の避難場所
栃木県,佐野市,隣保館,栃木県佐野市赤坂町958-18,36.30517725685,139.56491747742,1,0,0,-,-,-,60人,,指定避難場所
栃木県,那須郡那珂川町,馬頭南保育園,栃木県那須郡那珂川町富山213-1,36.693150047308,140.17016687379,1,0,0,-,-,-,50人,,指定避難所
栃木県,足利市,戸張運動広場,栃木県足利市,36.374984591527,139.36864576618,-,-,-,-,-,-,,,一時避難場所
栃木県,宇都宮市,東芦沼公民館,栃木県宇都宮市芦沼町969,36.672899171388,139.9423547364,-,-,-,-,-,-,50人,,一時避難場所
栃木県,さくら市,さくら市鷲宿体育館,栃木県さくら市鷲宿1105,36.750134913689,139.98767700592,1,0,0,-,-,-,160人,,避難所
栃木県,宇都宮市,峰地域コミュニティセンター,栃木県宇都宮市峰3-20-17,36.552380243637,139.9193092762,1,0,0,-,-,-,50人,,避難所
栃木県,栃木市,大平西小学校,栃木県栃木市大平町富田1869,36.342192658141,139.69452561176,1,0,0,-,-,-,700人,,指定避難場所
栃木県,鹿沼市,児子沼公園,栃木県鹿沼市さつき町,36.534123513985,139.80887774904,-,-,-,-,-,-,2900人,,広域避難場所
栃木県,足利市,大月小学校,栃木県足利市大月町1089,36.353617447418,139.4828423951,1,0,0,-,-,-,209人,,一時避難場所・指定避難所
栃木県,日光市,元日光地区森林組合,栃木県日光市吉沢124,36.712310834527,139.70590392168,1,0,0,-,-,-,150人,,避難所・広域避難場所
栃木県,鹿沼市,菊沢西小学校,栃木県鹿沼市見野75,36.591754163779,139.73207641462,1,0,0,-,-,-,488人,,避難所
栃木県,足利市,研修センター,栃木県足利市,36.343836915281,139.46121090043,-,-,-,-,-,-,,,一時避難場所
栃木県,日光市,所野小学校,栃木県日光市所野820,36.751213422276,139.63210407749,1,0,0,-,-,-,498人,,避難所・広域避難場所
栃木県,小山市,小山城東小学校,栃木県小山市城東1-16-1,36.307222389252,139.81600171158,1,0,0,-,-,-,368人,,指定避難所
栃木県,佐野市,白岩生活改善センター,栃木県佐野市白岩町329-1,36.459433931357,139.52288976671,1,0,0,-,-,-,80人,,指定避難場所
栃木県,足利市,坂西中学校,栃木県足利市葉鹿町1498,36.367977664974,139.39079834671,1,0,0,-,-,-,760人,,一時避難場所・指定避難所
栃木県,矢板市,矢板中央高校,栃木県矢板市扇町2-1519,36.815715315193,139.92777224252,1,0,0,-,-,-,801人,,指定避難場所
栃木県,那須塩原市,塩原小学校,栃木県那須塩原市塩原652,36.970480833865,139.82277960048,1,0,0,-,-,-,730人,,指定避難所
栃木県,日光市,落合東小学校,栃木県日光市文挾町106,36.639506660143,139.72803671348,1,0,0,-,-,-,440人,,避難所・広域避難場所
栃木県,矢板市,乙畑公民館,栃木県矢板市乙畑925,36.739607709675,139.9538151876,1,0,0,-,-,-,,,その他の避難場所
栃木県,大田原市,大田原体育館・武道館,栃木県大田原市本町1-1-1,36.869975848457,140.01806314427,1,0,0,-,-,-,728人,,避難場所
栃木県,栃木市,都賀文化会館,栃木県栃木市都賀町原宿573,36.431506959428,139.740175693,1,0,0,-,-,-,800人,,指定避難場所
栃木県,栃木市,大宮北小学校,栃木県栃木市大宮町1777-1,36.389613268442,139.75433135133,1,0,0,-,-,-,800人,,指定避難場所
栃木県,矢板市,片岡小学校,栃木県矢板市片岡2095,36.760042205877,139.94341240736,1,0,0,-,-,-,387人,,指定避難場所
栃木県,塩谷郡塩谷町,船生東小学校,栃木県塩谷郡塩谷町船生933-2,36.770709862561,139.79876356991,1,0,0,-,-,-,900人,,指定避難場所
栃木県,那須塩原市,南小学校,栃木県那須塩原市二区町399,36.855186881203,139.97158810766,1,0,0,-,-,-,200人,,指定避難所
栃木県,小山市,犬塚公園,栃木県小山市犬塚1-24,36.30664554135,139.83123099515,-,-,-,-,-,-,,,広域避難場所
栃木県,矢板市,川崎小学校,栃木県矢板市木幡1646,36.787846721721,139.92606843515,1,0,0,-,-,-,333人,,指定避難場所
栃木県,宇都宮市,雀宮南小学校,栃木県宇都宮市南町3-3,36.481561329311,139.8662085033,1,0,0,-,-,-,1400人,,避難所
栃木県,宇都宮市,サンアビリティーズ,栃木県宇都宮市屋板町251-1,36.521593575918,139.89395457823,1,0,0,-,-,-,240人,,避難所
栃木県,下野市,国分寺中学校体育館,栃木県下野市小金井4-1-8,36.380842197541,139.83932288344,1,0,0,-,-,-,1150人,,指定避難場所・指定避難所
栃木県,矢板市,泉小学校,栃木県矢板市泉378,36.84055056819,139.91205082336,1,0,0,-,-,-,333人,,指定避難場所
栃木県,下都賀郡壬生町,壬生中学校,栃木県下都賀郡壬生町壬生甲2770,36.439155903795,139.79588801014,1,0,0,-,-,-,5655人,,指定避難場所
栃木県,日光市,西川集会所,栃木県日光市西川115-13,36.93219814941,139.68012108798,1,0,0,-,-,-,99人,,避難所・広域避難場所
栃木県,小山市,大谷北小学校,栃木県小山市犬塚5-6-10,36.306987332506,139.83340031796,1,0,0,-,-,-,303人,,指定避難所
栃木県,宇都宮市,西芦沼公民館,栃木県宇都宮市芦沼町2752,36.666130088127,139.92367912159,1,0,0,-,-,-,50人,,避難所
栃木県,那須烏山市,市民公園,栃木県那須烏山市大金240,36.658460907118,140.09391360487,-,-,-,-,-,-,1500人,,指定避難場所
栃木県,芳賀郡益子町,北運動場体育館,栃木県芳賀郡益子町大沢3535,36.494955131606,140.11455127672,1,0,0,-,-,-,500人,,指定避難場所
栃木県,足利市,小曽根町自治会館,栃木県足利市,36.27549299662,139.48041207348,-,-,-,-,-,-,,,一時避難場所
栃木県,芳賀郡益子町,フォレスト益子,栃木県芳賀郡益子町益子4231,36.466869688334,140.11806418875,1,0,0,-,-,-,300人,,指定避難場所
栃木県,さくら市,熟田小学校,栃木県さくら市狭間田1702,36.684516417091,140.00439429157,1,0,0,-,-,-,900人,,避難所
栃木県,佐野市,田沼中央公園,栃木県佐野市田沼町1360-2,36.369756395127,139.58044083113,-,-,-,-,-,-,10000人,,指定避難場所
栃木県,佐野市,田沼地区公民館,栃木県佐野市栃本町2384-3,36.362796095615,139.57673030696,1,0,0,-,-,-,130人,,指定避難場所
栃木県,栃木市,大宮公民館,栃木県栃木市大宮町422-1,36.388096803882,139.75749028823,1,0,0,-,-,-,300人,,指定避難場所
栃木県,矢板市,豊田公民館,栃木県矢板市豊田1251,36.809042050557,139.98068954246,1,0,0,-,-,-,,,その他の避難場所
栃木県,矢板市,石関公民館,栃木県矢板市石関351-1,36.74808211167,139.93898836152,1,0,0,-,-,-,,,その他の避難場所
栃木県,那須塩原市,黒磯文化会館,栃木県那須塩原市上厚崎490,36.951998311656,140.0324228401,1,0,0,-,-,-,700人,,指定避難所
栃木県,真岡市,大内東小学校,栃木県真岡市赤羽30-1,36.483997167079,140.04939471813,1,0,0,-,-,-,150人,,避難場所
栃木県,佐野市,作原野外活動施設,栃木県佐野市作原町818,36.484766842763,139.49677927509,1,0,0,-,-,-,7380人,,指定避難場所
栃木県,日光市,川俣集会所,栃木県日光市川俣963,36.872518463508,139.5064239649,1,0,0,-,-,-,131人,,避難所
栃木県,佐野市,三好生活改善センター,栃木県佐野市戸室町1183,36.39325841068,139.57432109705,1,0,0,-,-,-,110人,,指定避難場所
栃木県,下野市,別処山公園,栃木県下野市絹坂611-1,36.357879736705,139.88261062501,-,-,-,-,-,-,,,広域避難場所
栃木県,日光市,釈迦ケ岳自治公民館,栃木県日光市藤原1845,36.856083015084,139.76350448795,1,0,0,-,-,-,10人,,避難所
栃木県,那須郡那須町,芦野小学校,栃木県那須郡那須町芦野2160,36.993679547478,140.15834589684,1,0,0,-,-,-,580人,,指定避難所
栃木県,鹿沼市,東部台コミュニティセンター,栃木県鹿沼市緑町1-3-36,36.557567437412,139.77038244655,1,0,0,-,-,-,380人,,地区別避難所
栃木県,佐野市,村上保育園,栃木県佐野市村上町314-1,36.304696360291,139.54419101399,1,0,0,-,-,-,40人,,指定避難場所
栃木県,佐野市,戸奈良小学校,栃木県佐野市戸奈良町1140,36.377513372535,139.55755922975,1,0,0,-,-,-,280人,,指定避難場所
栃木県,足利市,富田小学校,栃木県足利市駒場町625,36.317719837408,139.52986080327,1,0,0,-,-,-,412人,,一時避難場所・指定避難所
栃木県,足利市,山前小学校,栃木県足利市山下町1297,36.352285385337,139.4097975762,1,0,0,-,-,-,485人,,一時避難場所・指定避難所
栃木県,鹿沼市,清洲第二小学校,栃木県鹿沼市北半田1515,36.495175881889,139.72684878578,1,0,0,-,-,-,281人,,避難所
栃木県,日光市,足尾市民センター,栃木県日光市足尾町通洞9-1,36.633209038552,139.43989344302,1,0,0,-,-,-,848人,,避難所・広域避難場所
栃木県,真岡市,中村中学校,栃木県真岡市中203,36.425740147717,139.9562057147,1,0,0,-,-,-,200人,,避難場所
栃木県,鹿沼市,台ノ原公園,栃木県鹿沼市さつき町,36.54223956088,139.80648252105,-,-,-,-,-,-,1250人,,広域避難場所
栃木県,栃木市,皆川公民館,栃木県栃木市皆川城内町699,36.395482575841,139.68234980405,1,0,0,-,-,-,370人,,指定避難場所
栃木県,宇都宮市,錦小学校,栃木県宇都宮市錦2-7-15,36.571763793992,139.89524912888,1,0,0,-,-,-,890人,,一時避難場所・避難所
栃木県,大田原市,旧黒羽・川西地区公民館,栃木県大田原市黒羽向町418-4,36.860731514979,140.11572058421,1,0,0,-,-,-,346人,,避難場所
栃木県,宇都宮市,錦地域コミュニティセンター,栃木県宇都宮市今泉町143-6,36.568178117819,139.89907950966,1,0,0,-,-,-,80人,,避難所
栃木県,矢板市,長井公民館,栃木県矢板市長井1305,36.825479730423,139.89271156201,1,0,0,-,-,-,,,その他の避難場所
栃木県,那須烏山市,七合保育園,栃木県那須烏山市大桶870,36.702898446991,140.15429260169,1,0,0,-,-,-,,,避難施設
栃木県,佐野市,常盤小学校,栃木県佐野市仙波町331-1,36.433656672516,139.59467496825,1,0,0,-,-,-,970人,,指定避難場所
栃木県,宇都宮市,宇都宮市体育館,栃木県宇都宮市元今泉5-6-18,36.561148808513,139.91071506901,1,0,0,-,-,-,1210人,,避難所・広域避難場所
栃木県,佐野市,石塚小学校,栃木県佐野市石塚町1408-2,36.354810721273,139.56127911902,1,0,0,-,-,-,1710人,,指定避難場所
栃木県,宇都宮市,西生涯学習センター,栃木県宇都宮市西一の沢町17-32,36.567674156537,139.86147987203,1,0,0,-,-,-,110人,,避難所
栃木県,真岡市,大内西小学校,栃木県真岡市下籠谷2472-1,36.488480114545,139.97589849183,1,0,0,-,-,-,200人,,避難場所
栃木県,足利市,天王町運動公園,栃木県足利市,36.314835121563,139.45108758983,-,-,-,-,-,-,,,一時避難場所
栃木県,佐野市,城東中学校,栃木県佐野市若松町405,36.319359623645,139.580151544,1,0,0,-,-,-,1100人,,指定避難場所
栃木県,真岡市,真岡西中学校,栃木県真岡市西高間木531,36.446327640945,139.98109701531,1,0,0,-,-,-,300人,,避難場所
栃木県,下野市,薬師寺小学校体育館,栃木県下野市薬師寺1412,36.394755604986,139.87705561403,1,0,0,-,-,-,480人,,指定避難場所・指定避難所
栃木県,足利市,下野田集落センター,栃木県足利市,36.284172436079,139.52848590114,-,-,-,-,-,-,,,一時避難場所
栃木県,佐野市,船越南部集落センター,栃木県佐野市船越町45,36.401287736033,139.57525400948,1,0,0,-,-,-,50人,,指定避難場所
栃木県,小山市,延島小学校,栃木県小山市延島1019,36.349439777336,139.89819934187,1,0,0,-,-,-,300人,,指定避難所
栃木県,栃木市,藤岡第二中学校,栃木県栃木市藤岡町富吉1544,36.282808860395,139.69705501044,1,0,0,-,-,-,300人,,指定避難場所
栃木県,下野市,古山小学校体育館,栃木県下野市下古山3-1-9,36.444776934109,139.85947796517,1,0,0,-,-,-,300人,,指定避難場所・指定避難所
栃木県,宇都宮市,雀宮東小学校,栃木県宇都宮市下反町町256-1,36.485131257184,139.88763465343,1,0,0,-,-,-,400人,,避難所
栃木県,塩谷郡塩谷町,旧大久保小学校跡地,栃木県塩谷郡塩谷町大久保1401,36.730155727963,139.90497537012,1,0,0,-,-,-,800人,,指定避難場所
栃木県,佐野市,田沼西運動場,栃木県佐野市閑馬町370,36.400683822323,139.51973990927,1,0,0,-,-,-,4000人,,指定避難場所
栃木県,宇都宮市,今泉地域コミュニティセンター,栃木県宇都宮市,36.560423886924,139.90250283286,1,0,0,-,-,-,,,避難所
栃木県,下都賀郡岩舟町,岩舟文化会館（コスモスホール）,栃木県栃木市岩舟町静2303,36.316295505853,139.66534888209,1,0,0,-,-,-,,,指定避難場所
栃木県,足利市,福富町二丁目自治会館,栃木県足利市,36.307536633053,139.47606787389,-,-,-,-,-,-,,,一時避難場所
栃木県,小山市,小山城南中学校,栃木県小山市東城南1-22-9,36.295781796167,139.81079669172,1,0,0,-,-,-,412人,,指定避難所
栃木県,日光市,大原市営住宅集会所,栃木県日光市鬼怒川温泉大原1286,36.812801195483,139.71589893328,1,0,0,-,-,-,48人,,避難所
栃木県,宇都宮市,雀宮中央小学校,栃木県宇都宮市雀の宮3-10-13,36.491926976588,139.87378522797,1,0,0,-,-,-,1300人,,避難所
栃木県,栃木市,栃木女子高校,栃木県栃木市薗部町1-2-5,36.37766927151,139.72213766404,1,0,0,-,-,-,1000人,,指定避難場所
栃木県,足利市,旧3分団跡地,栃木県足利市,36.317792351476,139.4925150184,-,-,-,-,-,-,,,一時避難場所
栃木県,下都賀郡岩舟町,小野寺南小学校,栃木県栃木市岩舟町下岡646-5,36.339630935496,139.63405647525,1,0,0,-,-,-,,,指定避難場所
栃木県,日光市,上三依自治公民館,栃木県日光市上三依276-1,37.011904881115,139.72697986088,1,0,0,-,-,-,68人,,避難所
栃木県,佐野市,田沼福祉コミュニティセンター,栃木県佐野市小見町123-2,36.340059696174,139.57021237488,1,0,0,-,-,-,60人,,指定避難場所
栃木県,大田原市,金田北地区公民館,栃木県大田原市市野沢1988-1,36.897284927067,140.04808750416,1,0,0,-,-,-,88人,,避難場所
栃木県,大田原市,矢倉地区活性化施設,栃木県大田原市矢倉144,36.794489965494,140.13537645528,1,0,0,-,-,-,15人,,避難場所
栃木県,佐野市,葛生小学校,栃木県佐野市葛生西1-12-1,36.403752089724,139.60841688214,1,0,0,-,-,-,500人,,指定避難場所
栃木県,栃木市,木コミュニティセンター,栃木県栃木市都賀町木813,36.428863040944,139.72422760515,1,0,0,-,-,-,100人,,指定避難場所
栃木県,栃木市,大平中央小学校,栃木県栃木市大平町新1354-2,36.330933200758,139.70409160794,1,0,0,-,-,-,400人,,指定避難場所
栃木県,栃木市,大平農村婦人の家,栃木県栃木市大平町伯仲1728-2,36.293004832789,139.71242552686,1,0,0,-,-,-,70人,,指定避難場所
栃木県,真岡市,物部地域体育館,栃木県真岡市高田2645,36.395628582789,140.02321961565,1,0,0,-,-,-,150人,,避難場所
栃木県,下都賀郡壬生町,壬生北小学校,栃木県下都賀郡壬生町北小林190,36.485573168948,139.80998816528,1,0,0,-,-,-,1392人,,指定避難場所
栃木県,足利市,坂西団地児童公園,栃木県足利市,36.370628254751,139.38148712089,-,-,-,-,-,-,,,一時避難場所
栃木県,芳賀郡益子町,七井中学校,栃木県芳賀郡益子町七井371,36.497269175628,140.10826643534,1,0,0,-,-,-,1600人,,指定避難場所
栃木県,大田原市,福原小学校,栃木県大田原市福原1132,36.803841715873,140.0504081927,1,0,0,-,-,-,215人,,避難場所
栃木県,栃木市,栃木翔南高校,栃木県栃木市大平町川連370,36.364068425322,139.72661029737,1,0,0,-,-,-,60人,,指定避難場所
栃木県,小山市,城北公園,栃木県小山市城北5-12,36.32277372084,139.81905961559,-,-,-,-,-,-,,,広域避難場所
栃木県,小山市,小山城北小学校,栃木県小山市城北5-18-1,36.3239264296,139.81977626946,1,0,0,-,-,-,302人,,指定避難所
栃木県,佐野市,若宮保育園,栃木県佐野市若宮下町12-1,36.294184629299,139.58734629236,1,0,0,-,-,-,60人,,指定避難場所
栃木県,矢板市,成田公民館,栃木県矢板市成田1406,36.800112335436,139.96671356279,1,0,0,-,-,-,,,その他の避難場所
栃木県,宇都宮市,清原南小学校,栃木県宇都宮市上籠谷町1401,36.523711965579,139.96688111341,1,0,0,-,-,-,690人,,避難所
栃木県,矢板市,農村環境改善センター,栃木県矢板市沢783,36.822545259456,139.95818838773,1,0,0,-,-,-,186人,,指定避難場所
栃木県,足利市,東山小学校,栃木県足利市助戸仲町806,36.333857580698,139.4670138302,1,0,0,-,-,-,439人,,一時避難場所・指定避難所
栃木県,芳賀郡益子町,七井小学校,栃木県芳賀郡益子町大沢202,36.493522275053,140.1025254422,1,0,0,-,-,-,1300人,,指定避難場所
栃木県,那須郡那珂川町,後沢集落センター,栃木県那須郡那珂川町東戸田292,36.742128119839,140.0900762484,1,0,0,-,-,-,20人,,指定避難所
栃木県,日光市,下原保育園,栃木県日光市鬼怒川温泉大原2,36.801048591031,139.70448302404,1,0,0,-,-,-,276人,,避難所
栃木県,栃木市,藤岡遊水地会館,栃木県栃木市藤岡町藤岡1788,36.248559713382,139.65242814579,1,0,0,-,-,-,50人,,指定避難場所
栃木県,佐野市,出流原小学校,栃木県佐野市出流原町1038-1,36.363912062215,139.54066403112,1,0,0,-,-,-,960人,,指定避難場所
栃木県,大田原市,旧川西中学校,栃木県大田原市黒羽向町1555,36.875524163008,140.11514194666,1,0,0,-,-,-,289人,,避難場所
栃木県,矢板市,市武道館,栃木県矢板市本町2-22,36.807316467887,139.92900309713,1,0,0,-,-,-,427人,,指定避難場所
栃木県,栃木市,南部地区コミュニティセンター,栃木県栃木市西方町金井1370,36.451502532937,139.74485259343,1,0,0,-,-,-,38人,,指定避難場所
栃木県,日光市,野口小学校,栃木県日光市野口900,36.733554327175,139.64760843553,1,0,0,-,-,-,282人,,避難所・広域避難場所
栃木県,日光市,野門集会所,栃木県日光市野門191-1,36.861383595023,139.52756159168,1,0,0,-,-,-,133人,,避難所
栃木県,那須塩原市,高林小学校,栃木県那須塩原市高林483,36.986334155567,139.94343632443,1,0,0,-,-,-,128人,,指定避難所
栃木県,那須塩原市,厚崎公民館,栃木県那須塩原市上厚崎500-1,36.951234512474,140.03336158663,1,0,0,-,-,-,130人,,指定避難所
栃木県,足利市,こども広場,栃木県足利市,36.363971136301,139.39930251301,-,-,-,-,-,-,,,一時避難場所
栃木県,佐野市,飛駒地区活性化センター,栃木県佐野市飛駒町688-1,36.442457142971,139.48134405829,1,0,0,-,-,-,60人,,指定避難場所
栃木県,大田原市,旧両郷中学校体育館,栃木県大田原市中野内2123,36.912399465441,140.1491647562,1,0,0,-,-,-,201人,,避難場所
栃木県,下都賀郡岩舟町,岩舟健康福祉センター（遊楽々館）,栃木県栃木市岩舟町三谷1038-1,36.339184055089,139.64753590355,1,0,0,-,-,-,,,指定避難場所
栃木県,さくら市,たいよう保育園,栃木県さくら市松山796,36.700068950232,140.00119866917,1,0,0,-,-,-,230人,,避難所
栃木県,日光市,丸山公園（グリーンスポーツハウス）,栃木県日光市瀬尾1640-22,36.737560585249,139.66982294739,-,-,-,-,-,-,70人,,避難所・広域避難場所
栃木県,鹿沼市,板荷小学校,栃木県鹿沼市板荷2775,36.641372066165,139.70403098629,1,0,0,-,-,-,420人,,避難所
栃木県,宇都宮市,栃木県中央公園,栃木県宇都宮市睦町地内,36.55867959496,139.8624549325,-,-,-,-,-,-,12950人,,広域避難場所
栃木県,足利市,五十部運動公園,栃木県足利市五十部町地内,36.336429126267,139.42770539293,-,-,-,-,-,-,,,広域避難場所
栃木県,宇都宮市,昭和地域コミュニティセンター,栃木県宇都宮市戸祭町3043-1,36.577167963773,139.87479502838,1,0,0,-,-,-,70人,,避難所
栃木県,宇都宮市,宮の原中学校,栃木県宇都宮市鶴田町261-3,36.544759812921,139.85488975924,1,0,0,-,-,-,1100人,,避難所
栃木県,佐野市,北中学校,栃木県佐野市富岡町93,36.320909691469,139.59016175609,1,0,0,-,-,-,1260人,,指定避難場所
栃木県,足利市,元県立西高校,栃木県足利市,36.35465423388,139.39549189989,-,-,-,-,-,-,,,一時避難場所
栃木県,下都賀郡野木町,新橋小学校,栃木県下都賀郡野木町友沼5110-2,36.230042443034,139.72860959642,1,0,0,-,-,-,650人,,指定避難場所
栃木県,日光市,湯西川小中学校,栃木県日光市湯西川643,36.965353581934,139.59529910476,1,0,0,-,-,-,,,広域避難場所
栃木県,日光市,轟小学校,栃木県日光市轟53,36.749085292352,139.73654061208,1,0,0,-,-,-,350人,,避難所・広域避難場所
栃木県,栃木市,西方町中央公民館,栃木県栃木市西方町本城1,36.466649037455,139.74473817062,1,0,0,-,-,-,95人,,指定避難場所
栃木県,日光市,元川治小中学校,栃木県日光市藤原1190,36.889076521227,139.70723522995,1,0,0,-,-,-,,,広域避難場所
栃木県,大田原市,勤労青少年ホーム,栃木県大田原市美原1-1-4,36.861990569806,140.01558878965,1,0,0,-,-,-,90人,,避難場所
栃木県,那須塩原市,箒根中学校,栃木県那須塩原市関谷1251,36.944222591827,139.89905504591,1,0,0,-,-,-,1140人,,指定避難所
栃木県,那須塩原市,波立小学校,栃木県那須塩原市波立228,36.952746417256,139.99334357332,1,0,0,-,-,-,128人,,指定避難所
栃木県,真岡市,真岡西小学校,栃木県真岡市熊倉町3-33-6,36.439224029721,139.99032689475,1,0,0,-,-,-,300人,,避難場所
栃木県,塩谷郡塩谷町,大宮コミュニティセンター,栃木県塩谷郡塩谷町大宮1028-2,36.738331452447,139.87585242849,1,0,0,-,-,-,,,指定避難場所
栃木県,足利市,龍泉寺,栃木県足利市,36.329073229663,139.47147338854,-,-,-,-,-,-,,,一時避難場所
栃木県,日光市,赤倉集会所,栃木県日光市足尾町赤倉8-8,36.665902387825,139.44568082121,1,0,0,-,-,-,44人,,避難所
栃木県,宇都宮市,細谷地域コミュニティセンター,栃木県宇都宮市,36.591032807826,139.85527468006,1,0,0,-,-,-,,,避難所
栃木県,芳賀郡芳賀町,祖母井保育園,栃木県芳賀郡芳賀町祖母井293-1,36.549150851475,140.06373456389,1,0,0,-,-,-,100人,,指定避難場所
栃木県,宇都宮市,泉が丘小学校,栃木県宇都宮市泉が丘7-12-14,36.567075116731,139.92032368193,1,0,0,-,-,-,1300人,,一時避難場所・避難所
栃木県,宇都宮市,西原地域コミュニティセンター,栃木県宇都宮市西原2-5-42,36.554485342909,139.87240743287,1,0,0,-,-,-,80人,,避難所
栃木県,宇都宮市,岡本小学校,栃木県宇都宮市中岡本町2623,36.601673101806,139.95362024329,1,0,0,-,-,-,500人,,避難所
栃木県,佐野市,秋山生活改善センター,栃木県佐野市秋山734,36.507169868226,139.52136253942,1,0,0,-,-,-,60人,,指定避難場所
栃木県,さくら市,鬼怒川河川公園,栃木県宇都宮市芦沼町,36.673425086648,139.95392698186,-,-,-,-,-,-,14800人,,避難場所
栃木県,佐野市,佐野地区公民館,栃木県佐野市金井上町2519,36.311835175533,139.57217487447,1,0,0,-,-,-,370人,,指定避難場所
栃木県,下都賀郡野木町,老人福祉センター,栃木県下都賀郡野木町友沼5840-7,36.220629631959,139.72834579861,1,0,0,-,-,-,650人,,指定避難場所
栃木県,鹿沼市,自然の森総合公園,栃木県鹿沼市下石川,36.50997276094,139.79785746062,-,-,-,-,-,-,4550人,,広域避難場所
栃木県,大田原市,野崎中学校,栃木県大田原市薄葉2250,36.841829632523,139.95981795753,1,0,0,-,-,-,223人,,避難場所
栃木県,那須郡那須町,那須中学校,栃木県那須郡那須町高久丙1-1,37.046331648088,140.02360557495,1,0,0,-,-,-,670人,,指定避難所
栃木県,日光市,原集会所,栃木県日光市足尾町3066-1,36.618024666841,139.42079860581,1,0,0,-,-,-,59人,,避難所
栃木県,矢板市,前岡公民館,栃木県矢板市片岡1502,36.768468835022,139.94134555459,1,0,0,-,-,-,,,その他の避難場所
栃木県,真岡市,中村農村環境改善センター,栃木県真岡市中247,36.423573530398,139.95906945384,1,0,0,-,-,-,200人,,避難場所
栃木県,宇都宮市,文化会館、明保野公園,栃木県宇都宮市明保野町7-66,36.547209869482,139.86819977328,-,-,-,-,-,-,9300人,,一時避難場所
栃木県,真岡市,長沼地域体育館,栃木県真岡市砂ヶ原1280,36.380495003331,139.93505614556,1,0,0,-,-,-,200人,,避難場所
栃木県,宇都宮市,八幡山公園,栃木県宇都宮市塙田5丁目地内,36.571775056323,139.88594183295,-,-,-,-,-,-,17100人,,広域避難場所
栃木県,下野市,南河内公民館南河内保健センター,栃木県下野市田中681-1,36.385126114364,139.87684482519,1,0,0,-,-,-,330人,,指定避難場所・指定避難所
栃木県,大田原市,佐久山中学校,栃木県大田原市佐久山4427-107,36.79800595543,140.03290142918,1,0,0,-,-,-,233人,,避難場所
栃木県,日光市,小林中学校,栃木県日光市小林2384,36.726531838832,139.8139770711,1,0,0,-,-,-,310人,,避難所・広域避難場所
栃木県,栃木市,合戦場小学校,栃木県栃木市都賀町合戦場301,36.408701632939,139.74616033481,1,0,0,-,-,-,550人,,指定避難場所
栃木県,矢板市,矢板東高校,栃木県矢板市東町4-8,36.801273053302,139.93846363721,1,0,0,-,-,-,791人,,指定避難場所
栃木県,日光市,戸中集会所,栃木県日光市日向694,36.888528342878,139.65558823421,1,0,0,-,-,-,36人,,避難所
栃木県,矢板市,旧上伊佐野小学校,栃木県矢板市上伊佐野761,36.872375487317,139.90827166226,1,0,0,-,-,-,416人,,指定避難場所
栃木県,那須塩原市,シニアセンター,栃木県那須塩原市鍋掛1429-34,36.953801601764,140.07237254591,1,0,0,-,-,-,50人,,指定避難所
栃木県,さくら市,西河原公民館,栃木県さくら市喜連川4392,36.733373907464,140.00284941427,1,0,0,-,-,-,20人,,避難所
栃木県,佐野市,飛駒3区多目的集会所,栃木県佐野市飛駒町2412,36.463135571701,139.46299199369,1,0,0,-,-,-,20人,,指定避難場所
栃木県,芳賀郡益子町,田野小学校,栃木県芳賀郡益子町長堤400,36.428707596396,140.08569718721,1,0,0,-,-,-,1300人,,指定避難場所
栃木県,足利市,御厨神社,栃木県足利市,36.318394676054,139.46095918995,-,-,-,-,-,-,,,一時避難場所
栃木県,宇都宮市,岡本コミュニティプラザ,栃木県宇都宮市下岡本町1954-10,36.597601026504,139.94376282722,1,0,0,-,-,-,100人,,避難所
栃木県,大田原市,桧木沢集落センター,栃木県大田原市桧木沢804,36.894330796431,140.1073495863,1,0,0,-,-,-,30人,,避難場所
栃木県,鹿沼市,久我小学校,栃木県鹿沼市上久我60-1,36.592356841708,139.65147264538,1,0,0,-,-,-,421人,,避難所
栃木県,宇都宮市,上河内中学校,栃木県宇都宮市中里町162,36.683791329553,139.90244428164,1,0,0,-,-,-,2000人,,避難所
栃木県,佐野市,吾妻地区公民館,栃木県佐野市村上町9,36.295833218273,139.54016660767,1,0,0,-,-,-,110人,,指定避難場所
栃木県,下都賀郡野木町,佐川野小学校,栃木県下都賀郡野木町佐川野1808,36.23248544855,139.76922247616,1,0,0,-,-,-,600人,,指定避難場所
栃木県,日光市,遠下林業活動促進センター（遠下集会所）,栃木県日光市足尾町遠下5-12,36.627793027233,139.42912520889,1,0,0,-,-,-,32人,,避難所
栃木県,宇都宮市,宝木地域コミュニティセンター,栃木県宇都宮市駒生町3364-29,36.582820325964,139.84935033823,1,0,0,-,-,-,20人,,避難所
栃木県,那須塩原市,大原間小学校,栃木県那須塩原市方京3丁目14-6,36.930307975009,140.01220850129,1,0,0,-,-,-,266人,,指定避難所
栃木県,小山市,羽川西小学校,栃木県小山市黒本771-2,36.356705576572,139.80955712062,1,0,0,-,-,-,349人,,指定避難所
栃木県,宇都宮市,姿川第二小学校,栃木県宇都宮市砥上町52,36.544706860952,139.84718475241,1,0,0,-,-,-,1000人,,避難所
栃木県,矢板市,梶ヶ沢公民館,栃木県矢板市片岡40-2,36.766583180714,139.95269721921,1,0,0,-,-,-,,,その他の避難場所
栃木県,佐野市,舘野集落農事集会所,栃木県佐野市栃本町3281-14,36.346511808424,139.58293600766,1,0,0,-,-,-,50人,,指定避難場所
栃木県,矢板市,上太田公民館,栃木県矢板市上太田189,36.835075934125,139.91218146305,1,0,0,-,-,-,,,その他の避難場所
栃木県,宇都宮市,御幸小学校,栃木県宇都宮市御幸本町4638-1,36.57558120309,139.92572207181,1,0,0,-,-,-,1200人,,一時避難場所・避難所
栃木県,足利市,小俣田町自治会館,栃木県足利市,36.373049878917,139.37583889031,-,-,-,-,-,-,,,一時避難場所
栃木県,足利市,利保公園,栃木県足利市,36.356798066261,139.47184390614,-,-,-,-,-,-,,,一時避難場所
栃木県,芳賀郡益子町,益子小学校,栃木県芳賀郡益子町益子4665,36.459978431744,140.09724706288,1,0,0,-,-,-,1700人,,指定避難場所
栃木県,足利市,久野小学校,栃木県足利市久保田町216,36.289860542808,139.50496636112,1,0,0,-,-,-,604人,,一時避難場所・指定避難所
栃木県,那須郡那珂川町,久那瀬公民館,栃木県那須郡那珂川町久那瀬588,36.726542631504,140.15426840867,1,0,0,-,-,-,40人,,指定避難所
栃木県,日光市,藤原保健センター,栃木県日光市藤原19,36.841413419997,139.72275607246,1,0,0,-,-,-,327人,,避難所
栃木県,足利市,青葉小学校,栃木県足利市大橋町1-2007-1,36.343867585899,139.46462758599,1,0,0,-,-,-,439人,,一時避難場所・指定避難所
栃木県,日光市,大桑小学校,栃木県日光市大桑町179,36.761347548866,139.71206741791,1,0,0,-,-,-,280人,,避難所・広域避難場所
栃木県,河内郡上三川町,中央公民館,栃木県河内郡上三川町上三川3970,36.424816496529,139.90772648891,1,0,0,-,-,-,500人,,指定避難場所
栃木県,那須塩原市,日新中学校,栃木県那須塩原市鍋掛1087,36.957443111062,140.07366119962,1,0,0,-,-,-,298人,,指定避難所
栃木県,日光市,稲荷町防災公園,栃木県日光市稲荷町2丁目,36.750830894654,139.61493519244,-,-,-,-,-,-,,,広域避難場所
栃木県,宇都宮市,姿川第一小学校,栃木県宇都宮市西川田本町3-11-15,36.511137716727,139.84343101851,1,0,0,-,-,-,1400人,,避難所
栃木県,大田原市,品川センター,栃木県大田原市蛭畑1981-23,36.80831155455,140.10033097738,1,0,0,-,-,-,30人,,避難場所
栃木県,那須塩原市,にしなすの運動公園,栃木県那須塩原市高柳10番地内,36.900618074163,139.98898957194,-,-,-,-,-,-,500人,,指定避難所
栃木県,小山市,穂積小学校,栃木県小山市萩島27,36.312278670093,139.77185524708,1,0,0,-,-,-,362人,,指定避難所
栃木県,那須郡那須町,高久小・中学校,栃木県那須郡那須町高久甲3358-3,36.996687618653,140.05520089538,1,0,0,-,-,-,450人,,指定避難所
栃木県,栃木市,あいあいプラザ,栃木県栃木市都賀町平川438,36.409818752266,139.74805246744,1,0,0,-,-,-,100人,,指定避難場所
栃木県,鹿沼市,富士山公園,栃木県鹿沼市花岡町,36.559136348085,139.73801420222,-,-,-,-,-,-,4250人,,広域避難場所
栃木県,宇都宮市,明保野体育館,栃木県宇都宮市明保野町7-9,36.548312551094,139.86796363992,1,0,0,-,-,-,220人,,避難所
栃木県,日光市,落合西小学校,栃木県日光市長畑522-2,36.672590359164,139.70137681655,1,0,0,-,-,-,320人,,避難所・広域避難場所
栃木県,宇都宮市,石井小学校,栃木県宇都宮市石井町1213,36.539943189335,139.92978067964,1,0,0,-,-,-,1500人,,避難所
栃木県,栃木市,赤麻地区公民館,栃木県栃木市藤岡町赤麻1737,36.271396065634,139.66694618664,1,0,0,-,-,-,100人,,指定避難場所
栃木県,大田原市,中野内公民館,栃木県大田原市中野内2123,36.915746428968,140.15242128596,1,0,0,-,-,-,30人,,避難場所
栃木県,大田原市,佐良土西コミュニティーセンター,栃木県大田原市佐良土1207,36.795602394586,140.10747774324,1,0,0,-,-,-,30人,,避難場所
栃木県,大田原市,美原公園,栃木県大田原市美原1-15-25,36.860393162578,140.00365658971,-,-,-,-,-,-,30750人,,避難場所
栃木県,栃木市,皆川城東小学校,栃木県栃木市皆川城内町486,36.397724138964,139.69173486294,1,0,0,-,-,-,700人,,指定避難場所
栃木県,佐野市,赤見中学校,栃木県佐野市出流原町628-1,36.360179389136,139.54941886259,1,0,0,-,-,-,1920人,,指定避難場所
栃木県,那須郡那須町,文化センター,栃木県那須郡那須町寺子乙2567-10,37.014917811939,140.1103847775,1,0,0,-,-,-,790人,,指定避難所
栃木県,宇都宮市,東小学校,栃木県宇都宮市東塙田1-6-14,36.564869089821,139.891215183,1,0,0,-,-,-,1400人,,一時避難場所・避難所
栃木県,佐野市,田沼小学校,栃木県佐野市田沼町603,36.365670771402,139.57668580164,1,0,0,-,-,-,450人,,指定避難場所
栃木県,小山市,小山第二小学校,栃木県小山市宮本町2-9-20,36.310443591078,139.7995166369,1,0,0,-,-,-,295人,,指定避難所
栃木県,足利市,けやき小学校,栃木県足利市柳原町861,36.340770069556,139.45141757249,1,0,0,-,-,-,517人,,一時避難場所・指定避難所
栃木県,大田原市,佐良土小学校,栃木県大田原市佐良土901-3,36.792631291902,140.11946941499,1,0,0,-,-,-,245人,,避難場所
栃木県,宇都宮市,駅東公園,栃木県宇都宮市元今泉5-6-18,36.560144169215,139.90896311729,-,-,-,-,-,-,9440人,,一時避難場所
栃木県,那須郡那珂川町,小口集会所,栃木県那須郡那珂川町小口1169-3,36.767749284108,140.14890143364,1,0,0,-,-,-,40人,,指定避難所
栃木県,芳賀郡芳賀町,稲毛田地域体育館,栃木県芳賀郡芳賀町稲毛田1532-1,36.565038075681,140.06995841302,1,0,0,-,-,-,100人,,指定避難場所
栃木県,日光市,女性サポートセンター,栃木県日光市清滝桜ケ丘町210-7,36.737610214595,139.56153355898,1,0,0,-,-,-,575人,,避難所
栃木県,小山市,小山城南小学校,栃木県小山市西城南5-29-1,36.293656680334,139.79803114136,1,0,0,-,-,-,303人,,指定避難所
栃木県,足利市,八坂神社境内,栃木県足利市,36.304352988762,139.44710376562,-,-,-,-,-,-,,,一時避難場所
栃木県,栃木市,大平東地区公民館,栃木県栃木市大平町横堀808,36.348395541122,139.73449089861,1,0,0,-,-,-,90人,,指定避難場所
栃木県,日光市,日光福祉保健センター,栃木県日光市花石町1942-1,36.751995763662,139.58580586307,1,0,0,-,-,-,208人,,避難所
栃木県,矢板市,旧長井小学校,栃木県矢板市長井1248,36.826998876096,139.89153382146,1,0,0,-,-,-,417人,,指定避難場所
栃木県,小山市,神久保公園,栃木県小山市神鳥谷2-29,36.299586359591,139.79218982986,-,-,-,-,-,-,,,広域避難場所
栃木県,栃木市,栃木西中学校,栃木県栃木市片柳町2-15-40,36.371797747527,139.71953833516,1,0,0,-,-,-,1300人,,指定避難場所
栃木県,那須烏山市,烏山中央公園,栃木県那須烏山市中央2-13-2,36.657509185526,140.15575490187,-,-,-,-,-,-,2000人,,指定避難場所
栃木県,那須烏山市,せせらぎの里公園,栃木県那須烏山市大沢634,36.670028799071,140.1935098896,-,-,-,-,-,-,,,指定避難場所
栃木県,下都賀郡野木町,南赤塚小学校,栃木県下都賀郡野木町中谷508,36.222282394023,139.74478348152,1,0,0,-,-,-,600人,,指定避難場所
栃木県,宇都宮市,陽光地区学習等併用施設（陽光地域コミュニティセンター）,栃木県宇都宮市緑5-8-8,36.516371221476,139.86265977242,1,0,0,-,-,-,50人,,避難所
栃木県,栃木市,南小学校,栃木県栃木市沼和田町38-10,36.363835464736,139.73933960323,1,0,0,-,-,-,1000人,,指定避難場所
栃木県,足利市,城山町自治会館,栃木県足利市,36.389622446721,139.37606875514,-,-,-,-,-,-,,,一時避難場所
栃木県,塩谷郡塩谷町,船生小学校,栃木県塩谷郡塩谷町船生3660,36.768420754598,139.78602847553,1,0,0,-,-,-,900人,,指定避難場所
栃木県,宇都宮市,簗瀬小学校,栃木県宇都宮市南大通り2-6-6,36.554379339766,139.89331693941,1,0,0,-,-,-,1300人,,一時避難場所・避難所
栃木県,さくら市,駅西4号公園,栃木県さくら市卯の里5-62-3,36.677598919263,139.96209436949,-,-,-,-,-,-,150人,,避難場所
栃木県,小山市,希望ケ丘公園,栃木県小山市西城南5-1,36.296581236164,139.79574517429,-,-,-,-,-,-,,,広域避難場所
栃木県,矢板市,館ノ川公民館,栃木県矢板市館ノ川179,36.784969030759,139.91836673209,1,0,0,-,-,-,,,その他の避難場所
栃木県,真岡市,真岡市総合運動公園,栃木県真岡市小林972-1,36.430625337635,140.03659200928,-,-,-,-,-,-,,,避難場所
栃木県,さくら市,あおぞら保育園,栃木県さくら市草川42,36.681728557977,139.95437552697,1,0,0,-,-,-,250人,,避難所
栃木県,佐野市,田沼西中学校,栃木県佐野市戸室町156,36.379441020651,139.57126076116,1,0,0,-,-,-,630人,,指定避難場所
栃木県,下都賀郡岩舟町,岩舟西根南集会所,栃木県栃木市岩舟町小野寺828-3,36.344621510691,139.62041036321,1,0,0,-,-,-,,,指定避難場所
栃木県,那須塩原市,横林小学校,栃木県那須塩原市横林137-5,36.93993034858,139.96032414561,1,0,0,-,-,-,450人,,指定避難所
栃木県,佐野市,田沼グリーンスポーツセンター,栃木県佐野市戸室町1592-2,36.385734541621,139.57116053317,1,0,0,-,-,-,31000人,,指定避難場所
栃木県,真岡市,久下田中学校,栃木県真岡市久下田1304,36.379639590796,139.96169033641,1,0,0,-,-,-,300人,,避難場所
栃木県,那須烏山市,烏山武道館,栃木県那須烏山市中央2-17-1,36.658823413454,140.15540795809,1,0,0,-,-,-,,,避難施設
栃木県,さくら市,早乙女公民館,栃木県さくら市早乙女860,36.71528989634,140.00675008884,1,0,0,-,-,-,30人,,避難所
栃木県,足利市,八雲神社,栃木県足利市,36.3378884985,139.44411981352,-,-,-,-,-,-,,,一時避難場所
栃木県,栃木市,真名子小学校,栃木県栃木市西方町真名子1089,36.472185607067,139.70001640458,1,0,0,-,-,-,196人,,指定避難場所
栃木県,那須烏山市,大木須集会所,栃木県那須烏山市大木須1768,36.632880707237,140.2225951266,1,0,0,-,-,-,,,避難施設
栃木県,塩谷郡塩谷町,旧船生中学校跡地,栃木県塩谷郡塩谷町船生3733,36.764635639974,139.78018107338,1,0,0,-,-,-,1200人,,指定避難場所
栃木県,日光市,小来川保育園,栃木県日光市中小来川2612-2,36.66175916628,139.62337189453,1,0,0,-,-,-,55人,,避難所
栃木県,下野市,国分寺西小学校体育館,栃木県下野市川中子3278,36.391590201742,139.81902115936,1,0,0,-,-,-,360人,,指定避難場所・指定避難所
栃木県,那須郡那須町,田中小学校,栃木県那須郡那須町寺子乙1240-1,36.999899347462,140.0958584716,1,0,0,-,-,-,390人,,指定避難所
栃木県,日光市,自由ケ丘自治公民館,栃木県日光市鬼怒川温泉大原35-1,36.800442953982,139.70737557249,1,0,0,-,-,-,40人,,避難所
栃木県,那須塩原市,新湯地区公民館,栃木県那須塩原市湯本塩原177-1,36.955025674919,139.77488554976,1,0,0,-,-,-,540人,,指定避難所
栃木県,大田原市,石上小学校,栃木県大田原市上石上1528,36.859240774904,139.94495485275,1,0,0,-,-,-,363人,,避難場所
栃木県,下都賀郡岩舟町,岩舟総合運動場（岩舟体育館）,栃木県栃木市岩舟町静2292-1,36.316639820172,139.66366295069,1,0,0,-,-,-,,,指定避難場所
栃木県,佐野市,山形小学校,栃木県佐野市山形町649-2,36.385489718485,139.53731641331,1,0,0,-,-,-,280人,,指定避難場所
栃木県,さくら市,総合公園,栃木県さくら市櫻野1789,36.695091691408,139.98248642354,-,-,-,-,-,-,15100人,,避難場所
栃木県,栃木市,家中小学校,栃木県栃木市都賀町家中2740,36.429186271896,139.75931857761,1,0,0,-,-,-,600人,,指定避難場所
栃木県,真岡市,山前農村環境改善センター,栃木県真岡市小林935-1,36.432186192151,140.04054440903,1,0,0,-,-,-,200人,,避難場所
栃木県,下都賀郡壬生町,稲葉小学校,栃木県下都賀郡壬生町上稲葉881,36.451315115839,139.77755294867,1,0,0,-,-,-,2192人,,指定避難場所
栃木県,佐野市,界小学校,栃木県佐野市馬門町1539,36.285052681381,139.59904739542,1,0,0,-,-,-,1000人,,指定避難場所
栃木県,足利市,あしかがハ?ヴェストプレース,栃木県足利市,36.335721176951,139.47719059965,-,-,-,-,-,-,,,一時避難場所
栃木県,鹿沼市,楡木小学校,栃木県鹿沼市楡木町70-2,36.507177927298,139.75396315343,1,0,0,-,-,-,407人,,避難所
栃木県,足利市,鑁阿寺境内,栃木県足利市家富町地内,36.337537858267,139.45225226834,-,-,-,-,-,-,,,広域避難場所
栃木県,矢板市,通岡公民館,栃木県矢板市片岡2072-1,36.760568089449,139.93853070172,1,0,0,-,-,-,,,その他の避難場所
栃木県,鹿沼市,北押原コミュニティセンター,栃木県鹿沼市樅山町162-2,36.537333061194,139.75249565999,1,0,0,-,-,-,235人,,地区別避難所
栃木県,小山市,小山第二中学校,栃木県小山市天神町1-6-36,36.305902450646,139.79795581459,1,0,0,-,-,-,350人,,指定避難所
栃木県,栃木市,東陽中学校,栃木県栃木市大宮町1287,36.388466811093,139.76906697094,1,0,0,-,-,-,1000人,,指定避難場所
栃木県,足利市,旧東小学校,栃木県足利市,36.331810795024,139.45230678782,-,-,-,-,-,-,,,一時避難場所
栃木県,小山市,桑中学校,栃木県小山市出井1859,36.345254837342,139.83044761157,1,0,0,-,-,-,446人,,指定避難所
栃木県,小山市,小山西高等学校,栃木県小山市松沼741,36.352843621157,139.76865943809,1,0,0,-,-,-,1096人,,指定避難所
栃木県,足利市,白鴎高校校庭,栃木県足利市,36.331492619631,139.4540916506,-,-,-,-,-,-,,,一時避難場所
栃木県,大田原市,大田原小学校,栃木県大田原市城山1-4-36,36.864993435135,140.03111492842,1,0,0,-,-,-,487人,,避難場所
栃木県,宇都宮市,石井地域コミュニティセンター,栃木県宇都宮市石井町1213,36.540503724882,139.92905163152,1,0,0,-,-,-,20人,,避難所
栃木県,鹿沼市,東中学校,栃木県鹿沼市府中町393,36.562344231538,139.75857222864,1,0,0,-,-,-,561人,,避難所
栃木県,宇都宮市,御幸が原小学校,栃木県宇都宮市御幸が原町53-2,36.594419636564,139.92901793654,1,0,0,-,-,-,1100人,,避難所
栃木県,栃木市,栃木保健福祉センター,栃木県栃木市今泉町2-1-40,36.380991951123,139.74589597005,1,0,0,-,-,-,600人,,指定避難場所
栃木県,下都賀郡壬生町,安塚小学校,栃木県下都賀郡壬生町安塚2078,36.489145680476,139.8307802578,1,0,0,-,-,-,1916人,,指定避難場所
栃木県,日光市,大王集会所,栃木県日光市日向1477,36.877863016761,139.64670284197,1,0,0,-,-,-,32人,,避難所
栃木県,足利市,借宿運動公園,栃木県足利市,36.331993660861,139.42828665517,-,-,-,-,-,-,,,一時避難場所
栃木県,栃木市,栃木中央小学校,栃木県栃木市入舟町6-8,36.380969106119,139.73006695893,1,0,0,-,-,-,1500人,,指定避難場所
栃木県,塩谷郡塩谷町,認定しおやこども園,栃木県塩谷郡塩谷町玉生1057-83,36.781781723309,139.85626338397,1,0,0,-,-,-,,,指定避難場所
栃木県,足利市,山下町六丁目町内運動場,栃木県足利市,36.358683562071,139.40763885275,-,-,-,-,-,-,,,一時避難場所
栃木県,日光市,日光公民館,栃木県日光市御幸町4-1,36.748418895372,139.61315325137,1,0,0,-,-,-,232人,,避難所
栃木県,足利市,満宝寺境内,栃木県足利市,36.282637872999,139.51746725856,-,-,-,-,-,-,,,一時避難場所
栃木県,佐野市,佐野武道館,栃木県佐野市堀米町167-1,36.321162178137,139.58239845106,1,0,0,-,-,-,160人,,指定避難場所
栃木県,那須郡那珂川町,富山集会所,栃木県那須郡那珂川町富山541-4,36.696899846333,140.18489039388,1,0,0,-,-,-,50人,,指定避難所
栃木県,大田原市,大豆田公民館,栃木県大田原市大豆田413,36.856704233309,140.11665943948,1,0,0,-,-,-,30人,,避難場所
栃木県,足利市,猿田公園,栃木県足利市,36.317493274667,139.47594094293,-,-,-,-,-,-,,,一時避難場所
栃木県,那須郡那珂川町,和見集会所,栃木県那須郡那珂川町和見2041-1,36.759900364471,140.16411439562,1,0,0,-,-,-,40人,,指定避難所
栃木県,芳賀郡芳賀町,高橋小学校跡（地域体育館）,栃木県芳賀郡芳賀町西高橋2615,36.504746502066,140.02486573675,1,0,0,-,-,-,100人,,指定避難場所
栃木県,佐野市,佐野清澄高校,栃木県佐野市堀米町840,36.325889599944,139.59086420325,1,0,0,-,-,-,740人,,指定避難場所
栃木県,矢板市,四区公民館,栃木県矢板市上町738-2,36.811874026262,139.92308407634,1,0,0,-,-,-,,,その他の避難場所
栃木県,塩谷郡塩谷町,道の駅「湧水の郷しおや」,栃木県塩谷郡塩谷町船生3733-1,36.764829237908,139.78087323739,1,0,0,-,-,-,,,指定避難場所
栃木県,宇都宮市,豊郷南小学校,栃木県宇都宮市竹林町532,36.580149325668,139.90757242234,1,0,0,-,-,-,1300人,,避難所
栃木県,宇都宮市,北生涯学習センター,栃木県宇都宮市若草3-12-25,36.58735487314,139.8615541343,1,0,0,-,-,-,110人,,避難所
栃木県,鹿沼市,池ノ森小学校,栃木県鹿沼市池ノ森757-1,36.499193057569,139.7884918996,1,0,0,-,-,-,399人,,避難所
栃木県,下都賀郡岩舟町,静和小学校,栃木県栃木市岩舟町静和2432,36.315915327076,139.68030851977,1,0,0,-,-,-,,,指定避難場所
栃木県,栃木市,都賀よつば保育園,栃木県栃木市都賀町原宿675-1,36.432326494931,139.73889801264,1,0,0,-,-,-,120人,,指定避難場所
栃木県,真岡市,二宮支所,栃木県真岡市石島893-15,36.386750121645,139.96966995011,1,0,0,-,-,-,900人,,避難場所
栃木県,那須郡那珂川町,馬頭総合福祉センター,栃木県那須郡那珂川町馬頭560-1,36.736172247826,140.1736284675,1,0,0,-,-,-,300人,,指定避難所
栃木県,那須塩原市,鍋掛公民館,栃木県那須塩原市鍋掛531,36.945906037136,140.10039571864,1,0,0,-,-,-,105人,,指定避難所
栃木県,芳賀郡芳賀町,郷土資料館,栃木県芳賀郡芳賀町与能1514-2,36.532585641663,140.0416233394,1,0,0,-,-,-,150人,,指定避難場所
栃木県,足利市,朝倉公園,栃木県足利市,36.319484788345,139.4559968996,-,-,-,-,-,-,,,一時避難場所
栃木県,足利市,足利学校,栃木県足利市,36.335943343674,139.4536313766,-,-,-,-,-,-,,,一時避難場所
栃木県,佐野市,田名網集落センター,栃木県佐野市豊代1158,36.419227735122,139.59212064727,1,0,0,-,-,-,50人,,指定避難場所
栃木県,足利市,足利市総合運動場,栃木県足利市田所町・西砂原後町地内,36.345843409851,139.46068447883,-,-,-,-,-,-,,,広域避難場所
栃木県,大田原市,大田原東地区公民館,栃木県大田原市若草1-1287-1,36.853808638626,140.04004542223,1,0,0,-,-,-,96人,,避難場所
栃木県,芳賀郡芳賀町,芳賀温泉ロマンの湯,栃木県芳賀郡芳賀町上延生160,36.552572237515,140.05680162019,1,0,0,-,-,-,250人,,指定避難場所・指定避難所
栃木県,宇都宮市,峰小学校,栃木県宇都宮市峰3-20-17,36.551975793663,139.91997112497,1,0,0,-,-,-,1500人,,一時避難場所・避難所
栃木県,那須塩原市,戸田小学校,栃木県那須塩原市戸田2,37.013181173124,139.96344176014,1,0,0,-,-,-,169人,,指定避難所
栃木県,下都賀郡岩舟町,岩舟農村環境改善センター,栃木県栃木市岩舟町下津原1572-1,36.309559628016,139.63423298469,1,0,0,-,-,-,,,指定避難場所
栃木県,佐野市,高萩保育園,栃木県佐野市高萩町684-1,36.304561610798,139.59497913082,1,0,0,-,-,-,40人,,指定避難場所
栃木県,大田原市,ふれあいの丘青少年研修センター,栃木県大田原市福原1411-22,36.800919811372,140.0489279157,1,0,0,-,-,-,590人,,避難場所
栃木県,足利市,宮北児童公園,栃木県足利市,36.322893963676,139.4727757435,-,-,-,-,-,-,,,一時避難場所
栃木県,足利市,蔵王様,栃木県足利市,36.339158771259,139.45571894013,-,-,-,-,-,-,,,一時避難場所
栃木県,塩谷郡塩谷町,おおみや保育園,栃木県塩谷郡塩谷町大宮2108-1,36.741092252961,139.87136935638,1,0,0,-,-,-,,,指定避難場所
栃木県,栃木市,市民会館,栃木県栃木市日ノ出町14-36,36.382972086071,139.74266260882,1,0,0,-,-,-,200人,,指定避難場所
栃木県,佐野市,西中学校,栃木県佐野市大橋町2026,36.314356872781,139.56183657128,1,0,0,-,-,-,2110人,,指定避難場所
栃木県,宇都宮市,城東小学校,栃木県宇都宮市簗瀬町360,36.550159944732,139.903439492,1,0,0,-,-,-,850人,,避難所
栃木県,大田原市,川西小学校,栃木県大田原市黒羽向町618,36.866742071454,140.11080116335,1,0,0,-,-,-,642人,,避難場所
栃木県,日光市,日光保育園,栃木県日光市御幸町6-1,36.747830049057,139.61298108791,1,0,0,-,-,-,186人,,避難所
栃木県,宇都宮市,陽北中学校,栃木県宇都宮市今泉町47-2,36.571483357852,139.89920158711,1,0,0,-,-,-,1300人,,一時避難場所・避難所
栃木県,那須塩原市,西公民館,栃木県那須塩原市四区町661,36.896006340014,139.95297105148,1,0,0,-,-,-,220人,,指定避難所
栃木県,鹿沼市,津田小学校,栃木県鹿沼市深津1390,36.544070330886,139.81548473763,1,0,0,-,-,-,488人,,避難所
栃木県,矢板市,安沢小学校,栃木県矢板市安沢1450,36.784971390742,139.95192217974,1,0,0,-,-,-,304人,,指定避難場所
栃木県,足利市,板倉集会所,栃木県足利市,36.374115074443,139.40826448143,-,-,-,-,-,-,,,一時避難場所
栃木県,宇都宮市,とちぎ福祉プラザ,栃木県宇都宮市若草1丁目10番6号,36.584913832322,139.86326517378,-,-,-,-,-,-,1550人,,一時避難場所
栃木県,佐野市,城北小学校,栃木県佐野市堀米町1156,36.323656323114,139.58042897999,1,0,0,-,-,-,2230人,,指定避難場所
栃木県,佐野市,南中学校,栃木県佐野市植下町1205,36.299242244735,139.58236348307,1,0,0,-,-,-,550人,,指定避難場所
栃木県,足利市,葉鹿上町自治会館広場,栃木県足利市,36.366002662667,139.38088766499,-,-,-,-,-,-,,,一時避難場所
栃木県,下野市,コミュニティセンター友愛館,栃木県下野市柴1019-1,36.370643864854,139.85130307712,1,0,0,-,-,-,100人,,指定避難場所・指定避難所
栃木県,宇都宮市,田原西小学校,栃木県宇都宮市立伏町8-1,36.643735323071,139.88731374863,1,0,0,-,-,-,500人,,避難所
栃木県,那須郡那珂川町,小川体育館,栃木県那須郡那珂川町小川2785,36.761385258077,140.12900021002,1,0,0,-,-,-,450人,,指定避難所
栃木県,足利市,渡良瀬運動場,栃木県足利市伊勢町地内,36.328036045752,139.45633259777,-,-,-,-,-,-,,,広域避難場所
栃木県,足利市,中橋緑地,栃木県足利市南町地内,36.331387249064,139.44740826429,-,-,-,-,-,-,,,広域避難場所
栃木県,鹿沼市,永野コミュニティセンター,栃木県鹿沼市上永野770,36.502824241143,139.58839423845,1,0,0,-,-,-,109人,,地区別避難所
栃木県,佐野市,吾妻中学校,栃木県佐野市村上町30,36.295449879641,139.54153315115,1,0,0,-,-,-,690人,,指定避難場所
栃木県,さくら市,南小学校,栃木県さくら市氏家1061-3,36.663270118839,139.96307827119,1,0,0,-,-,-,850人,,避難所
栃木県,小山市,旭小学校,栃木県小山市駅南町5-6-69,36.304217093251,139.81435741544,1,0,0,-,-,-,303人,,指定避難所
栃木県,小山市,若木小学校,栃木県小山市若木町2-6-44,36.32685593466,139.80492158721,1,0,0,-,-,-,235人,,指定避難所
栃木県,宇都宮市,宇都宮大学工学部,栃木県宇都宮市陽東7-1-2,36.551017034717,139.92971376843,-,-,-,-,-,-,24050人,,広域避難場所
栃木県,足利市,松田保育所,栃木県足利市,36.395669597082,139.42620228178,-,-,-,-,-,-,,,一時避難場所
栃木県,佐野市,三好小学校,栃木県佐野市岩崎町1341,36.398174387446,139.5709600562,1,0,0,-,-,-,270人,,指定避難場所
栃木県,那須烏山市,木須の郷交流館,栃木県那須烏山市小木須1845,36.620382822342,140.2012385578,1,0,0,-,-,-,100人,,避難施設
栃木県,足利市,大沼田町自治会館,栃木県足利市,36.329755305694,139.50173244839,-,-,-,-,-,-,,,一時避難場所
栃木県,那須郡那珂川町,総合体育館,栃木県那須郡那珂川町馬頭67-1,36.739988731485,140.17399497942,1,0,0,-,-,-,600人,,指定避難所
栃木県,大田原市,親園小学校,栃木県大田原市親園618,36.82680495319,140.01711568158,1,0,0,-,-,-,222人,,避難場所
栃木県,栃木市,都賀体育センター,栃木県栃木市都賀町原宿511,36.428040921668,139.7386425572,1,0,0,-,-,-,300人,,指定避難場所
栃木県,日光市,日光明峰高等学校,栃木県日光市久次良町104,36.751556730289,139.57840659239,1,0,0,-,-,-,860人,,避難所・広域避難場所
栃木県,日光市,高畑公民館,栃木県日光市瀬尾1988-1,36.759663877433,139.68050465355,1,0,0,-,-,-,34人,,避難所・広域避難場所
栃木県,小山市,小山第三小学校,栃木県小山市神鳥谷4-7-51,36.296447734375,139.78813751326,1,0,0,-,-,-,303人,,指定避難所
栃木県,日光市,猪倉小学校,栃木県日光市猪倉3314,36.672711645313,139.77115357572,1,0,0,-,-,-,240人,,避難所・広域避難場所
栃木県,大田原市,築地集会所,栃木県大田原市黒羽向町761-3,36.871960774754,140.11024254167,1,0,0,-,-,-,30人,,避難場所
栃木県,大田原市,亀久公民館,栃木県大田原市亀久822,36.809455611841,140.1523690267,1,0,0,-,-,-,30人,,避難場所
栃木県,日光市,中宮祠小中学校,栃木県日光市中宮祠2478,36.74072714521,139.49089126817,1,0,0,-,-,-,323人,,避難所・広域避難場所
栃木県,真岡市,真岡市附属体育館,栃木県真岡市荒町5131,36.440901386821,140.01395503086,1,0,0,-,-,-,200人,,避難場所
栃木県,大田原市,勤労者総合福祉センター,栃木県大田原市浅香3-3578-747,36.856038323277,140.01526416202,1,0,0,-,-,-,230人,,避難場所
栃木県,栃木市,農村婦人の家,栃木県栃木市西方町元585,36.461506989014,139.73563606115,1,0,0,-,-,-,35人,,指定避難場所
栃木県,矢板市,泉はつらつ館,栃木県矢板市泉396-1,36.842297271139,139.91238124142,1,0,0,-,-,-,86人,,指定避難場所
栃木県,鹿沼市,清洲第一小学校,栃木県鹿沼市久野620-1,36.509506834646,139.70376731405,1,0,0,-,-,-,281人,,避難所
栃木県,芳賀郡芳賀町,芳賀東小学校,栃木県芳賀郡芳賀町祖母井388,36.547489941252,140.06333746394,1,0,0,-,-,-,200人,,指定避難場所・指定避難所
栃木県,下野市,国分寺東児童館,栃木県下野市駅東7-4-1,36.370905494569,139.84450363404,1,0,0,-,-,-,40人,,指定避難場所・指定避難所
栃木県,那須烏山市,江川小学校,栃木県那須烏山市志鳥2441,36.700222366815,140.09816881622,1,0,0,-,-,-,1300人,,避難施設
栃木県,栃木市,大平隣保館,栃木県栃木市大平町新1305-3,36.330158314908,139.70495544703,1,0,0,-,-,-,150人,,指定避難場所
栃木県,宇都宮市,上河内東小学校,栃木県宇都宮市下小倉町1302,36.688524026883,139.91484010507,1,0,0,-,-,-,300人,,避難所
栃木県,佐野市,犬伏小学校,栃木県佐野市犬伏下町1983,36.324456671739,139.59874692089,1,0,0,-,-,-,1650人,,指定避難場所
栃木県,さくら市,鬼怒川運動公園,栃木県さくら市向河原4101,36.697920511655,139.93570499837,-,-,-,-,-,-,12800人,,避難場所
栃木県,那須烏山市,下江川中学校,栃木県那須烏山市下川井1001,36.6991666538,140.09018350614,1,0,0,-,-,-,1000人,,避難施設
栃木県,大田原市,大輪集会所,栃木県大田原市大輪250,36.890313961759,140.12407007815,1,0,0,-,-,-,30人,,避難場所
栃木県,矢板市,豊田小学校,栃木県矢板市豊田802,36.809187336014,139.96935132051,1,0,0,-,-,-,299人,,指定避難場所
栃木県,日光市,小穴集会所,栃木県日光市日向409-1,36.88925064103,139.65035520223,1,0,0,-,-,-,35人,,避難所
栃木県,足利市,毛野小学校,栃木県足利市大久保町1500,36.318338592294,139.49981361971,1,0,0,-,-,-,736人,,一時避難場所・指定避難所
栃木県,那須塩原市,西小学校,栃木県那須塩原市四区町662,36.895473042566,139.9515768379,1,0,0,-,-,-,430人,,指定避難所
栃木県,下野市,南河内中学校体育館,栃木県下野市薬師寺986,36.38752583156,139.87651978134,1,0,0,-,-,-,760人,,指定避難場所・指定避難所
栃木県,芳賀郡益子町,益子中学校,栃木県芳賀郡益子町益子3618,36.469530490408,140.10025460382,1,0,0,-,-,-,2200人,,指定避難場所
栃木県,真岡市,山前南小学校,栃木県真岡市東大島713,36.415221367835,140.0353481369,1,0,0,-,-,-,150人,,避難場所
栃木県,矢板市,一区自治公民館,栃木県矢板市本町16-13,36.808865837691,139.92358699797,1,0,0,-,-,-,,,その他の避難場所
栃木県,佐野市,田沼旗川緑地会館,栃木県佐野市戸奈良町776-7,36.370611554853,139.55880107072,1,0,0,-,-,-,40人,,指定避難場所
栃木県,下都賀郡岩舟町,岩舟ふるさとセンター,栃木県栃木市岩舟町静和2379-2,36.316723649239,139.68151398462,1,0,0,-,-,-,,,指定避難場所
栃木県,那須烏山市,緑地運動公園,栃木県那須烏山市藤田1181-85,36.681105367273,140.10128355321,1,0,0,-,-,-,1700人,,避難施設
栃木県,栃木市,大平南地区公民館,栃木県栃木市大平町西水代1787,36.317335116049,139.71747412559,1,0,0,-,-,-,100人,,指定避難場所
栃木県,下野市,南河内体育センター,栃木県下野市仁良川1141,36.384306836261,139.87822802372,1,0,0,-,-,-,730人,,指定避難場所・指定避難所
栃木県,栃木市,大柿コミュニティセンター,栃木県栃木市都賀町大柿1122,36.455711787603,139.69279552155,1,0,0,-,-,-,500人,,指定避難場所
栃木県,矢板市,中公民館,栃木県矢板市中1053,36.795062852025,139.94946834492,1,0,0,-,-,-,,,その他の避難場所
栃木県,足利市,鹿島神社境内,栃木県足利市,36.345569876828,139.40863152302,-,-,-,-,-,-,,,一時避難場所
栃木県,鹿沼市,鹿沼高校,栃木県鹿沼市万町960,36.558194927032,139.75044668156,1,0,0,-,-,-,752人,,避難所
栃木県,大田原市,須賀川下組会館,栃木県大田原市須賀川931,36.802958669207,140.25378291991,1,0,0,-,-,-,30人,,避難場所
栃木県,那須烏山市,旧向田小学校,栃木県那須烏山市向田2187,36.623305611358,140.14614127865,1,0,0,-,-,-,250人,,避難施設
栃木県,下野市,吉田東小学校体育館,栃木県下野市中川島7,36.382357946499,139.91030274958,1,0,0,-,-,-,450人,,指定避難場所・指定避難所
栃木県,那須烏山市,七合中学校,栃木県那須烏山市中山226,36.689414052514,140.14858247457,1,0,0,-,-,-,1500人,,避難施設
栃木県,大田原市,湯津上農村環境改善センター,栃木県大田原市湯津上5-776,36.822324943282,140.10446154675,1,0,0,-,-,-,465人,,避難場所
栃木県,日光市,落合運動公園,栃木県日光市明神1052,36.682806825043,139.71343315231,-,-,-,-,-,-,330人,,避難所・広域避難場所
栃木県,佐野市,赤見地区公民館,栃木県佐野市赤見町3082,36.351921781607,139.53910606717,1,0,0,-,-,-,190人,,指定避難場所
栃木県,那須郡那須町,稲沢地区集落センター,栃木県那須郡那須町稲沢978-1,36.943400209195,140.13551696245,1,0,0,-,-,-,37人,,指定避難所
栃木県,矢板市,矢板市体育館,栃木県矢板市本町5-4,36.807030284015,139.92367039705,1,0,0,-,-,-,840人,,指定避難場所
栃木県,那須塩原市,東原小学校,栃木県那須塩原市東原4,36.994506769759,140.02320693399,1,0,0,-,-,-,327人,,指定避難所
栃木県,日光市,土呂部集会所,栃木県日光市土呂部93,36.893234308672,139.56889706499,1,0,0,-,-,-,97人,,避難所
栃木県,那須烏山市,オオムラサキ公園,栃木県那須烏山市大木須1730,36.634385530515,140.2221456398,-,-,-,-,-,-,80人,,指定避難場所
栃木県,栃木市,とちぎ西部生きがい,栃木県栃木市薗部町2-14-9,36.376569279554,139.71755223143,1,0,0,-,-,-,520人,,指定避難場所
栃木県,河内郡上三川町,上三川小学校,栃木県河内郡上三川町上三川4594,36.433565531996,139.90985084701,1,0,0,-,-,-,600人,,指定避難場所
栃木県,下都賀郡野木町,野木中学校,栃木県下都賀郡野木町潤島800-1,36.235598122787,139.75278784832,1,0,0,-,-,-,800人,,指定避難場所
栃木県,佐野市,天明小学校,栃木県佐野市大祝町2311,36.309416052303,139.57678295153,1,0,0,-,-,-,950人,,指定避難場所
栃木県,小山市,絹中学校,栃木県小山市福良2240-1,36.329144757616,139.89537236618,1,0,0,-,-,-,321人,,指定避難所
栃木県,足利市,五十部足工グランド,栃木県足利市,36.34808969513,139.42407923595,-,-,-,-,-,-,,,一時避難場所
栃木県,下野市,石橋体育センター,栃木県下野市大松山1-7-1,36.431811407939,139.85715538193,1,0,0,-,-,-,820人,,指定避難場所・指定避難所
栃木県,栃木市,老人福祉センター泉寿園,栃木県栃木市今泉町1-2-70,36.384189630208,139.74901501759,1,0,0,-,-,-,200人,,指定避難場所
栃木県,足利市,助戸一丁目自治会館,栃木県足利市,36.330987961616,139.46798358291,-,-,-,-,-,-,,,一時避難場所
栃木県,宇都宮市,上河内中央小学校,栃木県宇都宮市中里町201-1,36.681125083661,139.90283596001,1,0,0,-,-,-,593人,,避難所
栃木県,大田原市,寒井小学校,栃木県大田原市寒井244-35,36.905790956091,140.1118074151,1,0,0,-,-,-,323人,,避難場所
栃木県,那須塩原市,宿泊体験館メープル,栃木県那須塩原市上塩原58,36.981100773091,139.79280974497,1,0,0,-,-,-,490人,,指定避難所
栃木県,佐野市,界地区公民館,栃木県佐野市馬門町1510-1,36.285330567171,139.60106668092,1,0,0,-,-,-,1190人,,指定避難場所
栃木県,河内郡上三川町,坂上小学校,栃木県河内郡上三川町坂上628,36.411254506975,139.91405975892,1,0,0,-,-,-,240人,,指定避難場所
栃木県,鹿沼市,晃望台公園,栃木県鹿沼市晃望台,36.559742075866,139.76771539286,-,-,-,-,-,-,260人,,広域避難場所
栃木県,塩谷郡塩谷町,旧玉生中学校跡地,栃木県塩谷郡塩谷町玉生956-2,36.779231706059,139.85675235888,1,0,0,-,-,-,1300人,,指定避難場所
栃木県,那須郡那珂川町,小川総合福祉センター,栃木県那須郡那珂川町小川1065,36.767337818438,140.13520239641,1,0,0,-,-,-,600人,,指定避難所
栃木県,那須塩原市,大山小学校,栃木県那須塩原市下永田8-7,36.874313671489,140.00158666506,1,0,0,-,-,-,270人,,指定避難所
栃木県,那須塩原市,西那須野公民館,栃木県那須塩原市太夫塚1-194-78,36.884741994586,139.97673587413,1,0,0,-,-,-,225人,,指定避難所
栃木県,さくら市,葛城公民館,栃木県さくら市葛城1455-1,36.705636642367,140.03821078287,1,0,0,-,-,-,20人,,避難所
栃木県,那須烏山市,旧興野小学校,栃木県那須烏山市興野840,36.672308064117,140.16907346457,1,0,0,-,-,-,800人,,避難施設
栃木県,下都賀郡壬生町,南犬飼中学校,栃木県下都賀郡壬生町北小林743,36.479510479276,139.82476738927,1,0,0,-,-,-,6232人,,指定避難場所
栃木県,日光市,皇海荘しらかば苑,栃木県日光市足尾町1782-1,36.674685521996,139.48390830526,1,0,0,-,-,-,200人,,避難所
栃木県,矢板市,幸岡公民館,栃木県矢板市幸岡1383,36.800480411963,139.90770310042,1,0,0,-,-,-,,,その他の避難場所
