コード,医療機関名,機関名称,郵便番号,都道府県,住所,緯度,経度,災害拠点病院,救命救急センター,被爆医療機関,DMAT指定医療機関,未,未入力,0,,0,,,,,,,,,,,,,,,,,,,,,,,,,,,0,0,0,0,0,0,0,0,0,0,0,0,0,0,0,0,0,0,, , , , , , ,0,0,0,0,0,0,, , ,0,,1
11011000200 ,亀田病院, , ,北海道,函館市昭和１丁目２３−１１,41.818087,140.744648,0,0,0,0,未,未入力,0,,0,,,,,,,,,,,,,,,,,,,,,,,,,,,0,0,0,0,0,0,0,0,0,0,0,0,0,0,0,0,0,0,, , , , , , ,0,0,0,0,0,0,, , ,0,,1
11011000400 ,森病院, , ,北海道,函館市桔梗町５５７,41.860194,140.754062,0,0,0,0,未,未入力,0,,0,,,,,,,,,,,,,,,,,,,,,,,,,,,0,0,0,0,0,0,0,0,0,0,0,0,0,0,0,0,0,0,, , , , , , ,0,0,0,0,0,0,, , ,0,,1
11011000500 ,富田病院, , ,北海道,函館市駒場町９−１８,41.785008,140.773648,0,0,0,0,未,未入力,0,,0,,,,,,,,,,,,,,,,,,,,,,,,,,,0,0,0,0,0,0,0,0,0,0,0,0,0,0,0,0,0,0,, , , , , , ,0,0,0,0,0,0,, , ,0,,1
11011000700 ,高橋病院, , ,北海道,函館市元町３２−１８,41.765509,140.71207,0,0,0,0,未,未入力,0,,0,,,,,,,,,,,,,,,,,,,,,,,,,,,0,0,0,0,0,0,0,0,0,0,0,0,0,0,0,0,0,0,, , , , , , ,0,0,0,0,0,0,, , ,0,,1
11011000800 ,函館五稜郭病院, , ,北海道,函館市五稜郭町３８−３,41.79234,140.755204,0,0,0,0,未,未入力,0,,0,,,,,,,,,,,,,,,,,,,,,,,,,,,0,0,0,0,0,0,0,0,0,0,0,0,0,0,0,0,0,0,, , , , , , ,0,0,0,0,0,0,, , ,0,,1
11011000900 ,函館おおむら整形外科病院, , ,北海道,函館市石川町１２５−１,41.832752,140.745842,0,0,0,0,未,未入力,0,,0,,,,,,,,,,,,,,,,,,,,,,,,,,,0,0,0,0,0,0,0,0,0,0,0,0,0,0,0,0,0,0,, , , , , , ,0,0,0,0,0,0,, , ,0,,1
11011001100 ,函館脳神経外科病院, , ,北海道,函館市神山１丁目４−１２,41.813227,140.763064,0,0,0,0,未,未入力,0,,0,,,,,,,,,,,,,,,,,,,,,,,,,,,0,0,0,0,0,0,0,0,0,0,0,0,0,0,0,0,0,0,, , , , , , ,0,0,0,0,0,0,, , ,0,,1
11011001400 ,亀田病院分院亀田北病院, , ,北海道,函館市石川町１９１−４,41.83628,140.74262,0,0,0,0,未,未入力,0,,0,,,,,,,,,,,,,,,,,,,,,,,,,,,0,0,0,0,0,0,0,0,0,0,0,0,0,0,0,0,0,0,, , , , , , ,0,0,0,0,0,0,, , ,0,,1
11011001600 ,函館新都市病院, , ,北海道,函館市石川町３３１−１,41.824944,140.738111,0,0,0,0,未,未入力,0,,0,,,,,,,,,,,,,,,,,,,,,,,,,,,0,0,0,0,0,0,0,0,0,0,0,0,0,0,0,0,0,0,, , , , , , ,0,0,0,0,0,0,, , ,0,,1
11011001700 ,国立病院機構函館病院, , ,北海道,函館市川原町１８−１６,41.788896,140.77362,0,0,0,0,未,未入力,0,,0,,,,,,,,,,,,,,,,,,,,,,,,,,,0,0,0,0,0,0,0,0,0,0,0,0,0,0,0,0,0,0,, , , , , , ,0,0,0,0,0,0,, , ,0,,1
11011002000 ,西堀病院, , ,北海道,函館市中道２丁目６−１１,41.806061,140.758092,0,0,0,0,未,未入力,0,,0,,,,,,,,,,,,,,,,,,,,,,,,,,,0,0,0,0,0,0,0,0,0,0,0,0,0,0,0,0,0,0,, , , , , , ,0,0,0,0,0,0,, , ,0,,1
11011002100 ,函館おしま病院, , ,北海道,函館市的場町１９−６,41.777591,140.752844,0,0,0,0,未,未入力,0,,0,,,,,,,,,,,,,,,,,,,,,,,,,,,0,0,0,0,0,0,0,0,0,0,0,0,0,0,0,0,0,0,, , , , , , ,0,0,0,0,0,0,, , ,0,,1
11011002200 ,函館渡辺病院, , ,北海道,函館市湯川町１丁目３１−１,41.78148,140.785702,0,0,0,0,未,未入力,0,,0,,,,,,,,,,,,,,,,,,,,,,,,,,,0,0,0,0,0,0,0,0,0,0,0,0,0,0,0,0,0,0,, , , , , , ,0,0,0,0,0,0,, , ,0,,1
11011002600 ,函館市医師会病院, , ,北海道,函館市富岡町２丁目１０−１０,41.807005,140.752731,0,0,0,0,未,未入力,0,,0,,,,,,,,,,,,,,,,,,,,,,,,,,,0,0,0,0,0,0,0,0,0,0,0,0,0,0,0,0,0,0,, , , , , , ,0,0,0,0,0,0,, , ,0,,1
11011002800 ,函館協会病院, , ,北海道,函館市駒場町４−６,41.784619,140.770731,0,0,0,0,未,未入力,0,,0,,,,,,,,,,,,,,,,,,,,,,,,,,,0,0,0,0,0,0,0,0,0,0,0,0,0,0,0,0,0,0,, , , , , , ,0,0,0,0,0,0,, , ,0,,1
11011002900 ,函館赤十字病院, , ,北海道,函館市堀川町６−２１,41.778563,140.740623,0,0,0,0,未,未入力,0,,0,,,,,,,,,,,,,,,,,,,,,,,,,,,0,0,0,0,0,0,0,0,0,0,0,0,0,0,0,0,0,0,, , , , , , ,0,0,0,0,0,0,, , ,0,,1
11011003000 ,函館中央病院, , ,北海道,函館市本町３３−２,41.786729,140.751816,0,0,0,0,未,未入力,0,,0,,,,,,,,,,,,,,,,,,,,,,,,,,,0,0,0,0,0,0,0,0,0,0,0,0,0,0,0,0,0,0,, , , , , , ,0,0,0,0,0,0,, , ,0,,1
11011003400 ,市立函館病院,市立函館病院,418680,北海道,函館市港町１丁目１０−１,41.805505,140.73015,1,1,0,1,未,未入力,0,,0,,,,,,,,,,,,,,,,,,,,,,,,,,,0,0,0,0,0,0,0,0,0,0,0,0,0,0,0,0,0,0,, , , , , , ,0,0,0,0,0,0,, , ,0,,1
11011003500 ,松前町立松前病院, , ,北海道,松前郡松前町字大磯１７４−１,41.427617,140.096303,0,0,0,0,未,未入力,0,,0,,,,,,,,,,,,,,,,,,,,,,,,,,,0,0,0,0,0,0,0,0,0,0,0,0,0,0,0,0,0,0,, , , , , , ,0,0,0,0,0,0,, , ,0,,1
11011003600 ,木古内町国保病院, , ,北海道,上磯郡木古内町字本町７１０,41.675458,140.436403,0,0,0,0,未,未入力,0,,0,,,,,,,,,,,,,,,,,,,,,,,,,,,0,0,0,0,0,0,0,0,0,0,0,0,0,0,0,0,0,0,, , , , , , ,0,0,0,0,0,0,, , ,0,,1
11011003800 ,ななえ新病院, , ,北海道,亀田郡七飯町本町７丁目６５７−５,41.896439,140.704287,0,0,0,0,未,未入力,0,,0,,,,,,,,,,,,,,,,,,,,,,,,,,,0,0,0,0,0,0,0,0,0,0,0,0,0,0,0,0,0,0,, , , , , , ,0,0,0,0,0,0,, , ,0,,1
11011003900 ,なるかわ病院, , ,北海道,亀田郡七飯町鳴川４丁目３２５−１,41.886107,140.71137,0,0,0,0,未,未入力,0,,0,,,,,,,,,,,,,,,,,,,,,,,,,,,0,0,0,0,0,0,0,0,0,0,0,0,0,0,0,0,0,0,, , , , , , ,0,0,0,0,0,0,, , ,0,,1
11011004000 ,市立函館恵山病院, , ,北海道,函館市日ノ浜町１５番地１,41.775209,141.09751,0,0,0,0,未,未入力,0,,0,,,,,,,,,,,,,,,,,,,,,,,,,,,0,0,0,0,0,0,0,0,0,0,0,0,0,0,0,0,0,0,, , , , , , ,0,0,0,0,0,0,, , ,0,,1
11011004100 ,市立函館南茅部病院, , ,北海道,函館市安浦町９２,41.916997,140.957376,0,0,0,0,未,未入力,0,,0,,,,,,,,,,,,,,,,,,,,,,,,,,,0,0,0,0,0,0,0,0,0,0,0,0,0,0,0,0,0,0,, , , , , , ,0,0,0,0,0,0,, , ,0,,1
11011004200 ,新都市砂原病院, , ,北海道,茅部郡森町字砂原１丁目３０−５９,42.127053,140.662808,0,0,0,0,未,未入力,0,,0,,,,,,,,,,,,,,,,,,,,,,,,,,,0,0,0,0,0,0,0,0,0,0,0,0,0,0,0,0,0,0,, , , , , , ,0,0,0,0,0,0,, , ,0,,1
11011004300 ,森町国保病院, , ,北海道,茅部郡森町字上台町３２６,42.102194,140.567888,0,0,0,0,未,未入力,0,,0,,,,,,,,,,,,,,,,,,,,,,,,,,,0,0,0,0,0,0,0,0,0,0,0,0,0,0,0,0,0,0,, , , , , , ,0,0,0,0,0,0,, , ,0,,1
11011004600 ,八雲総合病院,八雲総合病院,493197,北海道,二海郡八雲町東雲町５０,42.252227,140.279584,1,0,0,1,未,未入力,0,,0,,,,,,,,,,,,,,,,,,,,,,,,,,,0,0,0,0,0,0,0,0,0,0,0,0,0,0,0,0,0,0,, , , , , , ,0,0,0,0,0,0,, , ,0,,1
11011004700 ,長万部町立病院, , ,北海道,山越郡長万部町字長万部１８−４０,42.51009,140.377286,0,0,0,0,未,未入力,0,,0,,,,,,,,,,,,,,,,,,,,,,,,,,,0,0,0,0,0,0,0,0,0,0,0,0,0,0,0,0,0,0,, , , , , , ,0,0,0,0,0,0,, , ,0,,1
11011004900 ,北海道立江差病院,北海道立江差病院,430022,北海道,檜山郡江差町字伏木戸町４８４,41.913666,140.144583,1,0,0,1,未,未入力,0,,0,,,,,,,,,,,,,,,,,,,,,,,,,,,0,0,0,0,0,0,0,0,0,0,0,0,0,0,0,0,0,0,, , , , , , ,0,0,0,0,0,0,, , ,0,,1
11011005000 ,厚沢部町国保病院, , ,北海道,檜山郡厚沢部町新町１４−１,41.91815,140.223131,0,0,0,0,未,未入力,0,,0,,,,,,,,,,,,,,,,,,,,,,,,,,,0,0,0,0,0,0,0,0,0,0,0,0,0,0,0,0,0,0,, , , , , , ,0,0,0,0,0,0,, , ,0,,1
11011005100 ,乙部町国保病院, , ,北海道,爾志郡乙部町字緑町７０４−１,41.968283,140.14022,0,0,0,0,未,未入力,0,,0,,,,,,,,,,,,,,,,,,,,,,,,,,,0,0,0,0,0,0,0,0,0,0,0,0,0,0,0,0,0,0,, , , , , , ,0,0,0,0,0,0,, , ,0,,1
11011005200 ,八雲町熊石国保病院, , ,北海道,二海郡八雲町熊石雲石町４９４−１,42.129901,139.975948,0,0,0,0,未,未入力,0,,0,,,,,,,,,,,,,,,,,,,,,,,,,,,0,0,0,0,0,0,0,0,0,0,0,0,0,0,0,0,0,0,, , , , , , ,0,0,0,0,0,0,, , ,0,,1
11011005400 ,奥尻町国保病院, , ,北海道,奥尻郡奥尻町字奥尻４６２,42.172222,139.507401,0,0,0,0,未,未入力,0,,0,,,,,,,,,,,,,,,,,,,,,,,,,,,0,0,0,0,0,0,0,0,0,0,0,0,0,0,0,0,0,0,, , , , , , ,0,0,0,0,0,0,, , ,0,,1
11011005600 ,せたな町立国保病院, , ,北海道,久遠郡せたな町北檜山区北檜山３７８番地,42.416036,139.875776,0,0,0,0,未,未入力,0,,0,,,,,,,,,,,,,,,,,,,,,,,,,,,0,0,0,0,0,0,0,0,0,0,0,0,0,0,0,0,0,0,, , , , , , ,0,0,0,0,0,0,, , ,0,,1
11011005700 ,今金町国保病院, , ,北海道,瀬棚郡今金町字今金１７−２,42.429286,140.006598,0,0,0,0,未,未入力,0,,0,,,,,,,,,,,,,,,,,,,,,,,,,,,0,0,0,0,0,0,0,0,0,0,0,0,0,0,0,0,0,0,, , , , , , ,0,0,0,0,0,0,, , ,0,,1
11011005900 ,共愛会病院, , ,北海道,函館市中島町７−２１,41.785451,140.740372,0,0,0,0,未,未入力,0,,0,,,,,,,,,,,,,,,,,,,,,,,,,,,0,0,0,0,0,0,0,0,0,0,0,0,0,0,0,0,0,0,, , , , , , ,0,0,0,0,0,0,, , ,0,,1
11012000100 ,北斗病院, , ,北海道,帯広市稲田町基線７−５,42.879961,143.188896,0,0,0,0,未,未入力,0,,0,,,,,,,,,,,,,,,,,,,,,,,,,,,0,0,0,0,0,0,0,0,0,0,0,0,0,0,0,0,0,0,, , , , , , ,0,0,0,0,0,0,, , ,0,,1
11012000300 ,協立病院, , ,北海道,帯広市西１６条北１丁目２７,42.93125,143.176111,0,0,0,0,未,未入力,0,,0,,,,,,,,,,,,,,,,,,,,,,,,,,,0,0,0,0,0,0,0,0,0,0,0,0,0,0,0,0,0,0,, , , , , , ,0,0,0,0,0,0,, , ,0,,1
11012000600 ,国立病院機構帯広病院, , ,北海道,帯広市西１８条北２丁目１６,42.935593,143.161452,0,0,0,0,未,未入力,0,,0,,,,,,,,,,,,,,,,,,,,,,,,,,,0,0,0,0,0,0,0,0,0,0,0,0,0,0,0,0,0,0,, , , , , , ,0,0,0,0,0,0,, , ,0,,1
11012000800 ,大江病院, , ,北海道,帯広市西２０条南２丁目５−３,42.920372,143.149259,0,0,0,0,未,未入力,0,,0,,,,,,,,,,,,,,,,,,,,,,,,,,,0,0,0,0,0,0,0,0,0,0,0,0,0,0,0,0,0,0,, , , , , , ,0,0,0,0,0,0,, , ,0,,1
11012000900 ,帯広西病院, , ,北海道,帯広市西２３条南１丁目１２９,42.92225,143.125972,0,0,0,0,未,未入力,0,,0,,,,,,,,,,,,,,,,,,,,,,,,,,,0,0,0,0,0,0,0,0,0,0,0,0,0,0,0,0,0,0,, , , , , , ,0,0,0,0,0,0,, , ,0,,1
11012001000 ,開西病院, , ,北海道,帯広市西２３条南２丁目１６−２７,42.917594,143.12965,0,0,0,0,未,未入力,0,,0,,,,,,,,,,,,,,,,,,,,,,,,,,,0,0,0,0,0,0,0,0,0,0,0,0,0,0,0,0,0,0,, , , , , , ,0,0,0,0,0,0,, , ,0,,1
11012001100 ,西２条腎泌尿器科病院, , ,北海道,帯広市西２条南２丁目１０番地,42.930122,143.201393,0,0,0,0,未,未入力,0,,0,,,,,,,,,,,,,,,,,,,,,,,,,,,0,0,0,0,0,0,0,0,0,0,0,0,0,0,0,0,0,0,, , , , , , ,0,0,0,0,0,0,, , ,0,,1
11012001200 ,帯広第一病院, , ,北海道,帯広市西４条南１５丁目１７−３,42.91479,143.199894,0,0,0,0,未,未入力,0,,0,,,,,,,,,,,,,,,,,,,,,,,,,,,0,0,0,0,0,0,0,0,0,0,0,0,0,0,0,0,0,0,, , , , , , ,0,0,0,0,0,0,, , ,0,,1
11012001300 ,帯広厚生病院,ＪＡ北海道厚生連帯広厚生病院,800016,北海道,帯広市西６条南８丁目１,42.922595,143.19495,1,1,0,1,未,未入力,0,,0,,,,,,,,,,,,,,,,,,,,,,,,,,,0,0,0,0,0,0,0,0,0,0,0,0,0,0,0,0,0,0,, , , , , , ,0,0,0,0,0,0,, , ,0,,1
11012001600 ,黒澤病院, , ,北海道,帯広市大通南４丁目１,42.928317,143.204004,0,0,0,0,未,未入力,0,,0,,,,,,,,,,,,,,,,,,,,,,,,,,,0,0,0,0,0,0,0,0,0,0,0,0,0,0,0,0,0,0,, , , , , , ,0,0,0,0,0,0,, , ,0,,1
11012001900 ,おびひろ呼吸器科内科病院, , ,北海道,帯広市東５条南２０丁目１,42.909486,143.214698,0,0,0,0,未,未入力,0,,0,,,,,,,,,,,,,,,,,,,,,,,,,,,0,0,0,0,0,0,0,0,0,0,0,0,0,0,0,0,0,0,, , , , , , ,0,0,0,0,0,0,, , ,0,,1
11012002000 ,帯広協会病院, , ,北海道,帯広市東５条南９丁目２,42.922734,143.213948,0,0,0,0,未,未入力,0,,0,,,,,,,,,,,,,,,,,,,,,,,,,,,0,0,0,0,0,0,0,0,0,0,0,0,0,0,0,0,0,0,, , , , , , ,0,0,0,0,0,0,, , ,0,,1
11012002300 ,北海道立緑ヶ丘病院, , ,北海道,河東郡音更町緑が丘１番地,42.984477,143.19528,0,0,0,0,未,未入力,0,,0,,,,,,,,,,,,,,,,,,,,,,,,,,,0,0,0,0,0,0,0,0,0,0,0,0,0,0,0,0,0,0,, , , , , , ,0,0,0,0,0,0,, , ,0,,1
11012002400 ,音更病院, , ,北海道,河東郡音更町緑陽台南区２−６,42.963757,143.197864,0,0,0,0,未,未入力,0,,0,,,,,,,,,,,,,,,,,,,,,,,,,,,0,0,0,0,0,0,0,0,0,0,0,0,0,0,0,0,0,0,, , , , , , ,0,0,0,0,0,0,, , ,0,,1
11012002500 ,士幌町国保病院, , ,北海道,河東郡士幌町字士幌西２線１６７,43.171291,143.247823,0,0,0,0,未,未入力,0,,0,,,,,,,,,,,,,,,,,,,,,,,,,,,0,0,0,0,0,0,0,0,0,0,0,0,0,0,0,0,0,0,, , , , , , ,0,0,0,0,0,0,, , ,0,,1
11012002700 ,鹿追町国保病院, , ,北海道,河東郡鹿追町東町１丁目３８,43.099555,142.989583,0,0,0,0,未,未入力,0,,0,,,,,,,,,,,,,,,,,,,,,,,,,,,0,0,0,0,0,0,0,0,0,0,0,0,0,0,0,0,0,0,, , , , , , ,0,0,0,0,0,0,, , ,0,,1
11012002900 ,清水赤十字病院, , ,北海道,上川郡清水町南２条２丁目１,43.01208,142.883083,0,0,0,0,未,未入力,0,,0,,,,,,,,,,,,,,,,,,,,,,,,,,,0,0,0,0,0,0,0,0,0,0,0,0,0,0,0,0,0,0,, , , , , , ,0,0,0,0,0,0,, , ,0,,1
11012003000 ,公立芽室病院, , ,北海道,河西郡芽室町東４条３丁目５番地,42.913066,143.054656,0,0,0,0,未,未入力,0,,0,,,,,,,,,,,,,,,,,,,,,,,,,,,0,0,0,0,0,0,0,0,0,0,0,0,0,0,0,0,0,0,, , , , , , ,0,0,0,0,0,0,, , ,0,,1
11012003100 ,大樹町立国保病院, , ,北海道,広尾郡大樹町暁町６−２,42.488615,143.279213,0,0,0,0,未,未入力,0,,0,,,,,,,,,,,,,,,,,,,,,,,,,,,0,0,0,0,0,0,0,0,0,0,0,0,0,0,0,0,0,0,, , , , , , ,0,0,0,0,0,0,, , ,0,,1
11012003200 ,広尾町国保病院, , ,北海道,広尾郡広尾町公園通南４丁目１,42.29908,143.306691,0,0,0,0,未,未入力,0,,0,,,,,,,,,,,,,,,,,,,,,,,,,,,0,0,0,0,0,0,0,0,0,0,0,0,0,0,0,0,0,0,, , , , , , ,0,0,0,0,0,0,, , ,0,,1
11012003300 ,十勝の杜病院, , ,北海道,中川郡幕別町字千住１９３−４,42.916264,143.271527,0,0,0,0,未,未入力,0,,0,,,,,,,,,,,,,,,,,,,,,,,,,,,0,0,0,0,0,0,0,0,0,0,0,0,0,0,0,0,0,0,, , , , , , ,0,0,0,0,0,0,, , ,0,,1
11012003400 ,十勝いけだ地域医療センター, , ,北海道,中川郡池田町字西２条５丁目２５,42.925905,143.447623,0,0,0,0,未,未入力,0,,0,,,,,,,,,,,,,,,,,,,,,,,,,,,0,0,0,0,0,0,0,0,0,0,0,0,0,0,0,0,0,0,, , , , , , ,0,0,0,0,0,0,, , ,0,,1
11012003500 ,本別町国保病院, , ,北海道,中川郡本別町西美里別６−８,43.122025,143.591518,0,0,0,0,未,未入力,0,,0,,,,,,,,,,,,,,,,,,,,,,,,,,,0,0,0,0,0,0,0,0,0,0,0,0,0,0,0,0,0,0,, , , , , , ,0,0,0,0,0,0,, , ,0,,1
11012003600 ,足寄町国保病院, , ,北海道,足寄郡足寄町南２条３丁目１,43.241984,143.549183,0,0,0,0,未,未入力,0,,0,,,,,,,,,,,,,,,,,,,,,,,,,,,0,0,0,0,0,0,0,0,0,0,0,0,0,0,0,0,0,0,, , , , , , ,0,0,0,0,0,0,, , ,0,,1
11012003800 ,音更宏明館病院, , ,北海道,河東郡音更町木野大通東１７丁目１番６,42.971201,143.20853,0,0,0,0,未,未入力,0,,0,,,,,,,,,,,,,,,,,,,,,,,,,,,0,0,0,0,0,0,0,0,0,0,0,0,0,0,0,0,0,0,, , , , , , ,0,0,0,0,0,0,, , ,0,,1
11012003900 ,帯広徳洲会病院, , ,北海道,河東郡音更町木野西通１４丁目２−１,42.963368,143.203975,0,0,0,0,未,未入力,0,,0,,,,,,,,,,,,,,,,,,,,,,,,,,,0,0,0,0,0,0,0,0,0,0,0,0,0,0,0,0,0,0,, , , , , , ,0,0,0,0,0,0,, , ,0,,1
11013000400 ,旭川厚生病院, , ,北海道,旭川市１条通２４丁目１１１−３,43.75863,142.384895,0,0,0,0,未,未入力,0,,0,,,,,,,,,,,,,,,,,,,,,,,,,,,0,0,0,0,0,0,0,0,0,0,0,0,0,0,0,0,0,0,, , , , , , ,0,0,0,0,0,0,, , ,0,,1
11013000600 ,吉田病院, , ,北海道,旭川市４条西４丁目１−２,43.772961,142.345036,0,0,0,0,未,未入力,0,,0,,,,,,,,,,,,,,,,,,,,,,,,,,,0,0,0,0,0,0,0,0,0,0,0,0,0,0,0,0,0,0,, , , , , , ,0,0,0,0,0,0,, , ,0,,1
11013000700 ,大西病院, , ,北海道,旭川市４条通１１丁目右３号,43.767157,142.36573,0,0,0,0,未,未入力,0,,0,,,,,,,,,,,,,,,,,,,,,,,,,,,0,0,0,0,0,0,0,0,0,0,0,0,0,0,0,0,0,0,, , , , , , ,0,0,0,0,0,0,, , ,0,,1
11013000800 ,岩田病院, , ,北海道,旭川市４条通１３丁目右５号,43.76624,142.369257,0,0,0,0,未,未入力,0,,0,,,,,,,,,,,,,,,,,,,,,,,,,,,0,0,0,0,0,0,0,0,0,0,0,0,0,0,0,0,0,0,, , , , , , ,0,0,0,0,0,0,, , ,0,,1
11013001000 ,中島病院, , ,北海道,旭川市４条通１６丁目１１５２,43.764907,142.373729,0,0,0,0,未,未入力,0,,0,,,,,,,,,,,,,,,,,,,,,,,,,,,0,0,0,0,0,0,0,0,0,0,0,0,0,0,0,0,0,0,, , , , , , ,0,0,0,0,0,0,, , ,0,,1
11013001100 ,旭川ペインクリニック病院, , ,北海道,旭川市４条通１７丁目１５５３,43.764944,142.375861,0,0,0,0,未,未入力,0,,0,,,,,,,,,,,,,,,,,,,,,,,,,,,0,0,0,0,0,0,0,0,0,0,0,0,0,0,0,0,0,0,, , , , , , ,0,0,0,0,0,0,, , ,0,,1
11013001200 ,整形外科進藤病院, , ,北海道,旭川市４条通１９丁目右６号,43.763472,142.37875,0,0,0,0,未,未入力,0,,0,,,,,,,,,,,,,,,,,,,,,,,,,,,0,0,0,0,0,0,0,0,0,0,0,0,0,0,0,0,0,0,, , , , , , ,0,0,0,0,0,0,, , ,0,,1
11013001600 ,佐久間病院, , ,北海道,旭川市５条通７丁目左７号,43.770434,142.36123,0,0,0,0,未,未入力,0,,0,,,,,,,,,,,,,,,,,,,,,,,,,,,0,0,0,0,0,0,0,0,0,0,0,0,0,0,0,0,0,0,, , , , , , ,0,0,0,0,0,0,, , ,0,,1
11013001800 ,森産科婦人科病院, , ,北海道,旭川市７条通７丁目左２号,43.772916,142.361861,0,0,0,0,未,未入力,0,,0,,,,,,,,,,,,,,,,,,,,,,,,,,,0,0,0,0,0,0,0,0,0,0,0,0,0,0,0,0,0,0,, , , , , , ,0,0,0,0,0,0,, , ,0,,1
11013002000 ,森山病院, , ,北海道,旭川市８条通６丁目左１０号,43.773961,142.361618,0,0,0,0,未,未入力,0,,0,,,,,,,,,,,,,,,,,,,,,,,,,,,0,0,0,0,0,0,0,0,0,0,0,0,0,0,0,0,0,0,, , , , , , ,0,0,0,0,0,0,, , ,0,,1
11013002100 ,沼崎病院, , ,北海道,旭川市８条通８丁目４３,43.773305,142.364194,0,0,0,0,未,未入力,0,,0,,,,,,,,,,,,,,,,,,,,,,,,,,,0,0,0,0,0,0,0,0,0,0,0,0,0,0,0,0,0,0,, , , , , , ,0,0,0,0,0,0,, , ,0,,1
11013002200 ,旭川脳神経外科循環器内科病院, , ,北海道,旭川市１０条通２１丁目２−１１,43.76999,142.385422,0,0,0,0,未,未入力,0,,0,,,,,,,,,,,,,,,,,,,,,,,,,,,0,0,0,0,0,0,0,0,0,0,0,0,0,0,0,0,0,0,, , , , , , ,0,0,0,0,0,0,, , ,0,,1
11013002500 ,大雪病院, , ,北海道,旭川市永山３条７丁目１−５,43.79425,142.408888,0,0,0,0,未,未入力,0,,0,,,,,,,,,,,,,,,,,,,,,,,,,,,0,0,0,0,0,0,0,0,0,0,0,0,0,0,0,0,0,0,, , , , , , ,0,0,0,0,0,0,, , ,0,,1
11013002600 ,旭川三愛病院, , ,北海道,旭川市永山４条６丁目３−２４,43.79246,142.409114,0,0,0,0,未,未入力,0,,0,,,,,,,,,,,,,,,,,,,,,,,,,,,0,0,0,0,0,0,0,0,0,0,0,0,0,0,0,0,0,0,, , , , , , ,0,0,0,0,0,0,, , ,0,,1
11013002700 ,国立病院機構旭川医療センター, , ,北海道,旭川市花咲町７丁目４０４８,43.79857,142.381755,0,0,0,0,未,未入力,0,,0,,,,,,,,,,,,,,,,,,,,,,,,,,,0,0,0,0,0,0,0,0,0,0,0,0,0,0,0,0,0,0,, , , , , , ,0,0,0,0,0,0,, , ,0,,1
11013002800 ,市立旭川病院, , ,北海道,旭川市金星町１丁目１−６５,43.778295,142.365701,0,0,0,0,未,未入力,0,,0,,,,,,,,,,,,,,,,,,,,,,,,,,,0,0,0,0,0,0,0,0,0,0,0,0,0,0,0,0,0,0,, , , , , , ,0,0,0,0,0,0,, , ,0,,1
11013002900 ,旭川高砂台病院, , ,北海道,旭川市高砂台１丁目１−２２,43.768305,142.312416,0,0,0,0,未,未入力,0,,0,,,,,,,,,,,,,,,,,,,,,,,,,,,0,0,0,0,0,0,0,0,0,0,0,0,0,0,0,0,0,0,, , , , , , ,0,0,0,0,0,0,, , ,0,,1
11013003100 ,●北海道療育園, , ,北海道,旭川市春光台４条１０丁目,43.830527,142.368361,0,0,0,0,未,未入力,0,,0,,,,,,,,,,,,,,,,,,,,,,,,,,,0,0,0,0,0,0,0,0,0,0,0,0,0,0,0,0,0,0,, , , , , , ,0,0,0,0,0,0,, , ,0,,1
11013003200 ,旭川赤十字病院,旭川赤十字病院,708530,北海道,旭川市曙１条１丁目１番１号,43.769878,142.348175,1,1,0,1,未,未入力,0,,0,,,,,,,,,,,,,,,,,,,,,,,,,,,0,0,0,0,0,0,0,0,0,0,0,0,0,0,0,0,0,0,, , , , , , ,0,0,0,0,0,0,, , ,0,,1
11013003400 ,旭川南病院, , ,北海道,旭川市神楽岡１４条７丁目１−１,43.734605,142.362592,0,0,0,0,未,未入力,0,,0,,,,,,,,,,,,,,,,,,,,,,,,,,,0,0,0,0,0,0,0,0,0,0,0,0,0,0,0,0,0,0,, , , , , , ,0,0,0,0,0,0,, , ,0,,1
11013003500 ,旭川医科大学病院,旭川医科大学病院,788510,北海道,旭川市緑が丘東２条１丁目１−１,43.729967,142.384452,1,1,1,1,未,未入力,0,,0,,,,,,,,,,,,,,,,,,,,,,,,,,,0,0,0,0,0,0,0,0,0,0,0,0,0,0,0,0,0,0,, , , , , , ,0,0,0,0,0,0,, , ,0,,1
11013003600 ,相川記念病院, , ,北海道,旭川市大町２条１５丁目９２−１６,43.796681,142.348285,0,0,0,0,未,未入力,0,,0,,,,,,,,,,,,,,,,,,,,,,,,,,,0,0,0,0,0,0,0,0,0,0,0,0,0,0,0,0,0,0,, , , , , , ,0,0,0,0,0,0,, , ,0,,1
11013003800 ,東旭川病院, , ,北海道,旭川市東旭川北１条６丁目６−５,43.772963,142.442056,0,0,0,0,未,未入力,0,,0,,,,,,,,,,,,,,,,,,,,,,,,,,,0,0,0,0,0,0,0,0,0,0,0,0,0,0,0,0,0,0,, , , , , , ,0,0,0,0,0,0,, , ,0,,1
11013003900 ,道北勤医協　一条通病院, , ,北海道,旭川市東光１条１丁目１−１７,43.756242,142.38795,0,0,0,0,未,未入力,0,,0,,,,,,,,,,,,,,,,,,,,,,,,,,,0,0,0,0,0,0,0,0,0,0,0,0,0,0,0,0,0,0,, , , , , , ,0,0,0,0,0,0,, , ,0,,1
11013004100 ,豊岡中央病院, , ,北海道,旭川市豊岡７条２丁目１−５,43.765324,142.392561,0,0,0,0,未,未入力,0,,0,,,,,,,,,,,,,,,,,,,,,,,,,,,0,0,0,0,0,0,0,0,0,0,0,0,0,0,0,0,0,0,, , , , , , ,0,0,0,0,0,0,, , ,0,,1
11013004300 ,士別市立病院, , ,北海道,士別市東１１条５丁目３０２９−１,44.178697,142.407513,0,0,0,0,未,未入力,0,,0,,,,,,,,,,,,,,,,,,,,,,,,,,,0,0,0,0,0,0,0,0,0,0,0,0,0,0,0,0,0,0,, , , , , , ,0,0,0,0,0,0,, , ,0,,1
11013004600 ,吉田病院, , ,北海道,名寄市西３条南６丁目８−２,44.349818,142.459473,0,0,0,0,未,未入力,0,,0,,,,,,,,,,,,,,,,,,,,,,,,,,,0,0,0,0,0,0,0,0,0,0,0,0,0,0,0,0,0,0,, , , , , , ,0,0,0,0,0,0,, , ,0,,1
11013004700 ,名寄市立総合病院,名寄市立総合病院,968511,北海道,名寄市西７条南８丁目１,44.348541,142.451335,1,0,0,1,未,未入力,0,,0,,,,,,,,,,,,,,,,,,,,,,,,,,,0,0,0,0,0,0,0,0,0,0,0,0,0,0,0,0,0,0,, , , , , , ,0,0,0,0,0,0,, , ,0,,1
11013004800 ,ふらの西病院, , ,北海道,富良野市桂木町２−７７,43.350444,142.379111,0,0,0,0,未,未入力,0,,0,,,,,,,,,,,,,,,,,,,,,,,,,,,0,0,0,0,0,0,0,0,0,0,0,0,0,0,0,0,0,0,, , , , , , ,0,0,0,0,0,0,, , ,0,,1
11013004900 ,富良野協会病院,社会福祉法人北海道社会事業協会富良野病院,768765,北海道,富良野市住吉町１−３０,43.347702,142.39258,1,0,0,1,未,未入力,0,,0,,,,,,,,,,,,,,,,,,,,,,,,,,,0,0,0,0,0,0,0,0,0,0,0,0,0,0,0,0,0,0,, , , , , , ,0,0,0,0,0,0,, , ,0,,1
11013005100 ,北の峰病院, , ,北海道,富良野市（中御料）２０６２番地,43.319,142.363638,0,0,0,0,未,未入力,0,,0,,,,,,,,,,,,,,,,,,,,,,,,,,,0,0,0,0,0,0,0,0,0,0,0,0,0,0,0,0,0,0,, , , , , , ,0,0,0,0,0,0,, , ,0,,1
11013005200 ,聖台病院, , ,北海道,上川郡東神楽町東１線２号１３番地,43.719468,142.401284,0,0,0,0,未,未入力,0,,0,,,,,,,,,,,,,,,,,,,,,,,,,,,0,0,0,0,0,0,0,0,0,0,0,0,0,0,0,0,0,0,, , , , , , ,0,0,0,0,0,0,, , ,0,,1
11013005400 ,美瑛町立病院, , ,北海道,上川郡美瑛町中町３丁目８−３５,43.590733,142.467896,0,0,0,0,未,未入力,0,,0,,,,,,,,,,,,,,,,,,,,,,,,,,,0,0,0,0,0,0,0,0,0,0,0,0,0,0,0,0,0,0,, , , , , , ,0,0,0,0,0,0,, , ,0,,1
11013005500 ,上富良野町立病院, , ,北海道,空知郡上富良野町大町３丁目２−１５,43.454636,142.466263,0,0,0,0,未,未入力,0,,0,,,,,,,,,,,,,,,,,,,,,,,,,,,0,0,0,0,0,0,0,0,0,0,0,0,0,0,0,0,0,0,, , , , , , ,0,0,0,0,0,0,, , ,0,,1
11013005600 ,国保中富良野町立病院, , ,北海道,空知郡中富良野町西町３−２５,43.408974,142.422241,0,0,0,0,未,未入力,0,,0,,,,,,,,,,,,,,,,,,,,,,,,,,,0,0,0,0,0,0,0,0,0,0,0,0,0,0,0,0,0,0,, , , , , , ,0,0,0,0,0,0,, , ,0,,1
11013005700 ,国保町立和寒病院, , ,北海道,上川郡和寒町字西町１１１,44.022825,142.412325,0,0,0,0,未,未入力,0,,0,,,,,,,,,,,,,,,,,,,,,,,,,,,0,0,0,0,0,0,0,0,0,0,0,0,0,0,0,0,0,0,, , , , , , ,0,0,0,0,0,0,, , ,0,,1
11013005800 ,町立下川病院, , ,北海道,上川郡下川町西町３６,44.304576,142.631627,0,0,0,0,未,未入力,0,,0,,,,,,,,,,,,,,,,,,,,,,,,,,,0,0,0,0,0,0,0,0,0,0,0,0,0,0,0,0,0,0,, , , , , , ,0,0,0,0,0,0,, , ,0,,1
11013005900 ,美深厚生病院, , ,北海道,中川郡美深町字東１条南３丁目３,44.480191,142.348476,0,0,0,0,未,未入力,0,,0,,,,,,,,,,,,,,,,,,,,,,,,,,,0,0,0,0,0,0,0,0,0,0,0,0,0,0,0,0,0,0,, , , , , , ,0,0,0,0,0,0,, , ,0,,1
11013006000 ,留萌記念病院, , ,北海道,留萌市開運町１丁目６−１,43.94082,141.64767,0,0,0,0,未,未入力,0,,0,,,,,,,,,,,,,,,,,,,,,,,,,,,0,0,0,0,0,0,0,0,0,0,0,0,0,0,0,0,0,0,, , , , , , ,0,0,0,0,0,0,, , ,0,,1
11013006100 ,留萌市立病院,留萌市立病院,778511,北海道,留萌市東雲町２丁目１６−１,43.931444,141.677888,1,0,0,1,未,未入力,0,,0,,,,,,,,,,,,,,,,,,,,,,,,,,,0,0,0,0,0,0,0,0,0,0,0,0,0,0,0,0,0,0,, , , , , , ,0,0,0,0,0,0,, , ,0,,1
11013006200 ,荻野病院, , ,北海道,留萌市大町３丁目２８−１,43.944333,141.63425,0,0,0,0,未,未入力,0,,0,,,,,,,,,,,,,,,,,,,,,,,,,,,0,0,0,0,0,0,0,0,0,0,0,0,0,0,0,0,0,0,, , , , , , ,0,0,0,0,0,0,, , ,0,,1
11013006400 ,北海道立羽幌病院, , ,北海道,苫前郡羽幌町栄町１１０番地,44.354611,141.694666,0,0,0,0,未,未入力,0,,0,,,,,,,,,,,,,,,,,,,,,,,,,,,0,0,0,0,0,0,0,0,0,0,0,0,0,0,0,0,0,0,, , , , , , ,0,0,0,0,0,0,, , ,0,,1
11013006500 ,加藤病院, , ,北海道,苫前郡羽幌町南６条５丁目,44.36036,141.703646,0,0,0,0,未,未入力,0,,0,,,,,,,,,,,,,,,,,,,,,,,,,,,0,0,0,0,0,0,0,0,0,0,0,0,0,0,0,0,0,0,, , , , , , ,0,0,0,0,0,0,, , ,0,,1
11013006600 ,遠別町立国保病院, , ,北海道,天塩郡遠別町字本町１丁目３,44.719878,141.793539,0,0,0,0,未,未入力,0,,0,,,,,,,,,,,,,,,,,,,,,,,,,,,0,0,0,0,0,0,0,0,0,0,0,0,0,0,0,0,0,0,, , , , , , ,0,0,0,0,0,0,, , ,0,,1
11013006700 ,天塩町立国保病院, , ,北海道,天塩郡天塩町字川口５６９９−３,44.886666,141.749111,0,0,0,0,未,未入力,0,,0,,,,,,,,,,,,,,,,,,,,,,,,,,,0,0,0,0,0,0,0,0,0,0,0,0,0,0,0,0,0,0,, , , , , , ,0,0,0,0,0,0,, , ,0,,1
11013007000 ,稚内禎心会病院, , ,北海道,稚内市栄１丁目２４−１,45.387222,141.696544,0,0,0,0,未,未入力,0,,0,,,,,,,,,,,,,,,,,,,,,,,,,,,0,0,0,0,0,0,0,0,0,0,0,0,0,0,0,0,0,0,, , , , , , ,0,0,0,0,0,0,, , ,0,,1
11013007100 ,市立稚内病院,市立稚内病院,978555,北海道,稚内市中央４丁目１１−６,45.41333,141.673406,1,0,0,1,未,未入力,0,,0,,,,,,,,,,,,,,,,,,,,,,,,,,,0,0,0,0,0,0,0,0,0,0,0,0,0,0,0,0,0,0,, , , , , , ,0,0,0,0,0,0,, , ,0,,1
11013007200 ,猿払村国保病院, , ,北海道,宗谷郡猿払村鬼志別北町２８番地,45.332068,142.117873,0,0,0,0,未,未入力,0,,0,,,,,,,,,,,,,,,,,,,,,,,,,,,0,0,0,0,0,0,0,0,0,0,0,0,0,0,0,0,0,0,, , , , , , ,0,0,0,0,0,0,, , ,0,,1
11013007300 ,浜頓別町国保病院, , ,北海道,枝幸郡浜頓別町旭ヶ丘３丁目３,45.119373,142.366945,0,0,0,0,未,未入力,0,,0,,,,,,,,,,,,,,,,,,,,,,,,,,,0,0,0,0,0,0,0,0,0,0,0,0,0,0,0,0,0,0,, , , , , , ,0,0,0,0,0,0,, , ,0,,1
11013007400 ,中頓別町国保病院, , ,北海道,枝幸郡中頓別町字中頓別１７５番地,44.970471,142.283598,0,0,0,0,未,未入力,0,,0,,,,,,,,,,,,,,,,,,,,,,,,,,,0,0,0,0,0,0,0,0,0,0,0,0,0,0,0,0,0,0,, , , , , , ,0,0,0,0,0,0,, , ,0,,1
11013007500 ,枝幸町国保病院, , ,北海道,枝幸郡枝幸町北栄町１４７４−１,44.942861,142.575722,0,0,0,0,未,未入力,0,,0,,,,,,,,,,,,,,,,,,,,,,,,,,,0,0,0,0,0,0,0,0,0,0,0,0,0,0,0,0,0,0,, , , , , , ,0,0,0,0,0,0,, , ,0,,1
11013007700 ,豊富町国保病院, , ,北海道,天塩郡豊富町字上サロベツ２５４３−３１,45.104809,141.778439,0,0,0,0,未,未入力,0,,0,,,,,,,,,,,,,,,,,,,,,,,,,,,0,0,0,0,0,0,0,0,0,0,0,0,0,0,0,0,0,0,, , , , , , ,0,0,0,0,0,0,, , ,0,,1
11013007800 ,利尻島国保中央病院, , ,北海道,利尻郡利尻町沓形字緑町１１番地,45.186733,141.138905,0,0,0,0,未,未入力,0,,0,,,,,,,,,,,,,,,,,,,,,,,,,,,0,0,0,0,0,0,0,0,0,0,0,0,0,0,0,0,0,0,, , , , , , ,0,0,0,0,0,0,, , ,0,,1
11013007900 ,くにもと病院, , ,北海道,旭川市曙１条７丁目２−１,43.770767,142.340148,0,0,0,0,未,未入力,0,,0,,,,,,,,,,,,,,,,,,,,,,,,,,,0,0,0,0,0,0,0,0,0,0,0,0,0,0,0,0,0,0,, , , , , , ,0,0,0,0,0,0,, , ,0,,1
11014000100 ,釧路北病院, , ,北海道,釧路市昭和１９０−１０５,43.034159,144.356542,0,0,0,0,未,未入力,0,,0,,,,,,,,,,,,,,,,,,,,,,,,,,,0,0,0,0,0,0,0,0,0,0,0,0,0,0,0,0,0,0,, , , , , , ,0,0,0,0,0,0,, , ,0,,1
11014000200 ,釧路孝仁会記念病院, , ,北海道,釧路市愛国１９１−２１２,43.028716,144.39915,0,0,0,0,未,未入力,0,,0,,,,,,,,,,,,,,,,,,,,,,,,,,,0,0,0,0,0,0,0,0,0,0,0,0,0,0,0,0,0,0,, , , , , , ,0,0,0,0,0,0,, , ,0,,1
11014000400 ,釧路中央病院, , ,北海道,釧路市黒金町８丁目３,42.985776,144.382654,0,0,0,0,未,未入力,0,,0,,,,,,,,,,,,,,,,,,,,,,,,,,,0,0,0,0,0,0,0,0,0,0,0,0,0,0,0,0,0,0,, , , , , , ,0,0,0,0,0,0,, , ,0,,1
11014000600 ,清水桜が丘病院, , ,北海道,釧路市桜ケ岡８丁目１−２,42.970111,144.436622,0,0,0,0,未,未入力,0,,0,,,,,,,,,,,,,,,,,,,,,,,,,,,0,0,0,0,0,0,0,0,0,0,0,0,0,0,0,0,0,0,, , , , , , ,0,0,0,0,0,0,, , ,0,,1
11014000700 ,道東勤医協釧路協立病院, , ,北海道,釧路市治水町３−１４,43.008467,144.371515,0,0,0,0,未,未入力,0,,0,,,,,,,,,,,,,,,,,,,,,,,,,,,0,0,0,0,0,0,0,0,0,0,0,0,0,0,0,0,0,0,, , , , , , ,0,0,0,0,0,0,, , ,0,,1
11014000800 ,東北海道病院, , ,北海道,釧路市若竹町７−１９,42.998361,144.374888,0,0,0,0,未,未入力,0,,0,,,,,,,,,,,,,,,,,,,,,,,,,,,0,0,0,0,0,0,0,0,0,0,0,0,0,0,0,0,0,0,, , , , , , ,0,0,0,0,0,0,, , ,0,,1
11014000900 ,市立釧路総合病院,市立釧路総合病院,850822,北海道,釧路市春湖台１−１２,42.976916,144.403458,1,1,0,1,未,未入力,0,,0,,,,,,,,,,,,,,,,,,,,,,,,,,,0,0,0,0,0,0,0,0,0,0,0,0,0,0,0,0,0,0,, , , , , , ,0,0,0,0,0,0,, , ,0,,1
11014001000 ,太平洋記念　みなみ病院, , ,北海道,釧路市春採７丁目９−９,42.97886,144.418845,0,0,0,0,未,未入力,0,,0,,,,,,,,,,,,,,,,,,,,,,,,,,,0,0,0,0,0,0,0,0,0,0,0,0,0,0,0,0,0,0,, , , , , , ,0,0,0,0,0,0,, , ,0,,1
11014001100 ,総合病院　釧路赤十字病院, , ,北海道,釧路市新栄町２１番１４号,43.00158,144.381153,0,0,0,0,未,未入力,0,,0,,,,,,,,,,,,,,,,,,,,,,,,,,,0,0,0,0,0,0,0,0,0,0,0,0,0,0,0,0,0,0,, , , , , , ,0,0,0,0,0,0,, , ,0,,1
11014001200 ,星が浦病院, , ,北海道,釧路市星が浦大通３丁目９−１３,43.015833,144.316083,0,0,0,0,未,未入力,0,,0,,,,,,,,,,,,,,,,,,,,,,,,,,,0,0,0,0,0,0,0,0,0,0,0,0,0,0,0,0,0,0,, , , , , , ,0,0,0,0,0,0,, , ,0,,1
11014001400 ,釧路優心病院, , ,北海道,釧路市大楽毛４丁目１−１,43.009355,144.273689,0,0,0,0,未,未入力,0,,0,,,,,,,,,,,,,,,,,,,,,,,,,,,0,0,0,0,0,0,0,0,0,0,0,0,0,0,0,0,0,0,, , , , , , ,0,0,0,0,0,0,, , ,0,,1
11014001500 ,釧路労災病院, , ,北海道,釧路市中園町１３−２３,43.006357,144.384902,0,0,0,0,未,未入力,0,,0,,,,,,,,,,,,,,,,,,,,,,,,,,,0,0,0,0,0,0,0,0,0,0,0,0,0,0,0,0,0,0,, , , , , , ,0,0,0,0,0,0,, , ,0,,1
11014001600 ,釧路第一病院, , ,北海道,釧路市鳥取大通４丁目１１−１０,43.013744,144.351016,0,0,0,0,未,未入力,0,,0,,,,,,,,,,,,,,,,,,,,,,,,,,,0,0,0,0,0,0,0,0,0,0,0,0,0,0,0,0,0,0,, , , , , , ,0,0,0,0,0,0,, , ,0,,1
11014001700 ,白樺台病院, , ,北海道,釧路市白樺台２丁目２５−１,42.959861,144.445805,0,0,0,0,未,未入力,0,,0,,,,,,,,,,,,,,,,,,,,,,,,,,,0,0,0,0,0,0,0,0,0,0,0,0,0,0,0,0,0,0,, , , , , , ,0,0,0,0,0,0,, , ,0,,1
11014002100 ,町立厚岸病院, , ,北海道,厚岸郡厚岸町住の江１丁目１番地,43.05747,144.846278,0,0,0,0,未,未入力,0,,0,,,,,,,,,,,,,,,,,,,,,,,,,,,0,0,0,0,0,0,0,0,0,0,0,0,0,0,0,0,0,0,, , , , , , ,0,0,0,0,0,0,, , ,0,,1
11014002200 ,標茶町立病院, , ,北海道,川上郡標茶町開運４丁目１,43.30044,144.59851,0,0,0,0,未,未入力,0,,0,,,,,,,,,,,,,,,,,,,,,,,,,,,0,0,0,0,0,0,0,0,0,0,0,0,0,0,0,0,0,0,, , , , , , ,0,0,0,0,0,0,, , ,0,,1
11014002800 ,根室共立病院, , ,北海道,根室市花園町４−１,43.326288,145.570178,0,0,0,0,未,未入力,0,,0,,,,,,,,,,,,,,,,,,,,,,,,,,,0,0,0,0,0,0,0,0,0,0,0,0,0,0,0,0,0,0,, , , , , , ,0,0,0,0,0,0,, , ,0,,1
11014003000 ,市立根室病院,市立根室病院,878686,北海道,根室市有磯町１丁目２番地,43.334287,145.586565,1,0,0,1,未,未入力,0,,0,,,,,,,,,,,,,,,,,,,,,,,,,,,0,0,0,0,0,0,0,0,0,0,0,0,0,0,0,0,0,0,, , , , , , ,0,0,0,0,0,0,, , ,0,,1
11014003200 ,町立別海病院, , ,北海道,野付郡別海町別海西本町１０３−９,43.391662,145.121768,0,0,0,0,未,未入力,0,,0,,,,,,,,,,,,,,,,,,,,,,,,,,,0,0,0,0,0,0,0,0,0,0,0,0,0,0,0,0,0,0,, , , , , , ,0,0,0,0,0,0,, , ,0,,1
11014003300 ,町立中標津病院,町立中標津病院,861110,北海道,標津郡中標津町西１０条南９丁目１−１,43.536394,144.972301,1,0,0,1,未,未入力,0,,0,,,,,,,,,,,,,,,,,,,,,,,,,,,0,0,0,0,0,0,0,0,0,0,0,0,0,0,0,0,0,0,, , , , , , ,0,0,0,0,0,0,, , ,0,,1
11014003400 ,石田病院, , ,北海道,標津郡中標津町りんどう町５−６,43.543975,144.927583,0,0,0,0,未,未入力,0,,0,,,,,,,,,,,,,,,,,,,,,,,,,,,0,0,0,0,0,0,0,0,0,0,0,0,0,0,0,0,0,0,, , , , , , ,0,0,0,0,0,0,, , ,0,,1
11014003500 ,標津町国民健康保険標津病院, , ,北海道,標津郡標津町北１条西５丁目６番１−１号,43.659105,145.119895,0,0,0,0,未,未入力,0,,0,,,,,,,,,,,,,,,,,,,,,,,,,,,0,0,0,0,0,0,0,0,0,0,0,0,0,0,0,0,0,0,, , , , , , ,0,0,0,0,0,0,, , ,0,,1
11014003700 ,摩周厚生病院, , ,北海道,川上郡弟子屈町泉２丁目３−１,43.481474,144.46343,0,0,0,0,未,未入力,0,,0,,,,,,,,,,,,,,,,,,,,,,,,,,,0,0,0,0,0,0,0,0,0,0,0,0,0,0,0,0,0,0,, , , , , , ,0,0,0,0,0,0,, , ,0,,1
11014003800 ,釧路三慈会病院, , ,北海道,釧路市幣舞町４−３０,42.978332,144.386654,0,0,0,0,未,未入力,0,,0,,,,,,,,,,,,,,,,,,,,,,,,,,,0,0,0,0,0,0,0,0,0,0,0,0,0,0,0,0,0,0,, , , , , , ,0,0,0,0,0,0,, , ,0,,1
11015000200 ,玉越病院, , ,北海道,北見市光西町１９５番地,43.79343,143.871048,0,0,0,0,未,未入力,0,,0,,,,,,,,,,,,,,,,,,,,,,,,,,,0,0,0,0,0,0,0,0,0,0,0,0,0,0,0,0,0,0,, , , , , , ,0,0,0,0,0,0,, , ,0,,1
11015000300 ,北海道立北見病院, , ,北海道,北見市高栄西町１丁目１−２,43.809512,143.868575,0,0,0,0,未,未入力,0,,0,,,,,,,,,,,,,,,,,,,,,,,,,,,0,0,0,0,0,0,0,0,0,0,0,0,0,0,0,0,0,0,, , , , , , ,0,0,0,0,0,0,, , ,0,,1
11015000400 ,北星脳神経・心血管内科病院, , ,北海道,北見市東三輪２丁目３６−１,43.798985,143.859271,0,0,0,0,未,未入力,0,,0,,,,,,,,,,,,,,,,,,,,,,,,,,,0,0,0,0,0,0,0,0,0,0,0,0,0,0,0,0,0,0,, , , , , , ,0,0,0,0,0,0,, , ,0,,1
11015000500 ,耳鼻咽喉科麻生北見病院, , ,北海道,北見市東三輪２丁目５４−８,43.799901,143.857798,0,0,0,0,未,未入力,0,,0,,,,,,,,,,,,,,,,,,,,,,,,,,,0,0,0,0,0,0,0,0,0,0,0,0,0,0,0,0,0,0,, , , , , , ,0,0,0,0,0,0,, , ,0,,1
11015000700 ,勤医協北見病院, , ,北海道,北見市常盤町５丁目７−５,43.793014,143.889602,0,0,0,0,未,未入力,0,,0,,,,,,,,,,,,,,,,,,,,,,,,,,,0,0,0,0,0,0,0,0,0,0,0,0,0,0,0,0,0,0,, , , , , , ,0,0,0,0,0,0,, , ,0,,1
11015000900 ,愛成病院, , ,北海道,北見市高栄東町４丁目２０−１,43.818944,143.874916,0,0,0,0,未,未入力,0,,0,,,,,,,,,,,,,,,,,,,,,,,,,,,0,0,0,0,0,0,0,0,0,0,0,0,0,0,0,0,0,0,, , , , , , ,0,0,0,0,0,0,, , ,0,,1
11015001000 ,小林病院, , ,北海道,北見市北３条西４丁目２,43.803541,143.891351,0,0,0,0,未,未入力,0,,0,,,,,,,,,,,,,,,,,,,,,,,,,,,0,0,0,0,0,0,0,0,0,0,0,0,0,0,0,0,0,0,, , , , , , ,0,0,0,0,0,0,, , ,0,,1
11015001100 ,北見北斗病院, , ,北海道,北見市北５条西１丁目６,43.806679,143.89249,0,0,0,0,未,未入力,0,,0,,,,,,,,,,,,,,,,,,,,,,,,,,,0,0,0,0,0,0,0,0,0,0,0,0,0,0,0,0,0,0,, , , , , , ,0,0,0,0,0,0,, , ,0,,1
11015001200 ,北見赤十字病院,北見赤十字病院,908666,北海道,北見市北６条東２丁目１,43.809138,143.893333,1,1,0,1,未,未入力,0,,0,,,,,,,,,,,,,,,,,,,,,,,,,,,0,0,0,0,0,0,0,0,0,0,0,0,0,0,0,0,0,0,, , , , , , ,0,0,0,0,0,0,, , ,0,,1
11015001300 ,網走脳神経外科・リハビリテーション病院, , ,北海道,網走市桂町４丁目１−７,44.014608,144.269755,0,0,0,0,未,未入力,0,,0,,,,,,,,,,,,,,,,,,,,,,,,,,,0,0,0,0,0,0,0,0,0,0,0,0,0,0,0,0,0,0,, , , , , , ,0,0,0,0,0,0,, , ,0,,1
11015001400 ,北海道立向陽ケ丘病院, , ,北海道,網走市向陽ケ丘１丁目５−１,44.027222,144.254972,0,0,0,0,未,未入力,0,,0,,,,,,,,,,,,,,,,,,,,,,,,,,,0,0,0,0,0,0,0,0,0,0,0,0,0,0,0,0,0,0,, , , , , , ,0,0,0,0,0,0,, , ,0,,1
11015001700 ,網走厚生病院,JA北海道厚生連　網走厚生病院,930076,北海道,網走市北６条西１丁目９,44.025527,144.263416,1,0,0,1,未,未入力,0,,0,,,,,,,,,,,,,,,,,,,,,,,,,,,0,0,0,0,0,0,0,0,0,0,0,0,0,0,0,0,0,0,, , , , , , ,0,0,0,0,0,0,, , ,0,,1
11015001800 ,大原病院, , ,北海道,紋別市幸町４丁目１−１６,44.353583,143.352944,0,0,0,0,未,未入力,0,,0,,,,,,,,,,,,,,,,,,,,,,,,,,,0,0,0,0,0,0,0,0,0,0,0,0,0,0,0,0,0,0,, , , , , , ,0,0,0,0,0,0,, , ,0,,1
11015002000 ,みなと病院, , ,北海道,紋別市本町３丁目２−３,44.353695,143.356065,0,0,0,0,未,未入力,0,,0,,,,,,,,,,,,,,,,,,,,,,,,,,,0,0,0,0,0,0,0,0,0,0,0,0,0,0,0,0,0,0,, , , , , , ,0,0,0,0,0,0,, , ,0,,1
11015002100 ,広域紋別病院,広域紋別病院,948709,北海道,紋別市落石町１丁目３−３７,44.361694,143.346648,1,0,0,1,未,未入力,0,,0,,,,,,,,,,,,,,,,,,,,,,,,,,,0,0,0,0,0,0,0,0,0,0,0,0,0,0,0,0,0,0,, , , , , , ,0,0,0,0,0,0,, , ,0,,1
11015002200 ,女満別中央病院, , ,北海道,網走郡大空町女満別西４条４丁目１−２９,43.909534,144.171406,0,0,0,0,未,未入力,0,,0,,,,,,,,,,,,,,,,,,,,,,,,,,,0,0,0,0,0,0,0,0,0,0,0,0,0,0,0,0,0,0,, , , , , , ,0,0,0,0,0,0,, , ,0,,1
11015002300 ,美幌町立国保病院, , ,北海道,網走郡美幌町字仲町２丁目３８−１,43.832222,144.106916,0,0,0,0,未,未入力,0,,0,,,,,,,,,,,,,,,,,,,,,,,,,,,0,0,0,0,0,0,0,0,0,0,0,0,0,0,0,0,0,0,, , , , , , ,0,0,0,0,0,0,, , ,0,,1
11015002500 ,津別病院, , ,北海道,網走郡津別町字幸町６１番地,43.706666,144.0255,0,0,0,0,未,未入力,0,,0,,,,,,,,,,,,,,,,,,,,,,,,,,,0,0,0,0,0,0,0,0,0,0,0,0,0,0,0,0,0,0,, , , , , , ,0,0,0,0,0,0,, , ,0,,1
11015002600 ,斜里町国保病院, , ,北海道,斜里郡斜里町青葉町４１番地,43.904988,144.663532,0,0,0,0,未,未入力,0,,0,,,,,,,,,,,,,,,,,,,,,,,,,,,0,0,0,0,0,0,0,0,0,0,0,0,0,0,0,0,0,0,, , , , , , ,0,0,0,0,0,0,, , ,0,,1
11015002700 ,小清水赤十字病院, , ,北海道,斜里郡小清水町字小清水６４５−１６,43.855878,144.460274,0,0,0,0,未,未入力,0,,0,,,,,,,,,,,,,,,,,,,,,,,,,,,0,0,0,0,0,0,0,0,0,0,0,0,0,0,0,0,0,0,, , , , , , ,0,0,0,0,0,0,, , ,0,,1
11015002800 ,端野病院, , ,北海道,北見市端野町一区６６６番地,43.885583,143.980027,0,0,0,0,未,未入力,0,,0,,,,,,,,,,,,,,,,,,,,,,,,,,,0,0,0,0,0,0,0,0,0,0,0,0,0,0,0,0,0,0,, , , , , , ,0,0,0,0,0,0,, , ,0,,1
11015002900 ,オホーツク海病院, , ,北海道,北見市端野町二区７９３−１,43.8635,143.928388,0,0,0,0,未,未入力,0,,0,,,,,,,,,,,,,,,,,,,,,,,,,,,0,0,0,0,0,0,0,0,0,0,0,0,0,0,0,0,0,0,, , , , , , ,0,0,0,0,0,0,, , ,0,,1
11015003000 ,置戸赤十字病院, , ,北海道,常呂郡置戸町字置戸７７番地,43.677799,143.587938,0,0,0,0,未,未入力,0,,0,,,,,,,,,,,,,,,,,,,,,,,,,,,0,0,0,0,0,0,0,0,0,0,0,0,0,0,0,0,0,0,, , , , , , ,0,0,0,0,0,0,, , ,0,,1
11015003200 ,常呂厚生病院, , ,北海道,北見市常呂町字常呂５７３−２,44.117566,144.065267,0,0,0,0,未,未入力,0,,0,,,,,,,,,,,,,,,,,,,,,,,,,,,0,0,0,0,0,0,0,0,0,0,0,0,0,0,0,0,0,0,, , , , , , ,0,0,0,0,0,0,, , ,0,,1
11015003500 ,遠軽共立病院, , ,北海道,紋別郡遠軽町大通北１丁目３,44.059535,143.525453,0,0,0,0,未,未入力,0,,0,,,,,,,,,,,,,,,,,,,,,,,,,,,0,0,0,0,0,0,0,0,0,0,0,0,0,0,0,0,0,0,, , , , , , ,0,0,0,0,0,0,, , ,0,,1
11015003600 ,遠軽厚生病院, , ,北海道,紋別郡遠軽町大通北３丁目１−５,44.062701,143.524148,1,0,0,1,未,未入力,0,,0,,,,,,,,,,,,,,,,,,,,,,,,,,,0,0,0,0,0,0,0,0,0,0,0,0,0,0,0,0,0,0,, , , , , , ,0,0,0,0,0,0,, , ,0,,1
11015003700 ,丸瀬布厚生病院, , ,北海道,紋別郡遠軽町丸瀬布新町２７４−１,44.003065,143.338499,0,0,0,0,未,未入力,0,,0,,,,,,,,,,,,,,,,,,,,,,,,,,,0,0,0,0,0,0,0,0,0,0,0,0,0,0,0,0,0,0,, , , , , , ,0,0,0,0,0,0,, , ,0,,1
11015003800 ,曽我病院, , ,北海道,紋別郡湧別町中湧別中町８２６−１,44.188383,143.591108,0,0,0,0,未,未入力,0,,0,,,,,,,,,,,,,,,,,,,,,,,,,,,0,0,0,0,0,0,0,0,0,0,0,0,0,0,0,0,0,0,, , , , , , ,0,0,0,0,0,0,, , ,0,,1
11015004000 ,滝上町国保病院, , ,北海道,紋別郡滝上町字サクルー原野１６０５番地,44.197595,143.062902,0,0,0,0,未,未入力,0,,0,,,,,,,,,,,,,,,,,,,,,,,,,,,0,0,0,0,0,0,0,0,0,0,0,0,0,0,0,0,0,0,, , , , , , ,0,0,0,0,0,0,, , ,0,,1
11015004100 ,興部町国保病院, , ,北海道,紋別郡興部町字興部１３２２−２３,44.469984,143.118968,0,0,0,0,未,未入力,0,,0,,,,,,,,,,,,,,,,,,,,,,,,,,,0,0,0,0,0,0,0,0,0,0,0,0,0,0,0,0,0,0,, , , , , , ,0,0,0,0,0,0,, , ,0,,1
11015004200 ,雄武町国保病院, , ,北海道,紋別郡雄武町字雄武１４８２番地２,44.582305,142.95675,0,0,0,0,未,未入力,0,,0,,,,,,,,,,,,,,,,,,,,,,,,,,,0,0,0,0,0,0,0,0,0,0,0,0,0,0,0,0,0,0,, , , , , , ,0,0,0,0,0,0,, , ,0,,1
11015004300 ,こが病院, , ,北海道,網走市字潮見１５３−１,43.991527,144.266561,0,0,0,0,未,未入力,0,,0,,,,,,,,,,,,,,,,,,,,,,,,,,,0,0,0,0,0,0,0,0,0,0,0,0,0,0,0,0,0,0,, , , , , , ,0,0,0,0,0,0,, , ,0,,1
11015004400 ,曽我クリニック, , ,北海道,紋別市大山町４丁目１４−１,44.348777,143.339,0,0,0,0,未,未入力,0,,0,,,,,,,,,,,,,,,,,,,,,,,,,,,0,0,0,0,0,0,0,0,0,0,0,0,0,0,0,0,0,0,, , , , , , ,0,0,0,0,0,0,, , ,0,,1
11015004500 ,道東脳神経外科病院, , ,北海道,北見市美山町東２丁目６８−９,43.826844,143.883545,0,0,0,0,未,未入力,0,,0,,,,,,,,,,,,,,,,,,,,,,,,,,,0,0,0,0,0,0,0,0,0,0,0,0,0,0,0,0,0,0,, , , , , , ,0,0,0,0,0,0,, , ,0,,1
11016000300 ,宮の森病院, , ,北海道,札幌市中央区宮の森１２３７−１,43.057138,141.292138,0,0,0,0,未,未入力,0,,0,,,,,,,,,,,,,,,,,,,,,,,,,,,0,0,0,0,0,0,0,0,0,0,0,0,0,0,0,0,0,0,, , , , , , ,0,0,0,0,0,0,, , ,0,,1
11016000400 ,札幌明日佳病院, , ,北海道,札幌市中央区宮の森１条１７丁目１−２５,43.043243,141.292935,0,0,0,0,未,未入力,0,,0,,,,,,,,,,,,,,,,,,,,,,,,,,,0,0,0,0,0,0,0,0,0,0,0,0,0,0,0,0,0,0,, , , , , , ,0,0,0,0,0,0,, , ,0,,1
11016000500 ,宮の森記念病院, , ,北海道,札幌市中央区宮の森３条７丁目５−２５,43.062241,141.302823,0,0,0,0,未,未入力,0,,0,,,,,,,,,,,,,,,,,,,,,,,,,,,0,0,0,0,0,0,0,0,0,0,0,0,0,0,0,0,0,0,, , , , , , ,0,0,0,0,0,0,, , ,0,,1
11016000600 ,旭山病院, , ,北海道,札幌市中央区双子山４丁目３−３３,43.041605,141.311961,0,0,0,0,未,未入力,0,,0,,,,,,,,,,,,,,,,,,,,,,,,,,,0,0,0,0,0,0,0,0,0,0,0,0,0,0,0,0,0,0,, , , , , , ,0,0,0,0,0,0,, , ,0,,1
11016000900 ,心和病院, , ,北海道,札幌市中央区南１３条西２０丁目１−６,43.041605,141.329182,0,0,0,0,未,未入力,0,,0,,,,,,,,,,,,,,,,,,,,,,,,,,,0,0,0,0,0,0,0,0,0,0,0,0,0,0,0,0,0,0,, , , , , , ,0,0,0,0,0,0,, , ,0,,1
11016001200 ,札幌いしやま病院, , ,北海道,札幌市中央区南１５条西１０丁目４−１,43.039356,141.34407,0,0,0,0,未,未入力,0,,0,,,,,,,,,,,,,,,,,,,,,,,,,,,0,0,0,0,0,0,0,0,0,0,0,0,0,0,0,0,0,0,, , , , , , ,0,0,0,0,0,0,, , ,0,,1
11016001300 ,札幌花園病院, , ,北海道,札幌市中央区南１５条西１５丁目１−３０,43.039189,141.33521,0,0,0,0,未,未入力,0,,0,,,,,,,,,,,,,,,,,,,,,,,,,,,0,0,0,0,0,0,0,0,0,0,0,0,0,0,0,0,0,0,, , , , , , ,0,0,0,0,0,0,, , ,0,,1
11016001400 ,南札幌病院, , ,北海道,札幌市中央区南９条西７丁目１−２３,43.048277,141.348305,0,0,0,0,未,未入力,0,,0,,,,,,,,,,,,,,,,,,,,,,,,,,,0,0,0,0,0,0,0,0,0,0,0,0,0,0,0,0,0,0,, , , , , , ,0,0,0,0,0,0,, , ,0,,1
11016001500 ,札幌南一条病院, , ,北海道,札幌市中央区南１条西１３丁目３１７−１,43.056659,141.33732,0,0,0,0,未,未入力,0,,0,,,,,,,,,,,,,,,,,,,,,,,,,,,0,0,0,0,0,0,0,0,0,0,0,0,0,0,0,0,0,0,, , , , , , ,0,0,0,0,0,0,, , ,0,,1
11016001600 ,中村記念病院, , ,北海道,札幌市中央区南１条西１４丁目２９１,43.056437,141.336376,0,0,0,0,未,未入力,0,,0,,,,,,,,,,,,,,,,,,,,,,,,,,,0,0,0,0,0,0,0,0,0,0,0,0,0,0,0,0,0,0,, , , , , , ,0,0,0,0,0,0,, , ,0,,1
11016001700 ,ＮＴＴ札幌病院, , ,北海道,札幌市中央区南１条西１５丁目２９０,43.055937,141.334431,0,0,0,0,未,未入力,0,,0,,,,,,,,,,,,,,,,,,,,,,,,,,,0,0,0,0,0,0,0,0,0,0,0,0,0,0,0,0,0,0,, , , , , , ,0,0,0,0,0,0,, , ,0,,1
11016001800 ,札幌医科大学附属病院,札幌医科大学附属病院,608543,北海道,札幌市中央区南１条西１６丁目２９１,43.055326,141.33332,1,1,1,1,未,未入力,0,,0,,,,,,,,,,,,,,,,,,,,,,,,,,,0,0,0,0,0,0,0,0,0,0,0,0,0,0,0,0,0,0,, , , , , , ,0,0,0,0,0,0,, , ,0,,1
11016001900 ,土田病院, , ,北海道,札幌市中央区南２１条西９丁目２−１１,43.031356,141.347542,0,0,0,0,未,未入力,0,,0,,,,,,,,,,,,,,,,,,,,,,,,,,,0,0,0,0,0,0,0,0,0,0,0,0,0,0,0,0,0,0,, , , , , , ,0,0,0,0,0,0,, , ,0,,1
11016002000 ,平松記念病院, , ,北海道,札幌市中央区南２２条西１４丁目１−２０,43.02969,141.338988,0,0,0,0,未,未入力,0,,0,,,,,,,,,,,,,,,,,,,,,,,,,,,0,0,0,0,0,0,0,0,0,0,0,0,0,0,0,0,0,0,, , , , , , ,0,0,0,0,0,0,, , ,0,,1
11016002100 ,札幌外科記念病院, , ,北海道,札幌市中央区南２３条西１５丁目１−３０,43.027385,141.33796,0,0,0,0,未,未入力,0,,0,,,,,,,,,,,,,,,,,,,,,,,,,,,0,0,0,0,0,0,0,0,0,0,0,0,0,0,0,0,0,0,, , , , , , ,0,0,0,0,0,0,, , ,0,,1
11016002200 ,北海道循環器病院, , ,北海道,札幌市中央区南２７条西１３丁目１−３０,43.02358,141.342599,0,0,0,0,未,未入力,0,,0,,,,,,,,,,,,,,,,,,,,,,,,,,,0,0,0,0,0,0,0,0,0,0,0,0,0,0,0,0,0,0,, , , , , , ,0,0,0,0,0,0,, , ,0,,1
11016002300 ,いとう整形外科病院, , ,北海道,札幌市中央区南２条西１０丁目５番地,43.056687,141.342264,0,0,0,0,未,未入力,0,,0,,,,,,,,,,,,,,,,,,,,,,,,,,,0,0,0,0,0,0,0,0,0,0,0,0,0,0,0,0,0,0,, , , , , , ,0,0,0,0,0,0,, , ,0,,1
11016002700 ,平成会病院, , ,北海道,札幌市中央区北１条西１８丁目１−１,43.058826,141.329154,0,0,0,0,未,未入力,0,,0,,,,,,,,,,,,,,,,,,,,,,,,,,,0,0,0,0,0,0,0,0,0,0,0,0,0,0,0,0,0,0,, , , , , , ,0,0,0,0,0,0,, , ,0,,1
11016002800 ,札幌中央病院, , ,北海道,札幌市中央区南９条西１０丁目１−５０,43.047494,141.343153,0,0,0,0,未,未入力,0,,0,,,,,,,,,,,,,,,,,,,,,,,,,,,0,0,0,0,0,0,0,0,0,0,0,0,0,0,0,0,0,0,, , , , , , ,0,0,0,0,0,0,, , ,0,,1
11016002900 ,市立札幌病院,市立札幌病院,608604,北海道,札幌市中央区北１１条西１３丁目１−１,43.071158,141.334486,1,1,0,1,未,未入力,0,,0,,,,,,,,,,,,,,,,,,,,,,,,,,,0,0,0,0,0,0,0,0,0,0,0,0,0,0,0,0,0,0,, , , , , , ,0,0,0,0,0,0,, , ,0,,1
11016003000 ,桑園病院, , ,北海道,札幌市中央区北１２条西１５丁目１−３０,43.072602,141.330042,0,0,0,0,未,未入力,0,,0,,,,,,,,,,,,,,,,,,,,,,,,,,,0,0,0,0,0,0,0,0,0,0,0,0,0,0,0,0,0,0,, , , , , , ,0,0,0,0,0,0,, , ,0,,1
11016003100 ,札幌循環器病院, , ,北海道,札幌市中央区北１１条西１４丁目２９−１５,43.073416,141.333416,0,0,0,0,未,未入力,0,,0,,,,,,,,,,,,,,,,,,,,,,,,,,,0,0,0,0,0,0,0,0,0,0,0,0,0,0,0,0,0,0,, , , , , , ,0,0,0,0,0,0,, , ,0,,1
11016003200 ,斗南病院, , ,北海道,札幌市中央区北１条西６丁目,43.062437,141.348041,0,0,0,0,未,未入力,0,,0,,,,,,,,,,,,,,,,,,,,,,,,,,,0,0,0,0,0,0,0,0,0,0,0,0,0,0,0,0,0,0,, , , , , , ,0,0,0,0,0,0,, , ,0,,1
11016003300 ,時計台記念病院, , ,北海道,札幌市中央区北１条東１丁目２番３号,43.063131,141.357457,0,0,0,0,未,未入力,0,,0,,,,,,,,,,,,,,,,,,,,,,,,,,,0,0,0,0,0,0,0,0,0,0,0,0,0,0,0,0,0,0,, , , , , , ,0,0,0,0,0,0,, , ,0,,1
11016003400 ,北海道脳神経外科記念病院, , ,北海道,札幌市西区八軒９条東５丁目１−２０,43.0851,141.326347,0,0,0,0,未,未入力,0,,0,,,,,,,,,,,,,,,,,,,,,,,,,,,0,0,0,0,0,0,0,0,0,0,0,0,0,0,0,0,0,0,, , , , , , ,0,0,0,0,0,0,, , ,0,,1
11016003500 ,愛育病院, , ,北海道,札幌市中央区南４条西２５丁目２−１,43.052027,141.320694,0,0,0,0,未,未入力,0,,0,,,,,,,,,,,,,,,,,,,,,,,,,,,0,0,0,0,0,0,0,0,0,0,0,0,0,0,0,0,0,0,, , , , , , ,0,0,0,0,0,0,, , ,0,,1
11016003600 ,ＪＲ札幌病院, , ,北海道,札幌市中央区北３条東１丁目１−１,43.06577,141.356818,0,0,0,0,未,未入力,0,,0,,,,,,,,,,,,,,,,,,,,,,,,,,,0,0,0,0,0,0,0,0,0,0,0,0,0,0,0,0,0,0,, , , , , , ,0,0,0,0,0,0,, , ,0,,1
11016003700 ,札幌厚生病院, , ,北海道,札幌市中央区北３条東８丁目５,43.067464,141.369178,0,0,0,0,未,未入力,0,,0,,,,,,,,,,,,,,,,,,,,,,,,,,,0,0,0,0,0,0,0,0,0,0,0,0,0,0,0,0,0,0,, , , , , , ,0,0,0,0,0,0,, , ,0,,1
11016003800 ,岡本病院, , ,北海道,札幌市中央区北７条西２６丁目３−１,43.06563,141.31621,0,0,0,0,未,未入力,0,,0,,,,,,,,,,,,,,,,,,,,,,,,,,,0,0,0,0,0,0,0,0,0,0,0,0,0,0,0,0,0,0,, , , , , , ,0,0,0,0,0,0,, , ,0,,1
11016003900 ,札幌円山整形外科病院, , ,北海道,札幌市中央区北７条西２７丁目１−３,43.065019,141.314738,0,0,0,0,未,未入力,0,,0,,,,,,,,,,,,,,,,,,,,,,,,,,,0,0,0,0,0,0,0,0,0,0,0,0,0,0,0,0,0,0,, , , , , , ,0,0,0,0,0,0,, , ,0,,1
11016004200 ,札幌しらかば台篠路病院, , ,北海道,札幌市北区篠路７条４丁目２−１５,43.152538,141.359008,0,0,0,0,未,未入力,0,,0,,,,,,,,,,,,,,,,,,,,,,,,,,,0,0,0,0,0,0,0,0,0,0,0,0,0,0,0,0,0,0,, , , , , , ,0,0,0,0,0,0,, , ,0,,1
11016004300 ,五稜会病院, , ,北海道,札幌市北区篠路９条６丁目２−３,43.155149,141.363813,0,0,0,0,未,未入力,0,,0,,,,,,,,,,,,,,,,,,,,,,,,,,,0,0,0,0,0,0,0,0,0,0,0,0,0,0,0,0,0,0,, , , , , , ,0,0,0,0,0,0,, , ,0,,1
11016004700 ,麻生整形外科病院, , ,北海道,札幌市北区新琴似８条２丁目２−５,43.112903,141.332651,0,0,0,0,未,未入力,0,,0,,,,,,,,,,,,,,,,,,,,,,,,,,,0,0,0,0,0,0,0,0,0,0,0,0,0,0,0,0,0,0,, , , , , , ,0,0,0,0,0,0,, , ,0,,1
11016004800 ,北札幌病院, , ,北海道,札幌市北区新琴似９条１丁目１−１,43.112638,141.337277,0,0,0,0,未,未入力,0,,0,,,,,,,,,,,,,,,,,,,,,,,,,,,0,0,0,0,0,0,0,0,0,0,0,0,0,0,0,0,0,0,, , , , , , ,0,0,0,0,0,0,, , ,0,,1
11016005000 ,新川新道整形外科病院, , ,北海道,札幌市北区新川５条４丁目２−８,43.102916,141.321,0,0,0,0,未,未入力,0,,0,,,,,,,,,,,,,,,,,,,,,,,,,,,0,0,0,0,0,0,0,0,0,0,0,0,0,0,0,0,0,0,, , , , , , ,0,0,0,0,0,0,, , ,0,,1
11016005100 ,石金病院, , ,北海道,札幌市北区新川７１４−２,43.120041,141.298681,0,0,0,0,未,未入力,0,,0,,,,,,,,,,,,,,,,,,,,,,,,,,,0,0,0,0,0,0,0,0,0,0,0,0,0,0,0,0,0,0,, , , , , , ,0,0,0,0,0,0,, , ,0,,1
11016005200 ,北成病院, , ,北海道,札幌市北区新川西３条２丁目１０−１,43.124388,141.287277,0,0,0,0,未,未入力,0,,0,,,,,,,,,,,,,,,,,,,,,,,,,,,0,0,0,0,0,0,0,0,0,0,0,0,0,0,0,0,0,0,, , , , , , ,0,0,0,0,0,0,, , ,0,,1
11016005300 ,札幌優翔館病院, , ,北海道,札幌市北区東茨戸２条２丁目８−２５,43.16487,141.358008,0,0,0,0,未,未入力,0,,0,,,,,,,,,,,,,,,,,,,,,,,,,,,0,0,0,0,0,0,0,0,0,0,0,0,0,0,0,0,0,0,, , , , , , ,0,0,0,0,0,0,, , ,0,,1
11016005400 ,小原病院, , ,北海道,札幌市北区屯田９条１２丁目５−１,43.1444,141.317012,0,0,0,0,未,未入力,0,,0,,,,,,,,,,,,,,,,,,,,,,,,,,,0,0,0,0,0,0,0,0,0,0,0,0,0,0,0,0,0,0,, , , , , , ,0,0,0,0,0,0,, , ,0,,1
11016006000 ,聖ヶ丘病院, , ,北海道,伊達市舟岡町２１４−２２,42.465548,140.882774,0,0,0,0,未,未入力,0,,0,,,,,,,,,,,,,,,,,,,,,,,,,,,0,0,0,0,0,0,0,0,0,0,0,0,0,0,0,0,0,0,, , , , , , ,0,0,0,0,0,0,, , ,0,,1
11016006200 ,松田整形外科記念病院, , ,北海道,札幌市北区北１８条西４丁目１−３５,43.082018,141.346123,0,0,0,0,未,未入力,0,,0,,,,,,,,,,,,,,,,,,,,,,,,,,,0,0,0,0,0,0,0,0,0,0,0,0,0,0,0,0,0,0,, , , , , , ,0,0,0,0,0,0,, , ,0,,1
11016006300 ,中江病院, , ,北海道,札幌市北区北２２条西７丁目２−１,43.087767,141.339846,0,0,0,0,未,未入力,0,,0,,,,,,,,,,,,,,,,,,,,,,,,,,,0,0,0,0,0,0,0,0,0,0,0,0,0,0,0,0,0,0,, , , , , , ,0,0,0,0,0,0,, , ,0,,1
11016006700 ,我汝会さっぽろ病院, , ,北海道,札幌市東区北２４条東１丁目３−７,43.091767,141.350012,0,0,0,0,未,未入力,0,,0,,,,,,,,,,,,,,,,,,,,,,,,,,,0,0,0,0,0,0,0,0,0,0,0,0,0,0,0,0,0,0,, , , , , , ,0,0,0,0,0,0,, , ,0,,1
11016006800 ,坂泌尿器科病院, , ,北海道,札幌市北区北３０条西１４丁目３−１,43.099488,141.32668,0,0,0,0,未,未入力,0,,0,,,,,,,,,,,,,,,,,,,,,,,,,,,0,0,0,0,0,0,0,0,0,0,0,0,0,0,0,0,0,0,, , , , , , ,0,0,0,0,0,0,, , ,0,,1
11016007200 ,東苗穂病院, , ,北海道,札幌市東区東苗穂３条１丁目２−１８,43.088351,141.399063,0,0,0,0,未,未入力,0,,0,,,,,,,,,,,,,,,,,,,,,,,,,,,0,0,0,0,0,0,0,0,0,0,0,0,0,0,0,0,0,0,, , , , , , ,0,0,0,0,0,0,, , ,0,,1
11016007300 ,札苗病院, , ,北海道,札幌市東区東苗穂７条２丁目８−２０,43.094861,141.412444,0,0,0,0,未,未入力,0,,0,,,,,,,,,,,,,,,,,,,,,,,,,,,0,0,0,0,0,0,0,0,0,0,0,0,0,0,0,0,0,0,, , , , , , ,0,0,0,0,0,0,, , ,0,,1
11016007400 ,勤医協中央病院, , ,北海道,札幌市東区東苗穂５条１丁目９−１,43.091129,141.403341,0,0,0,0,未,未入力,0,,0,,,,,,,,,,,,,,,,,,,,,,,,,,,0,0,0,0,0,0,0,0,0,0,0,0,0,0,0,0,0,0,, , , , , , ,0,0,0,0,0,0,, , ,0,,1
11016007600 ,整形外科北新東病院, , ,北海道,札幌市東区伏古５条３丁目３−２,43.088323,141.391731,0,0,0,0,未,未入力,0,,0,,,,,,,,,,,,,,,,,,,,,,,,,,,0,0,0,0,0,0,0,0,0,0,0,0,0,0,0,0,0,0,, , , , , , ,0,0,0,0,0,0,, , ,0,,1
11016007700 ,天使病院, , ,北海道,札幌市東区北１２条東３丁目１−１,43.076602,141.357373,0,0,0,0,未,未入力,0,,0,,,,,,,,,,,,,,,,,,,,,,,,,,,0,0,0,0,0,0,0,0,0,0,0,0,0,0,0,0,0,0,, , , , , , ,0,0,0,0,0,0,, , ,0,,1
11016007900 ,札幌道都病院, , ,北海道,札幌市東区北１７条東１４丁目３−２,43.084657,141.371316,0,0,0,0,未,未入力,0,,0,,,,,,,,,,,,,,,,,,,,,,,,,,,0,0,0,0,0,0,0,0,0,0,0,0,0,0,0,0,0,0,, , , , , , ,0,0,0,0,0,0,, , ,0,,1
11016008100 ,愛心メモリアル病院, , ,北海道,札幌市東区北２７条東１丁目１−１５,43.094516,141.347512,0,0,0,0,未,未入力,0,,0,,,,,,,,,,,,,,,,,,,,,,,,,,,0,0,0,0,0,0,0,0,0,0,0,0,0,0,0,0,0,0,, , , , , , ,0,0,0,0,0,0,, , ,0,,1
11016008300 ,北光記念病院, , ,北海道,札幌市東区北２７条東８丁目１−６,43.096683,141.360872,0,0,0,0,未,未入力,0,,0,,,,,,,,,,,,,,,,,,,,,,,,,,,0,0,0,0,0,0,0,0,0,0,0,0,0,0,0,0,0,0,, , , , , , ,0,0,0,0,0,0,, , ,0,,1
11016008400 ,札幌東和病院, , ,北海道,札幌市東区北３０条東１８丁目８−１,43.101016,141.376842,0,0,0,0,未,未入力,0,,0,,,,,,,,,,,,,,,,,,,,,,,,,,,0,0,0,0,0,0,0,0,0,0,0,0,0,0,0,0,0,0,, , , , , , ,0,0,0,0,0,0,, , ,0,,1
11016008500 ,札幌東徳洲会病院, , ,北海道,札幌市東区北３３条東１４丁目３−１,43.103655,141.365926,0,0,0,0,未,未入力,0,,0,,,,,,,,,,,,,,,,,,,,,,,,,,,0,0,0,0,0,0,0,0,0,0,0,0,0,0,0,0,0,0,, , , , , , ,0,0,0,0,0,0,, , ,0,,1
11016008700 ,札幌麻生脳神経外科病院, , ,北海道,札幌市東区北２２条東１丁目１−４０,43.088267,141.349873,0,0,0,0,未,未入力,0,,0,,,,,,,,,,,,,,,,,,,,,,,,,,,0,0,0,0,0,0,0,0,0,0,0,0,0,0,0,0,0,0,, , , , , , ,0,0,0,0,0,0,, , ,0,,1
11016008800 ,北海道泌尿器科記念病院, , ,北海道,札幌市東区北４１条東１丁目１−２５,43.109543,141.344872,0,0,0,0,未,未入力,0,,0,,,,,,,,,,,,,,,,,,,,,,,,,,,0,0,0,0,0,0,0,0,0,0,0,0,0,0,0,0,0,0,, , , , , , ,0,0,0,0,0,0,, , ,0,,1
11016008900 ,耳鼻咽喉科麻生病院, , ,北海道,札幌市東区北４０条東１丁目１−７,43.107654,141.344789,0,0,0,0,未,未入力,0,,0,,,,,,,,,,,,,,,,,,,,,,,,,,,0,0,0,0,0,0,0,0,0,0,0,0,0,0,0,0,0,0,, , , , , , ,0,0,0,0,0,0,, , ,0,,1
11016009000 ,東栄病院, , ,北海道,札幌市東区北４１条東１６丁目３−１４,43.11275,141.367666,0,0,0,0,未,未入力,0,,0,,,,,,,,,,,,,,,,,,,,,,,,,,,0,0,0,0,0,0,0,0,0,0,0,0,0,0,0,0,0,0,, , , , , , ,0,0,0,0,0,0,, , ,0,,1
11016009100 ,札幌禎心会病院, , ,北海道,札幌市東区北３３条東１丁目３−１,43.101127,141.346817,0,0,0,0,未,未入力,0,,0,,,,,,,,,,,,,,,,,,,,,,,,,,,0,0,0,0,0,0,0,0,0,0,0,0,0,0,0,0,0,0,, , , , , , ,0,0,0,0,0,0,, , ,0,,1
11016009300 ,北海道消化器科病院, , ,北海道,札幌市東区本町１条１丁目２−１０,43.080463,141.37876,0,0,0,0,未,未入力,0,,0,,,,,,,,,,,,,,,,,,,,,,,,,,,0,0,0,0,0,0,0,0,0,0,0,0,0,0,0,0,0,0,, , , , , , ,0,0,0,0,0,0,, , ,0,,1
11016009400 ,クラーク病院, , ,北海道,札幌市東区本町２条４丁目８−２０,43.079963,141.389981,0,0,0,0,未,未入力,0,,0,,,,,,,,,,,,,,,,,,,,,,,,,,,0,0,0,0,0,0,0,0,0,0,0,0,0,0,0,0,0,0,, , , , , , ,0,0,0,0,0,0,, , ,0,,1
11016009500 ,札幌徳洲会病院, , ,北海道,札幌市厚別区大谷地東１丁目１−１,43.029192,141.44784,0,0,0,0,未,未入力,0,,0,,,,,,,,,,,,,,,,,,,,,,,,,,,0,0,0,0,0,0,0,0,0,0,0,0,0,0,0,0,0,0,, , , , , , ,0,0,0,0,0,0,, , ,0,,1
11016009700 ,勤医協札幌病院, , ,北海道,札幌市白石区菊水４条１丁目９−２２,43.059298,141.37315,0,0,0,0,未,未入力,0,,0,,,,,,,,,,,,,,,,,,,,,,,,,,,0,0,0,0,0,0,0,0,0,0,0,0,0,0,0,0,0,0,, , , , , , ,0,0,0,0,0,0,, , ,0,,1
11016009800 ,国立病院機構北海道がんセンター, , ,北海道,札幌市白石区菊水４条２丁目３−５４,43.058271,141.374761,0,0,1,0,未,未入力,0,,0,,,,,,,,,,,,,,,,,,,,,,,,,,,0,0,0,0,0,0,0,0,0,0,0,0,0,0,0,0,0,0,, , , , , , ,0,0,0,0,0,0,, , ,0,,1
11016010000 ,整形外科北新病院, , ,北海道,札幌市白石区菊水元町３条３丁目１−１８,43.066909,141.402897,0,0,0,0,未,未入力,0,,0,,,,,,,,,,,,,,,,,,,,,,,,,,,0,0,0,0,0,0,0,0,0,0,0,0,0,0,0,0,0,0,, , , , , , ,0,0,0,0,0,0,, , ,0,,1
11016010100 ,札幌センチュリー病院, , ,北海道,札幌市白石区菊水元町５条３丁目５−１０,43.068659,141.40748,0,0,0,0,未,未入力,0,,0,,,,,,,,,,,,,,,,,,,,,,,,,,,0,0,0,0,0,0,0,0,0,0,0,0,0,0,0,0,0,0,, , , , , , ,0,0,0,0,0,0,, , ,0,,1
11016010400 ,白石明日佳病院, , ,北海道,札幌市白石区東札幌５条５丁目２−５,43.050883,141.394815,0,0,0,0,未,未入力,0,,0,,,,,,,,,,,,,,,,,,,,,,,,,,,0,0,0,0,0,0,0,0,0,0,0,0,0,0,0,0,0,0,, , , , , , ,0,0,0,0,0,0,, , ,0,,1
11016010500 ,長野病院, , ,北海道,札幌市白石区中央３条５丁目４−３０,43.060271,141.40312,0,0,0,0,未,未入力,0,,0,,,,,,,,,,,,,,,,,,,,,,,,,,,0,0,0,0,0,0,0,0,0,0,0,0,0,0,0,0,0,0,, , , , , , ,0,0,0,0,0,0,, , ,0,,1
11016010600 ,三樹会病院, , ,北海道,札幌市白石区東札幌２条３丁目６−１０,43.049083,141.387194,0,0,0,0,未,未入力,0,,0,,,,,,,,,,,,,,,,,,,,,,,,,,,0,0,0,0,0,0,0,0,0,0,0,0,0,0,0,0,0,0,, , , , , , ,0,0,0,0,0,0,, , ,0,,1
11016010700 ,東札幌病院, , ,北海道,札幌市白石区東札幌３条３丁目７−３５,43.050638,141.387416,0,0,0,0,未,未入力,0,,0,,,,,,,,,,,,,,,,,,,,,,,,,,,0,0,0,0,0,0,0,0,0,0,0,0,0,0,0,0,0,0,, , , , , , ,0,0,0,0,0,0,, , ,0,,1
11016010900 ,札幌白石産科婦人科病院, , ,北海道,札幌市白石区東札幌５条６丁目６−２８,43.048411,141.398426,0,0,0,0,未,未入力,0,,0,,,,,,,,,,,,,,,,,,,,,,,,,,,0,0,0,0,0,0,0,0,0,0,0,0,0,0,0,0,0,0,, , , , , , ,0,0,0,0,0,0,, , ,0,,1
11016011000 ,札幌北楡病院, , ,北海道,札幌市白石区東札幌６条６丁目５−１,43.048939,141.399148,0,0,0,0,未,未入力,0,,0,,,,,,,,,,,,,,,,,,,,,,,,,,,0,0,0,0,0,0,0,0,0,0,0,0,0,0,0,0,0,0,, , , , , , ,0,0,0,0,0,0,, , ,0,,1
11016011300 ,幌東病院, , ,北海道,札幌市白石区本郷通７丁目南４−３０,43.041694,141.41275,0,0,0,0,未,未入力,0,,0,,,,,,,,,,,,,,,,,,,,,,,,,,,0,0,0,0,0,0,0,0,0,0,0,0,0,0,0,0,0,0,, , , , , , ,0,0,0,0,0,0,, , ,0,,1
11016011400 ,恵佑会札幌病院, , ,北海道,札幌市白石区本通１４丁目北１−１,43.039524,141.427869,0,0,0,0,未,未入力,0,,0,,,,,,,,,,,,,,,,,,,,,,,,,,,0,0,0,0,0,0,0,0,0,0,0,0,0,0,0,0,0,0,, , , , , , ,0,0,0,0,0,0,, , ,0,,1
11016011500 ,札幌白石記念病院, , ,北海道,札幌市白石区本通８丁目南１−１０,43.044412,141.416481,0,0,0,0,未,未入力,0,,0,,,,,,,,,,,,,,,,,,,,,,,,,,,0,0,0,0,0,0,0,0,0,0,0,0,0,0,0,0,0,0,, , , , , , ,0,0,0,0,0,0,, , ,0,,1
11016011600 ,吉田記念病院, , ,北海道,札幌市白石区本通２丁目南５−１０,43.050633,141.406509,0,0,0,0,未,未入力,0,,0,,,,,,,,,,,,,,,,,,,,,,,,,,,0,0,0,0,0,0,0,0,0,0,0,0,0,0,0,0,0,0,, , , , , , ,0,0,0,0,0,0,, , ,0,,1
11016011700 ,札幌朗愛会病院, , ,北海道,札幌市豊平区月寒西１条１０丁目３−３０,43.025553,141.396955,0,0,0,0,未,未入力,0,,0,,,,,,,,,,,,,,,,,,,,,,,,,,,0,0,0,0,0,0,0,0,0,0,0,0,0,0,0,0,0,0,, , , , , , ,0,0,0,0,0,0,, , ,0,,1
11016011800 ,北樹会病院, , ,北海道,札幌市豊平区月寒西５条８丁目４−３２,43.025858,141.386678,0,0,0,0,未,未入力,0,,0,,,,,,,,,,,,,,,,,,,,,,,,,,,0,0,0,0,0,0,0,0,0,0,0,0,0,0,0,0,0,0,, , , , , , ,0,0,0,0,0,0,, , ,0,,1
11016011900 ,札幌月寒病院, , ,北海道,札幌市豊平区月寒東１条１３丁目４−５,43.02222,141.403483,0,0,0,0,未,未入力,0,,0,,,,,,,,,,,,,,,,,,,,,,,,,,,0,0,0,0,0,0,0,0,0,0,0,0,0,0,0,0,0,0,, , , , , , ,0,0,0,0,0,0,, , ,0,,1
11016012000 ,柏葉脳神経外科病院, , ,北海道,札幌市豊平区月寒東１条１５丁目７−２０,43.019776,141.407705,0,0,0,0,未,未入力,0,,0,,,,,,,,,,,,,,,,,,,,,,,,,,,0,0,0,0,0,0,0,0,0,0,0,0,0,0,0,0,0,0,, , , , , , ,0,0,0,0,0,0,, , ,0,,1
11016012100 ,羊ヶ丘病院, , ,北海道,札幌市厚別区青葉町３丁目１−１０,43.035136,141.475087,0,0,0,0,未,未入力,0,,0,,,,,,,,,,,,,,,,,,,,,,,,,,,0,0,0,0,0,0,0,0,0,0,0,0,0,0,0,0,0,0,, , , , , , ,0,0,0,0,0,0,, , ,0,,1
11016012200 ,札幌しらかば台病院, , ,北海道,札幌市豊平区月寒東２条１８丁目７−２６,43.017748,141.421065,0,0,0,0,未,未入力,0,,0,,,,,,,,,,,,,,,,,,,,,,,,,,,0,0,0,0,0,0,0,0,0,0,0,0,0,0,0,0,0,0,, , , , , , ,0,0,0,0,0,0,, , ,0,,1
11016012300 ,西岡第一病院, , ,北海道,札幌市豊平区西岡３条６丁目８−１,43.01297,141.387512,0,0,0,0,未,未入力,0,,0,,,,,,,,,,,,,,,,,,,,,,,,,,,0,0,0,0,0,0,0,0,0,0,0,0,0,0,0,0,0,0,, , , , , , ,0,0,0,0,0,0,, , ,0,,1
11016012400 ,西岡病院, , ,北海道,札幌市豊平区西岡４条４丁目１−５２,43.016303,141.388762,0,0,0,0,未,未入力,0,,0,,,,,,,,,,,,,,,,,,,,,,,,,,,0,0,0,0,0,0,0,0,0,0,0,0,0,0,0,0,0,0,, , , , , , ,0,0,0,0,0,0,, , ,0,,1
11016012500 ,ＪＣＨＯ北海道病院, , ,北海道,札幌市豊平区中の島１条８丁目３−１８,43.025774,141.356348,0,0,0,0,未,未入力,0,,0,,,,,,,,,,,,,,,,,,,,,,,,,,,0,0,0,0,0,0,0,0,0,0,0,0,0,0,0,0,0,0,, , , , , , ,0,0,0,0,0,0,, , ,0,,1
11016012800 ,自衛隊札幌病院, , ,北海道,札幌市南区真駒内１７,43.00611,141.353654,0,0,0,0,未,未入力,0,,0,,,,,,,,,,,,,,,,,,,,,,,,,,,0,0,0,0,0,0,0,0,0,0,0,0,0,0,0,0,0,0,, , , , , , ,0,0,0,0,0,0,, , ,0,,1
11016012900 ,ＫＫＲ　札幌医療センター, , ,北海道,札幌市豊平区平岸１条６丁目３−４０,43.036468,141.366846,0,0,0,0,未,未入力,0,,0,,,,,,,,,,,,,,,,,,,,,,,,,,,0,0,0,0,0,0,0,0,0,0,0,0,0,0,0,0,0,0,, , , , , , ,0,0,0,0,0,0,, , ,0,,1
11016013000 ,札幌市子ども心身医療センター, , ,北海道,札幌市豊平区平岸４条１８丁目１−２１,43.020414,141.371513,0,0,0,0,未,未入力,0,,0,,,,,,,,,,,,,,,,,,,,,,,,,,,0,0,0,0,0,0,0,0,0,0,0,0,0,0,0,0,0,0,, , , , , , ,0,0,0,0,0,0,, , ,0,,1
11016013200 ,北海道整形外科記念病院, , ,北海道,札幌市豊平区平岸７条１３丁目５−２２,43.024802,141.382651,0,0,0,0,未,未入力,0,,0,,,,,,,,,,,,,,,,,,,,,,,,,,,0,0,0,0,0,0,0,0,0,0,0,0,0,0,0,0,0,0,, , , , , , ,0,0,0,0,0,0,, , ,0,,1
11016013400 ,札幌ライラック病院, , ,北海道,札幌市豊平区豊平６条８丁目２−１８,43.046605,141.37229,0,0,0,0,未,未入力,0,,0,,,,,,,,,,,,,,,,,,,,,,,,,,,0,0,0,0,0,0,0,0,0,0,0,0,0,0,0,0,0,0,, , , , , , ,0,0,0,0,0,0,, , ,0,,1
11016013500 ,ときわ病院, , ,北海道,札幌市南区常盤３条１丁目６−１,42.94356,141.344436,0,0,0,0,未,未入力,0,,0,,,,,,,,,,,,,,,,,,,,,,,,,,,0,0,0,0,0,0,0,0,0,0,0,0,0,0,0,0,0,0,, , , , , , ,0,0,0,0,0,0,, , ,0,,1
11016013600 ,仁楡会病院, , ,北海道,札幌市南区澄川２条１丁目３−８,43.018997,141.362903,0,0,0,0,未,未入力,0,,0,,,,,,,,,,,,,,,,,,,,,,,,,,,0,0,0,0,0,0,0,0,0,0,0,0,0,0,0,0,0,0,, , , , , , ,0,0,0,0,0,0,, , ,0,,1
11016013800 ,札幌エルム病院, , ,北海道,札幌市南区石山１０４８番地１−２,42.940449,141.330381,0,0,0,0,未,未入力,0,,0,,,,,,,,,,,,,,,,,,,,,,,,,,,0,0,0,0,0,0,0,0,0,0,0,0,0,0,0,0,0,0,, , , , , , ,0,0,0,0,0,0,, , ,0,,1
11016014000 ,小笠原クリニック札幌病院, , ,北海道,札幌市南区真駒内緑町１丁目２−１,42.994333,141.349016,0,0,0,0,未,未入力,0,,0,,,,,,,,,,,,,,,,,,,,,,,,,,,0,0,0,0,0,0,0,0,0,0,0,0,0,0,0,0,0,0,, , , , , , ,0,0,0,0,0,0,, , ,0,,1
11016014100 ,愛全病院, , ,北海道,札幌市南区川沿１３条２丁目１−３８,42.979612,141.333796,0,0,0,0,未,未入力,0,,0,,,,,,,,,,,,,,,,,,,,,,,,,,,0,0,0,0,0,0,0,0,0,0,0,0,0,0,0,0,0,0,, , , , , , ,0,0,0,0,0,0,, , ,0,,1
11016014200 ,札幌逓信病院, , ,北海道,札幌市南区川沿１４条１丁目５−１,42.976473,141.337074,0,0,0,0,未,未入力,0,,0,,,,,,,,,,,,,,,,,,,,,,,,,,,0,0,0,0,0,0,0,0,0,0,0,0,0,0,0,0,0,0,, , , , , , ,0,0,0,0,0,0,, , ,0,,1
11016014300 ,五輪橋産科婦人科小児科病院, , ,北海道,札幌市南区川沿２条１丁目２−５５,42.998721,141.338572,0,0,0,0,未,未入力,0,,0,,,,,,,,,,,,,,,,,,,,,,,,,,,0,0,0,0,0,0,0,0,0,0,0,0,0,0,0,0,0,0,, , , , , , ,0,0,0,0,0,0,, , ,0,,1
11016014400 ,札幌共立五輪橋病院, , ,北海道,札幌市南区川沿２条１丁目２−５４,42.998611,141.338166,0,0,0,0,未,未入力,0,,0,,,,,,,,,,,,,,,,,,,,,,,,,,,0,0,0,0,0,0,0,0,0,0,0,0,0,0,0,0,0,0,, , , , , , ,0,0,0,0,0,0,, , ,0,,1
11016014500 ,五輪橋整形外科病院, , ,北海道,札幌市南区川沿２条１丁目２−５６,42.998943,141.338184,0,0,0,0,未,未入力,0,,0,,,,,,,,,,,,,,,,,,,,,,,,,,,0,0,0,0,0,0,0,0,0,0,0,0,0,0,0,0,0,0,, , , , , , ,0,0,0,0,0,0,, , ,0,,1
11016014600 ,定山渓病院, , ,北海道,札幌市南区定山渓温泉西３丁目７１,42.968416,141.164422,0,0,0,0,未,未入力,0,,0,,,,,,,,,,,,,,,,,,,,,,,,,,,0,0,0,0,0,0,0,0,0,0,0,0,0,0,0,0,0,0,, , , , , , ,0,0,0,0,0,0,, , ,0,,1
11016014800 ,札幌しらかば台南病院, , ,北海道,札幌市南区藤野２条１１丁目７−１,42.96153,141.279162,0,0,0,0,未,未入力,0,,0,,,,,,,,,,,,,,,,,,,,,,,,,,,0,0,0,0,0,0,0,0,0,0,0,0,0,0,0,0,0,0,, , , , , , ,0,0,0,0,0,0,, , ,0,,1
11016014900 ,札幌南整形外科病院, , ,北海道,札幌市南区南３３条西１１丁目４−１,43.01397,141.345682,0,0,0,0,未,未入力,0,,0,,,,,,,,,,,,,,,,,,,,,,,,,,,0,0,0,0,0,0,0,0,0,0,0,0,0,0,0,0,0,0,, , , , , , ,0,0,0,0,0,0,, , ,0,,1
11016015100 ,北ノ沢病院, , ,北海道,札幌市南区北ノ沢１７３２,43.007525,141.314102,0,0,0,0,未,未入力,0,,0,,,,,,,,,,,,,,,,,,,,,,,,,,,0,0,0,0,0,0,0,0,0,0,0,0,0,0,0,0,0,0,, , , , , , ,0,0,0,0,0,0,, , ,0,,1
11016015200 ,静和記念病院, , ,北海道,札幌市西区琴似１条５丁目１−１,43.074823,141.304711,0,0,0,0,未,未入力,0,,0,,,,,,,,,,,,,,,,,,,,,,,,,,,0,0,0,0,0,0,0,0,0,0,0,0,0,0,0,0,0,0,, , , , , , ,0,0,0,0,0,0,, , ,0,,1
11016015300 ,●緑ヶ丘療育園, , ,北海道,札幌市西区山の手３条１２丁目３−１２,43.063666,141.287583,0,0,0,0,未,未入力,0,,0,,,,,,,,,,,,,,,,,,,,,,,,,,,0,0,0,0,0,0,0,0,0,0,0,0,0,0,0,0,0,0,, , , , , , ,0,0,0,0,0,0,, , ,0,,1
11016015400 ,西さっぽろ病院, , ,北海道,札幌市西区山の手３条２丁目５−１,43.07199,141.298211,0,0,0,0,未,未入力,0,,0,,,,,,,,,,,,,,,,,,,,,,,,,,,0,0,0,0,0,0,0,0,0,0,0,0,0,0,0,0,0,0,, , , , , , ,0,0,0,0,0,0,, , ,0,,1
11016015500 ,札幌太田病院, , ,北海道,札幌市西区山の手５条５丁目１−１,43.071027,141.292611,0,0,0,0,未,未入力,0,,0,,,,,,,,,,,,,,,,,,,,,,,,,,,0,0,0,0,0,0,0,0,0,0,0,0,0,0,0,0,0,0,, , , , , , ,0,0,0,0,0,0,, , ,0,,1
11016015600 ,国立病院機構北海道医療センター,国立病院機構北海道医療センター,630005,北海道,札幌市西区山の手５条７丁目１−１,43.069518,141.290434,1,1,1,1,未,未入力,0,,0,,,,,,,,,,,,,,,,,,,,,,,,,,,0,0,0,0,0,0,0,0,0,0,0,0,0,0,0,0,0,0,, , , , , , ,0,0,0,0,0,0,, , ,0,,1
11016015700 ,札幌山の上病院, , ,北海道,札幌市西区山の手６条９丁目１−１,43.069824,141.286601,0,0,0,0,未,未入力,0,,0,,,,,,,,,,,,,,,,,,,,,,,,,,,0,0,0,0,0,0,0,0,0,0,0,0,0,0,0,0,0,0,, , , , , , ,0,0,0,0,0,0,, , ,0,,1
11016015800 ,札幌宮の沢脳神経外科病院, , ,北海道,札幌市西区西町南２０丁目１−３０,43.086294,141.275685,0,0,0,0,未,未入力,0,,0,,,,,,,,,,,,,,,,,,,,,,,,,,,0,0,0,0,0,0,0,0,0,0,0,0,0,0,0,0,0,0,, , , , , , ,0,0,0,0,0,0,, , ,0,,1
11016015900 ,勤医協札幌西区病院, , ,北海道,札幌市西区西町北１９丁目１−５,43.086794,141.276879,0,0,0,0,未,未入力,0,,0,,,,,,,,,,,,,,,,,,,,,,,,,,,0,0,0,0,0,0,0,0,0,0,0,0,0,0,0,0,0,0,, , , , , , ,0,0,0,0,0,0,, , ,0,,1
11016016000 ,中田泌尿器科病院, , ,北海道,札幌市西区西町北５丁目１−５,43.078628,141.290212,0,0,0,0,未,未入力,0,,0,,,,,,,,,,,,,,,,,,,,,,,,,,,0,0,0,0,0,0,0,0,0,0,0,0,0,0,0,0,0,0,, , , , , , ,0,0,0,0,0,0,, , ,0,,1
11016016300 ,心臓血管センター北海道大野病院, , ,北海道,札幌市西区西野４条１丁目１−３０,43.071351,141.282768,0,0,0,0,未,未入力,0,,0,,,,,,,,,,,,,,,,,,,,,,,,,,,0,0,0,0,0,0,0,0,0,0,0,0,0,0,0,0,0,0,, , , , , , ,0,0,0,0,0,0,, , ,0,,1
11016016500 ,北祐会神経内科病院, , ,北海道,札幌市西区二十四軒２条２丁目４−３０,43.074407,141.314182,0,0,0,0,未,未入力,0,,0,,,,,,,,,,,,,,,,,,,,,,,,,,,0,0,0,0,0,0,0,0,0,0,0,0,0,0,0,0,0,0,, , , , , , ,0,0,0,0,0,0,, , ,0,,1
11016016600 ,ふかざわ病院, , ,北海道,札幌市西区二十四軒２条４丁目６−８,43.071491,141.312016,0,0,0,0,未,未入力,0,,0,,,,,,,,,,,,,,,,,,,,,,,,,,,0,0,0,0,0,0,0,0,0,0,0,0,0,0,0,0,0,0,, , , , , , ,0,0,0,0,0,0,, , ,0,,1
11016016800 ,さっぽろ二十四軒病院, , ,北海道,札幌市西区二十四軒２条４丁目７−２０,43.072435,141.311766,0,0,0,0,未,未入力,0,,0,,,,,,,,,,,,,,,,,,,,,,,,,,,0,0,0,0,0,0,0,0,0,0,0,0,0,0,0,0,0,0,, , , , , , ,0,0,0,0,0,0,, , ,0,,1
11016016900 ,北海道内科リウマチ科病院, , ,北海道,札幌市西区琴似１条３丁目１−４５,43.077406,141.30671,0,0,0,0,未,未入力,0,,0,,,,,,,,,,,,,,,,,,,,,,,,,,,0,0,0,0,0,0,0,0,0,0,0,0,0,0,0,0,0,0,, , , , , , ,0,0,0,0,0,0,, , ,0,,1
11016017000 ,札幌第一病院, , ,北海道,札幌市西区二十四軒４条３丁目４−２６,43.076333,141.307333,0,0,0,0,未,未入力,0,,0,,,,,,,,,,,,,,,,,,,,,,,,,,,0,0,0,0,0,0,0,0,0,0,0,0,0,0,0,0,0,0,, , , , , , ,0,0,0,0,0,0,, , ,0,,1
11016017500 ,平和病院, , ,北海道,札幌市西区平和２条１１丁目２−１,43.056963,141.243744,0,0,0,0,未,未入力,0,,0,,,,,,,,,,,,,,,,,,,,,,,,,,,0,0,0,0,0,0,0,0,0,0,0,0,0,0,0,0,0,0,, , , , , , ,0,0,0,0,0,0,, , ,0,,1
11016017600 ,札幌西の峰病院, , ,北海道,札幌市西区平和２条５丁目１０−１,43.056075,141.256132,0,0,0,0,未,未入力,0,,0,,,,,,,,,,,,,,,,,,,,,,,,,,,0,0,0,0,0,0,0,0,0,0,0,0,0,0,0,0,0,0,, , , , , , ,0,0,0,0,0,0,, , ,0,,1
11016017800 ,桜台明日佳病院, , ,北海道,札幌市厚別区厚別西５条５丁目１−１,43.054634,141.464532,0,0,0,0,未,未入力,0,,0,,,,,,,,,,,,,,,,,,,,,,,,,,,0,0,0,0,0,0,0,0,0,0,0,0,0,0,0,0,0,0,, , , , , , ,0,0,0,0,0,0,, , ,0,,1
11016017900 ,新札幌循環器病院, , ,北海道,札幌市厚別区厚別中央２条４丁目９−２５,43.037691,141.469032,0,0,0,0,未,未入力,0,,0,,,,,,,,,,,,,,,,,,,,,,,,,,,0,0,0,0,0,0,0,0,0,0,0,0,0,0,0,0,0,0,, , , , , , ,0,0,0,0,0,0,, , ,0,,1
11016018000 ,ＪＣＨＯ　札幌北辰病院, , ,北海道,札幌市厚別区厚別中央２条６丁目２−１,43.041969,141.473754,0,0,0,0,未,未入力,0,,0,,,,,,,,,,,,,,,,,,,,,,,,,,,0,0,0,0,0,0,0,0,0,0,0,0,0,0,0,0,0,0,, , , , , , ,0,0,0,0,0,0,, , ,0,,1
11016018100 ,札幌ひばりが丘病院, , ,北海道,札幌市厚別区厚別中央３条２丁目１２−１,43.03558,141.460783,0,0,0,0,未,未入力,0,,0,,,,,,,,,,,,,,,,,,,,,,,,,,,0,0,0,0,0,0,0,0,0,0,0,0,0,0,0,0,0,0,, , , , , , ,0,0,0,0,0,0,, , ,0,,1
11016018200 ,豊志会肛門科なかやま病院, , ,北海道,札幌市厚別区厚別中央４条４丁目２−８,43.043524,141.464615,0,0,0,0,未,未入力,0,,0,,,,,,,,,,,,,,,,,,,,,,,,,,,0,0,0,0,0,0,0,0,0,0,0,0,0,0,0,0,0,0,, , , , , , ,0,0,0,0,0,0,, , ,0,,1
11016018300 ,新札幌パウロ病院, , ,北海道,札幌市厚別区厚別東２条６丁目４−１,43.046608,141.489919,0,0,0,0,未,未入力,0,,0,,,,,,,,,,,,,,,,,,,,,,,,,,,0,0,0,0,0,0,0,0,0,0,0,0,0,0,0,0,0,0,, , , , , , ,0,0,0,0,0,0,, , ,0,,1
11016018500 ,記念塔病院, , ,北海道,札幌市厚別区厚別東４条３丁目３−６,43.048329,141.481808,0,0,0,0,未,未入力,0,,0,,,,,,,,,,,,,,,,,,,,,,,,,,,0,0,0,0,0,0,0,0,0,0,0,0,0,0,0,0,0,0,, , , , , , ,0,0,0,0,0,0,, , ,0,,1
11016018600 ,新札幌整形外科病院, , ,北海道,札幌市厚別区厚別南２丁目２−３２,43.031636,141.466449,0,0,0,0,未,未入力,0,,0,,,,,,,,,,,,,,,,,,,,,,,,,,,0,0,0,0,0,0,0,0,0,0,0,0,0,0,0,0,0,0,, , , , , , ,0,0,0,0,0,0,, , ,0,,1
11016018700 ,新さっぽろ脳神経外科病院, , ,北海道,札幌市厚別区上野幌１条２丁目１−１０,43.022693,141.469088,0,0,0,0,未,未入力,0,,0,,,,,,,,,,,,,,,,,,,,,,,,,,,0,0,0,0,0,0,0,0,0,0,0,0,0,0,0,0,0,0,, , , , , , ,0,0,0,0,0,0,, , ,0,,1
11016018800 ,北央病院, , ,北海道,札幌市厚別区青葉町１１丁目２−１０,43.037469,141.481142,0,0,0,0,未,未入力,0,,0,,,,,,,,,,,,,,,,,,,,,,,,,,,0,0,0,0,0,0,0,0,0,0,0,0,0,0,0,0,0,0,, , , , , , ,0,0,0,0,0,0,, , ,0,,1
11016019000 ,大谷地病院, , ,北海道,札幌市厚別区大谷地東５丁目７−１０,43.022804,141.458339,0,0,0,0,未,未入力,0,,0,,,,,,,,,,,,,,,,,,,,,,,,,,,0,0,0,0,0,0,0,0,0,0,0,0,0,0,0,0,0,0,, , , , , , ,0,0,0,0,0,0,, , ,0,,1
11016019200 ,中垣病院, , ,北海道,札幌市手稲区金山１条２丁目１−６,43.130194,141.207305,0,0,0,0,未,未入力,0,,0,,,,,,,,,,,,,,,,,,,,,,,,,,,0,0,0,0,0,0,0,0,0,0,0,0,0,0,0,0,0,0,, , , , , , ,0,0,0,0,0,0,, , ,0,,1
11016019300 ,イムス札幌内科リハビリテーション病院, , ,北海道,札幌市手稲区手稲金山１２４,43.122928,141.198856,0,0,0,0,未,未入力,0,,0,,,,,,,,,,,,,,,,,,,,,,,,,,,0,0,0,0,0,0,0,0,0,0,0,0,0,0,0,0,0,0,, , , , , , ,0,0,0,0,0,0,, , ,0,,1
11016019400 ,札幌立花病院, , ,北海道,札幌市手稲区曙１１条２丁目３−１２,43.145555,141.23325,0,0,0,0,未,未入力,0,,0,,,,,,,,,,,,,,,,,,,,,,,,,,,0,0,0,0,0,0,0,0,0,0,0,0,0,0,0,0,0,0,, , , , , , ,0,0,0,0,0,0,, , ,0,,1
11016019700 ,札幌秀友会病院, , ,北海道,札幌市手稲区新発寒５条６丁目２−１,43.116818,141.268351,0,0,0,0,未,未入力,0,,0,,,,,,,,,,,,,,,,,,,,,,,,,,,0,0,0,0,0,0,0,0,0,0,0,0,0,0,0,0,0,0,, , , , , , ,0,0,0,0,0,0,, , ,0,,1
11016019800 ,札幌宮の沢病院, , ,北海道,札幌市手稲区西宮の沢１条４丁目１４−３５,43.107569,141.263435,0,0,0,0,未,未入力,0,,0,,,,,,,,,,,,,,,,,,,,,,,,,,,0,0,0,0,0,0,0,0,0,0,0,0,0,0,0,0,0,0,, , , , , , ,0,0,0,0,0,0,, , ,0,,1
11016019900 ,札幌田中病院, , ,北海道,札幌市手稲区西宮の沢４条３丁目３−４５,43.100431,141.257186,0,0,0,0,未,未入力,0,,0,,,,,,,,,,,,,,,,,,,,,,,,,,,0,0,0,0,0,0,0,0,0,0,0,0,0,0,0,0,0,0,, , , , , , ,0,0,0,0,0,0,, , ,0,,1
11016020000 ,札幌緑誠病院, , ,北海道,札幌市手稲区西宮の沢４条４丁目１８−１１,43.10457,141.257463,0,0,0,0,未,未入力,0,,0,,,,,,,,,,,,,,,,,,,,,,,,,,,0,0,0,0,0,0,0,0,0,0,0,0,0,0,0,0,0,0,, , , , , , ,0,0,0,0,0,0,, , ,0,,1
11016020100 ,札幌グリーン病院, , ,北海道,札幌市手稲区西宮の沢５条１丁目１３−１５,43.094598,141.260075,0,0,0,0,未,未入力,0,,0,,,,,,,,,,,,,,,,,,,,,,,,,,,0,0,0,0,0,0,0,0,0,0,0,0,0,0,0,0,0,0,, , , , , , ,0,0,0,0,0,0,, , ,0,,1
11016020200 ,手稲渓仁会病院,医療法人渓仁会　手稲渓仁会病院,68555,北海道,札幌市手稲区前田１条１２丁目１−４０,43.122111,141.243,1,1,0,1,未,未入力,0,,0,,,,,,,,,,,,,,,,,,,,,,,,,,,0,0,0,0,0,0,0,0,0,0,0,0,0,0,0,0,0,0,, , , , , , ,0,0,0,0,0,0,, , ,0,,1
11016020300 ,手稲いなづみ病院, , ,北海道,札幌市手稲区前田３条４丁目２−６,43.115596,141.262073,0,0,0,0,未,未入力,0,,0,,,,,,,,,,,,,,,,,,,,,,,,,,,0,0,0,0,0,0,0,0,0,0,0,0,0,0,0,0,0,0,, , , , , , ,0,0,0,0,0,0,, , ,0,,1
11016020400 ,手稲病院, , ,北海道,札幌市手稲区前田６条１３丁目８−１５,43.129511,141.251379,0,0,0,0,未,未入力,0,,0,,,,,,,,,,,,,,,,,,,,,,,,,,,0,0,0,0,0,0,0,0,0,0,0,0,0,0,0,0,0,0,, , , , , , ,0,0,0,0,0,0,, , ,0,,1
11016020600 ,札幌清田病院, , ,北海道,札幌市清田区真栄１条１丁目１−１,42.999278,141.439286,0,0,0,0,未,未入力,0,,0,,,,,,,,,,,,,,,,,,,,,,,,,,,0,0,0,0,0,0,0,0,0,0,0,0,0,0,0,0,0,0,, , , , , , ,0,0,0,0,0,0,, , ,0,,1
11016020700 ,さっぽろ香雪病院, , ,北海道,札幌市清田区真栄３１９,42.976944,141.444388,0,0,0,0,未,未入力,0,,0,,,,,,,,,,,,,,,,,,,,,,,,,,,0,0,0,0,0,0,0,0,0,0,0,0,0,0,0,0,0,0,, , , , , , ,0,0,0,0,0,0,, , ,0,,1
11016021000 ,●医療福祉センター札幌あゆみの園, , ,北海道,札幌市白石区川北２２５４−１,43.071416,141.438722,0,0,0,0,未,未入力,0,,0,,,,,,,,,,,,,,,,,,,,,,,,,,,0,0,0,0,0,0,0,0,0,0,0,0,0,0,0,0,0,0,, , , , , , ,0,0,0,0,0,0,, , ,0,,1
11016021100 ,札幌清田整形外科病院, , ,北海道,札幌市清田区清田１条４丁目１−５０,42.999528,141.440147,0,0,0,0,未,未入力,0,,0,,,,,,,,,,,,,,,,,,,,,,,,,,,0,0,0,0,0,0,0,0,0,0,0,0,0,0,0,0,0,0,, , , , , , ,0,0,0,0,0,0,, , ,0,,1
11016021200 ,あしりべつ病院, , ,北海道,札幌市清田区清田１条４丁目４−３５,43.000389,141.441925,0,0,0,0,未,未入力,0,,0,,,,,,,,,,,,,,,,,,,,,,,,,,,0,0,0,0,0,0,0,0,0,0,0,0,0,0,0,0,0,0,, , , , , , ,0,0,0,0,0,0,, , ,0,,1
11016021400 ,札幌里塚病院, , ,北海道,札幌市清田区美しが丘１条６丁目１−５,42.982586,141.45948,0,0,0,0,未,未入力,0,,0,,,,,,,,,,,,,,,,,,,,,,,,,,,0,0,0,0,0,0,0,0,0,0,0,0,0,0,0,0,0,0,, , , , , , ,0,0,0,0,0,0,, , ,0,,1
11016021500 ,札幌平岡病院, , ,北海道,札幌市清田区平岡２条１丁目１５−２０,43.000778,141.44748,0,0,0,0,未,未入力,0,,0,,,,,,,,,,,,,,,,,,,,,,,,,,,0,0,0,0,0,0,0,0,0,0,0,0,0,0,0,0,0,0,, , , , , , ,0,0,0,0,0,0,, , ,0,,1
11016021600 ,札幌緑愛病院, , ,北海道,札幌市清田区北野１条１丁目６−３０,43.008888,141.42625,0,0,0,0,未,未入力,0,,0,,,,,,,,,,,,,,,,,,,,,,,,,,,0,0,0,0,0,0,0,0,0,0,0,0,0,0,0,0,0,0,, , , , , , ,0,0,0,0,0,0,, , ,0,,1
11016021700 ,札幌整形循環器病院, , ,北海道,札幌市清田区北野１条２丁目１１−３０,43.006861,141.431138,0,0,0,0,未,未入力,0,,0,,,,,,,,,,,,,,,,,,,,,,,,,,,0,0,0,0,0,0,0,0,0,0,0,0,0,0,0,0,0,0,, , , , , , ,0,0,0,0,0,0,, , ,0,,1
11016021900 ,札幌南青洲病院, , ,北海道,札幌市清田区里塚１条２丁目２０−１,42.989113,141.46023,0,0,0,0,未,未入力,0,,0,,,,,,,,,,,,,,,,,,,,,,,,,,,0,0,0,0,0,0,0,0,0,0,0,0,0,0,0,0,0,0,, , , , , , ,0,0,0,0,0,0,, , ,0,,1
11016022000 ,江別谷藤病院, , ,北海道,江別市幸町２２,43.100991,141.535635,0,0,0,0,未,未入力,0,,0,,,,,,,,,,,,,,,,,,,,,,,,,,,0,0,0,0,0,0,0,0,0,0,0,0,0,0,0,0,0,0,, , , , , , ,0,0,0,0,0,0,, , ,0,,1
11016022100 ,江別市立病院, , ,北海道,江別市若草町６,43.11175,141.545222,0,0,0,0,未,未入力,0,,0,,,,,,,,,,,,,,,,,,,,,,,,,,,0,0,0,0,0,0,0,0,0,0,0,0,0,0,0,0,0,0,, , , , , , ,0,0,0,0,0,0,, , ,0,,1
11016022300 ,渓和会江別病院, , ,北海道,江別市野幌代々木町８１−６,43.092944,141.519555,0,0,0,0,未,未入力,0,,0,,,,,,,,,,,,,,,,,,,,,,,,,,,0,0,0,0,0,0,0,0,0,0,0,0,0,0,0,0,0,0,, , , , , , ,0,0,0,0,0,0,, , ,0,,1
11016022400 ,野幌病院, , ,北海道,江別市野幌町５３−５,43.092242,141.52733,0,0,0,0,未,未入力,0,,0,,,,,,,,,,,,,,,,,,,,,,,,,,,0,0,0,0,0,0,0,0,0,0,0,0,0,0,0,0,0,0,, , , , , , ,0,0,0,0,0,0,, , ,0,,1
11016022500 ,北星病院, , ,北海道,千歳市清流５丁目１−１,42.842299,141.65872,0,0,0,0,未,未入力,0,,0,,,,,,,,,,,,,,,,,,,,,,,,,,,0,0,0,0,0,0,0,0,0,0,0,0,0,0,0,0,0,0,, , , , , , ,0,0,0,0,0,0,, , ,0,,1
11016022700 ,尾谷病院, , ,北海道,千歳市新富２丁目５−５,42.833022,141.637028,0,0,0,0,未,未入力,0,,0,,,,,,,,,,,,,,,,,,,,,,,,,,,0,0,0,0,0,0,0,0,0,0,0,0,0,0,0,0,0,0,, , , , , , ,0,0,0,0,0,0,, , ,0,,1
11016022800 ,市立千歳市民病院, , ,北海道,千歳市北光２丁目１−１,42.843944,141.639888,0,0,0,0,未,未入力,0,,0,,,,,,,,,,,,,,,,,,,,,,,,,,,0,0,0,0,0,0,0,0,0,0,0,0,0,0,0,0,0,0,, , , , , , ,0,0,0,0,0,0,, , ,0,,1
11016022900 ,千歳第一病院, , ,北海道,千歳市東雲町１丁目１１,42.820468,141.64811,0,0,0,0,未,未入力,0,,0,,,,,,,,,,,,,,,,,,,,,,,,,,,0,0,0,0,0,0,0,0,0,0,0,0,0,0,0,0,0,0,, , , , , , ,0,0,0,0,0,0,, , ,0,,1
11016023000 ,千歳豊友会病院, , ,北海道,千歳市富丘１丁目６１８−６,42.835327,141.643999,0,0,0,0,未,未入力,0,,0,,,,,,,,,,,,,,,,,,,,,,,,,,,0,0,0,0,0,0,0,0,0,0,0,0,0,0,0,0,0,0,, , , , , , ,0,0,0,0,0,0,, , ,0,,1
11016023100 ,千歳病院, , ,北海道,千歳市桂木１丁目５−６,42.820078,141.62464,0,0,0,0,未,未入力,0,,0,,,,,,,,,,,,,,,,,,,,,,,,,,,0,0,0,0,0,0,0,0,0,0,0,0,0,0,0,0,0,0,, , , , , , ,0,0,0,0,0,0,, , ,0,,1
11016023200 ,千歳桂病院, , ,北海道,千歳市蘭越９７−２,42.813023,141.59156,0,0,0,0,未,未入力,0,,0,,,,,,,,,,,,,,,,,,,,,,,,,,,0,0,0,0,0,0,0,0,0,0,0,0,0,0,0,0,0,0,, , , , , , ,0,0,0,0,0,0,, , ,0,,1
11016023400 ,恵み野病院, , ,北海道,恵庭市恵み野西２丁目３−５,42.900361,141.57775,0,0,0,0,未,未入力,0,,0,,,,,,,,,,,,,,,,,,,,,,,,,,,0,0,0,0,0,0,0,0,0,0,0,0,0,0,0,0,0,0,, , , , , , ,0,0,0,0,0,0,, , ,0,,1
11016023600 ,島松病院, , ,北海道,恵庭市西島松５７０,42.910929,141.560641,0,0,0,0,未,未入力,0,,0,,,,,,,,,,,,,,,,,,,,,,,,,,,0,0,0,0,0,0,0,0,0,0,0,0,0,0,0,0,0,0,, , , , , , ,0,0,0,0,0,0,, , ,0,,1
11016023700 ,尾形病院, , ,北海道,恵庭市島松仲町１丁目４−１１,42.920817,141.57514,0,0,0,0,未,未入力,0,,0,,,,,,,,,,,,,,,,,,,,,,,,,,,0,0,0,0,0,0,0,0,0,0,0,0,0,0,0,0,0,0,, , , , , , ,0,0,0,0,0,0,, , ,0,,1
11016023800 ,えにわ病院, , ,北海道,恵庭市黄金中央２丁目１−１,42.882905,141.587724,0,0,0,0,未,未入力,0,,0,,,,,,,,,,,,,,,,,,,,,,,,,,,0,0,0,0,0,0,0,0,0,0,0,0,0,0,0,0,0,0,, , , , , , ,0,0,0,0,0,0,, , ,0,,1
11016023900 ,恵庭第一病院, , ,北海道,恵庭市福住町１丁目６−６,42.886987,141.57928,0,0,0,0,未,未入力,0,,0,,,,,,,,,,,,,,,,,,,,,,,,,,,0,0,0,0,0,0,0,0,0,0,0,0,0,0,0,0,0,0,, , , , , , ,0,0,0,0,0,0,, , ,0,,1
11016024000 ,北広島病院, , ,北海道,北広島市中央６丁目２−２,42.979727,141.564443,0,0,0,0,未,未入力,0,,0,,,,,,,,,,,,,,,,,,,,,,,,,,,0,0,0,0,0,0,0,0,0,0,0,0,0,0,0,0,0,0,, , , , , , ,0,0,0,0,0,0,, , ,0,,1
11016024300 ,道央病院, , ,北海道,北広島市大曲８０４,42.967671,141.495894,0,0,0,0,未,未入力,0,,0,,,,,,,,,,,,,,,,,,,,,,,,,,,0,0,0,0,0,0,0,0,0,0,0,0,0,0,0,0,0,0,, , , , , , ,0,0,0,0,0,0,, , ,0,,1
11016024500 ,茨戸病院, , ,北海道,石狩市花川東１２８−１４,43.16812,141.343009,0,0,0,0,未,未入力,0,,0,,,,,,,,,,,,,,,,,,,,,,,,,,,0,0,0,0,0,0,0,0,0,0,0,0,0,0,0,0,0,0,, , , , , , ,0,0,0,0,0,0,, , ,0,,1
11016024700 ,花川病院, , ,北海道,石狩市花川南７条５丁目２,43.1404,141.292959,0,0,0,0,未,未入力,0,,0,,,,,,,,,,,,,,,,,,,,,,,,,,,0,0,0,0,0,0,0,0,0,0,0,0,0,0,0,0,0,0,, , , , , , ,0,0,0,0,0,0,, , ,0,,1
11016024900 ,石狩病院, , ,北海道,石狩市花川北３条３丁目１３,43.163147,141.310373,0,0,0,0,未,未入力,0,,0,,,,,,,,,,,,,,,,,,,,,,,,,,,0,0,0,0,0,0,0,0,0,0,0,0,0,0,0,0,0,0,, , , , , , ,0,0,0,0,0,0,, , ,0,,1
11016025000 ,石狩幸惺会病院, , ,北海道,石狩市花川北７条２丁目２２,43.170416,141.320416,0,0,0,0,未,未入力,0,,0,,,,,,,,,,,,,,,,,,,,,,,,,,,0,0,0,0,0,0,0,0,0,0,0,0,0,0,0,0,0,0,, , , , , , ,0,0,0,0,0,0,, , ,0,,1
11016025200 ,堀江病院, , ,北海道,石狩郡当別町樺戸町１０６−２１,43.218729,141.526825,0,0,0,0,未,未入力,0,,0,,,,,,,,,,,,,,,,,,,,,,,,,,,0,0,0,0,0,0,0,0,0,0,0,0,0,0,0,0,0,0,, , , , , , ,0,0,0,0,0,0,, , ,0,,1
11016025400 ,野口病院, , ,北海道,小樽市稲穂２丁目２２−６,43.196555,140.994758,0,0,0,0,未,未入力,0,,0,,,,,,,,,,,,,,,,,,,,,,,,,,,0,0,0,0,0,0,0,0,0,0,0,0,0,0,0,0,0,0,, , , , , , ,0,0,0,0,0,0,, , ,0,,1
11016025700 ,西病院, , ,北海道,小樽市花園２丁目１１−５,43.192305,140.995722,0,0,0,0,未,未入力,0,,0,,,,,,,,,,,,,,,,,,,,,,,,,,,0,0,0,0,0,0,0,0,0,0,0,0,0,0,0,0,0,0,, , , , , , ,0,0,0,0,0,0,, , ,0,,1
11016025900 ,小樽市立病院,小樽市立病院,470017,北海道,小樽市若松１丁目１−１,43.185612,141.007619,1,0,1,1,未,未入力,0,,0,,,,,,,,,,,,,,,,,,,,,,,,,,,0,0,0,0,0,0,0,0,0,0,0,0,0,0,0,0,0,0,, , , , , , ,0,0,0,0,0,0,, , ,0,,1
11016026000 ,小樽協会病院, , ,北海道,小樽市住ノ江１丁目６−１５,43.185751,141.005008,0,0,0,0,未,未入力,0,,0,,,,,,,,,,,,,,,,,,,,,,,,,,,0,0,0,0,0,0,0,0,0,0,0,0,0,0,0,0,0,0,, , , , , , ,0,0,0,0,0,0,, , ,0,,1
11016026100 ,小樽掖済会病院, , ,北海道,小樽市稲穂１丁目４−１,43.194528,140.998481,0,0,0,0,未,未入力,0,,0,,,,,,,,,,,,,,,,,,,,,,,,,,,0,0,0,0,0,0,0,0,0,0,0,0,0,0,0,0,0,0,, , , , , , ,0,0,0,0,0,0,, , ,0,,1
11016026400 ,木下病院, , ,北海道,小樽市新光１丁目７−７,43.175641,141.055005,0,0,0,0,未,未入力,0,,0,,,,,,,,,,,,,,,,,,,,,,,,,,,0,0,0,0,0,0,0,0,0,0,0,0,0,0,0,0,0,0,, , , , , , ,0,0,0,0,0,0,, , ,0,,1
11016026600 ,北海道立子ども総合医療・療育センター（コ, , ,北海道,札幌市手稲区金山１条１丁目２４０−６,43.12875,141.211,0,0,0,0,未,未入力,0,,0,,,,,,,,,,,,,,,,,,,,,,,,,,,0,0,0,0,0,0,0,0,0,0,0,0,0,0,0,0,0,0,, , , , , , ,0,0,0,0,0,0,, , ,0,,1
11016026700 ,札樽病院, , ,北海道,小樽市銭函３丁目２９８番地,43.136537,141.174746,0,0,0,0,未,未入力,0,,0,,,,,,,,,,,,,,,,,,,,,,,,,,,0,0,0,0,0,0,0,0,0,0,0,0,0,0,0,0,0,0,, , , , , , ,0,0,0,0,0,0,, , ,0,,1
11016026800 ,南小樽病院, , ,北海道,小樽市潮見台１丁目５−３,43.179279,141.013091,0,0,0,0,未,未入力,0,,0,,,,,,,,,,,,,,,,,,,,,,,,,,,0,0,0,0,0,0,0,0,0,0,0,0,0,0,0,0,0,0,, , , , , , ,0,0,0,0,0,0,, , ,0,,1
11016027000 ,北海道済生会西小樽病院, , ,北海道,小樽市長橋３丁目２４−１,43.215664,140.982592,0,0,0,0,未,未入力,0,,0,,,,,,,,,,,,,,,,,,,,,,,,,,,0,0,0,0,0,0,0,0,0,0,0,0,0,0,0,0,0,0,, , , , , , ,0,0,0,0,0,0,, , ,0,,1
11016027200 ,小樽中央病院, , ,北海道,小樽市入船２丁目２−１８,43.186556,140.999898,0,0,0,0,未,未入力,0,,0,,,,,,,,,,,,,,,,,,,,,,,,,,,0,0,0,0,0,0,0,0,0,0,0,0,0,0,0,0,0,0,, , , , , , ,0,0,0,0,0,0,, , ,0,,1
11016027300 ,北海道済生会小樽病院, , ,北海道,小樽市築港１０番１号,43.184166,141.019305,0,0,0,0,未,未入力,0,,0,,,,,,,,,,,,,,,,,,,,,,,,,,,0,0,0,0,0,0,0,0,0,0,0,0,0,0,0,0,0,0,, , , , , , ,0,0,0,0,0,0,, , ,0,,1
11016027600 ,昆布温泉病院, , ,北海道,磯谷郡蘭越町字黄金１１８番地,42.800924,140.602198,0,0,0,0,未,未入力,0,,0,,,,,,,,,,,,,,,,,,,,,,,,,,,0,0,0,0,0,0,0,0,0,0,0,0,0,0,0,0,0,0,, , , , , , ,0,0,0,0,0,0,, , ,0,,1
11016027900 ,倶知安厚生病院, , ,北海道,虻田郡倶知安町北４条東１丁目２,42.905165,140.754403,1,0,1,1,未,未入力,0,,0,,,,,,,,,,,,,,,,,,,,,,,,,,,0,0,0,0,0,0,0,0,0,0,0,0,0,0,0,0,0,0,, , , , , , ,0,0,0,0,0,0,, , ,0,,1
11016028000 ,岩内協会病院, , ,北海道,岩内郡岩内町字高台２０９−２,42.978527,140.517555,0,0,1,0,未,未入力,0,,0,,,,,,,,,,,,,,,,,,,,,,,,,,,0,0,0,0,0,0,0,0,0,0,0,0,0,0,0,0,0,0,, , , , , , ,0,0,0,0,0,0,, , ,0,,1
11016028200 ,余市協会病院, , ,北海道,余市郡余市町黒川町１９丁目１−１,43.188497,140.813635,0,0,1,0,未,未入力,0,,0,,,,,,,,,,,,,,,,,,,,,,,,,,,0,0,0,0,0,0,0,0,0,0,0,0,0,0,0,0,0,0,, , , , , , ,0,0,0,0,0,0,, , ,0,,1
11016028500 ,岩見沢北翔会病院, , ,北海道,岩見沢市１０条西２１丁目１−１,43.188291,141.75264,0,0,0,0,未,未入力,0,,0,,,,,,,,,,,,,,,,,,,,,,,,,,,0,0,0,0,0,0,0,0,0,0,0,0,0,0,0,0,0,0,, , , , , , ,0,0,0,0,0,0,, , ,0,,1
11016028700 ,牧病院, , ,北海道,岩見沢市３条西５丁目９,43.202151,141.762111,0,0,0,0,未,未入力,0,,0,,,,,,,,,,,,,,,,,,,,,,,,,,,0,0,0,0,0,0,0,0,0,0,0,0,0,0,0,0,0,0,, , , , , , ,0,0,0,0,0,0,, , ,0,,1
11016028800 ,北海道中央労災病院, , ,北海道,岩見沢市４条東１６丁目５,43.215,141.787111,0,0,0,0,未,未入力,0,,0,,,,,,,,,,,,,,,,,,,,,,,,,,,0,0,0,0,0,0,0,0,0,0,0,0,0,0,0,0,0,0,, , , , , , ,0,0,0,0,0,0,, , ,0,,1
11016028900 ,野宮病院, , ,北海道,岩見沢市５条東１８丁目５７,43.216122,141.794969,0,0,0,0,未,未入力,0,,0,,,,,,,,,,,,,,,,,,,,,,,,,,,0,0,0,0,0,0,0,0,0,0,0,0,0,0,0,0,0,0,, , , , , , ,0,0,0,0,0,0,, , ,0,,1
11016029100 ,岩見沢市立総合病院,岩見沢市立総合病院,688555,北海道,岩見沢市９条西７丁目２,43.195361,141.765527,1,0,0,1,未,未入力,0,,0,,,,,,,,,,,,,,,,,,,,,,,,,,,0,0,0,0,0,0,0,0,0,0,0,0,0,0,0,0,0,0,, , , , , , ,0,0,0,0,0,0,, , ,0,,1
11016029300 ,空知病院, , ,北海道,岩見沢市大和１条８丁目１,43.189708,141.737586,0,0,0,0,未,未入力,0,,0,,,,,,,,,,,,,,,,,,,,,,,,,,,0,0,0,0,0,0,0,0,0,0,0,0,0,0,0,0,0,0,, , , , , , ,0,0,0,0,0,0,, , ,0,,1
11016029500 ,北海道中央労災病院　せき損センター, , ,北海道,美唄市東４条南１丁目３−１,43.329444,141.870333,0,0,0,0,未,未入力,0,,0,,,,,,,,,,,,,,,,,,,,,,,,,,,0,0,0,0,0,0,0,0,0,0,0,0,0,0,0,0,0,0,, , , , , , ,0,0,0,0,0,0,, , ,0,,1
11016029600 ,市立美唄病院, , ,北海道,美唄市西２条北１丁目１−１,43.333639,141.857847,0,0,0,0,未,未入力,0,,0,,,,,,,,,,,,,,,,,,,,,,,,,,,0,0,0,0,0,0,0,0,0,0,0,0,0,0,0,0,0,0,, , , , , , ,0,0,0,0,0,0,, , ,0,,1
11016030000 ,野口病院, , ,北海道,芦別市北２条西１丁目７,43.521374,142.184978,0,0,0,0,未,未入力,0,,0,,,,,,,,,,,,,,,,,,,,,,,,,,,0,0,0,0,0,0,0,0,0,0,0,0,0,0,0,0,0,0,, , , , , , ,0,0,0,0,0,0,, , ,0,,1
11016030100 ,市立芦別病院, , ,北海道,芦別市本町１４番地,43.518291,142.195727,0,0,0,0,未,未入力,0,,0,,,,,,,,,,,,,,,,,,,,,,,,,,,0,0,0,0,0,0,0,0,0,0,0,0,0,0,0,0,0,0,, , , , , , ,0,0,0,0,0,0,, , ,0,,1
11016030200 ,平岸病院, , ,北海道,赤平市平岸新光町２丁目１,43.542176,142.119288,0,0,0,0,未,未入力,0,,0,,,,,,,,,,,,,,,,,,,,,,,,,,,0,0,0,0,0,0,0,0,0,0,0,0,0,0,0,0,0,0,, , , , , , ,0,0,0,0,0,0,, , ,0,,1
11016030300 ,あかびら市立病院, , ,北海道,赤平市本町３丁目２,43.556091,142.05321,0,0,0,0,未,未入力,0,,0,,,,,,,,,,,,,,,,,,,,,,,,,,,0,0,0,0,0,0,0,0,0,0,0,0,0,0,0,0,0,0,, , , , , , ,0,0,0,0,0,0,, , ,0,,1
11016030500 ,南そらち記念病院, , ,北海道,三笠市岡山５０６−８,43.239565,141.80344,0,0,0,0,未,未入力,0,,0,,,,,,,,,,,,,,,,,,,,,,,,,,,0,0,0,0,0,0,0,0,0,0,0,0,0,0,0,0,0,0,, , , , , , ,0,0,0,0,0,0,, , ,0,,1
11016030600 ,市立三笠総合病院, , ,北海道,三笠市宮本町４８９−１,43.246944,141.869805,0,0,0,0,未,未入力,0,,0,,,,,,,,,,,,,,,,,,,,,,,,,,,0,0,0,0,0,0,0,0,0,0,0,0,0,0,0,0,0,0,, , , , , , ,0,0,0,0,0,0,, , ,0,,1
11016030700 ,神部ペインクリニック・内科病院, , ,北海道,滝川市栄町３丁目４−２７,43.557505,141.905611,0,0,0,0,未,未入力,0,,0,,,,,,,,,,,,,,,,,,,,,,,,,,,0,0,0,0,0,0,0,0,0,0,0,0,0,0,0,0,0,0,, , , , , , ,0,0,0,0,0,0,, , ,0,,1
11016030900 ,滝川脳神経外科病院, , ,北海道,滝川市西町１丁目２−５,43.560444,141.902638,0,0,0,0,未,未入力,0,,0,,,,,,,,,,,,,,,,,,,,,,,,,,,0,0,0,0,0,0,0,0,0,0,0,0,0,0,0,0,0,0,, , , , , , ,0,0,0,0,0,0,, , ,0,,1
11016031000 ,佐藤病院, , ,北海道,滝川市泉町１３５−１５,43.571725,141.899111,0,0,0,0,未,未入力,0,,0,,,,,,,,,,,,,,,,,,,,,,,,,,,0,0,0,0,0,0,0,0,0,0,0,0,0,0,0,0,0,0,, , , , , , ,0,0,0,0,0,0,, , ,0,,1
11016031100 ,滝川市立病院, , ,北海道,滝川市大町２丁目２−３４,43.559005,141.911082,0,0,0,0,未,未入力,0,,0,,,,,,,,,,,,,,,,,,,,,,,,,,,0,0,0,0,0,0,0,0,0,0,0,0,0,0,0,0,0,0,, , , , , , ,0,0,0,0,0,0,, , ,0,,1
11016031300 ,砂川慈恵会病院, , ,北海道,砂川市西１条南１１丁目２−１０,43.47693,141.902004,0,0,0,0,未,未入力,0,,0,,,,,,,,,,,,,,,,,,,,,,,,,,,0,0,0,0,0,0,0,0,0,0,0,0,0,0,0,0,0,0,, , , , , , ,0,0,0,0,0,0,, , ,0,,1
11016031400 ,砂川市立病院,砂川市立病院,730196,北海道,砂川市西４条北３丁目１−１,43.494539,141.904753,1,1,0,1,未,未入力,0,,0,,,,,,,,,,,,,,,,,,,,,,,,,,,0,0,0,0,0,0,0,0,0,0,0,0,0,0,0,0,0,0,, , , , , , ,0,0,0,0,0,0,, , ,0,,1
11016031500 ,歌志内市立病院, , ,北海道,歌志内市字神威２６９,43.510678,142.024214,0,0,0,0,未,未入力,0,,0,,,,,,,,,,,,,,,,,,,,,,,,,,,0,0,0,0,0,0,0,0,0,0,0,0,0,0,0,0,0,0,, , , , , , ,0,0,0,0,0,0,, , ,0,,1
11016032000 ,深川市立病院,深川市立病院,740006,北海道,深川市６条６番１号,43.716111,142.04025,1,0,0,1,未,未入力,0,,0,,,,,,,,,,,,,,,,,,,,,,,,,,,0,0,0,0,0,0,0,0,0,0,0,0,0,0,0,0,0,0,, , , , , , ,0,0,0,0,0,0,, , ,0,,1
11016032200 ,北海道中央病院, , ,北海道,深川市西町１−７,43.716527,142.030333,0,0,0,0,未,未入力,0,,0,,,,,,,,,,,,,,,,,,,,,,,,,,,0,0,0,0,0,0,0,0,0,0,0,0,0,0,0,0,0,0,, , , , , , ,0,0,0,0,0,0,, , ,0,,1
11016032300 ,岩見沢市立栗沢病院, , ,北海道,岩見沢市栗沢町南本町３０,43.117382,141.742839,0,0,0,0,未,未入力,0,,0,,,,,,,,,,,,,,,,,,,,,,,,,,,0,0,0,0,0,0,0,0,0,0,0,0,0,0,0,0,0,0,, , , , , , ,0,0,0,0,0,0,, , ,0,,1
11016032400 ,国保町立南幌病院, , ,北海道,空知郡南幌町元町２丁目２−１,43.069525,141.651821,0,0,0,0,未,未入力,0,,0,,,,,,,,,,,,,,,,,,,,,,,,,,,0,0,0,0,0,0,0,0,0,0,0,0,0,0,0,0,0,0,, , , , , , ,0,0,0,0,0,0,, , ,0,,1
11016032500 ,奈井江町立国保病院, , ,北海道,空知郡奈井江町字奈井江１２,43.426268,141.883924,0,0,0,0,未,未入力,0,,0,,,,,,,,,,,,,,,,,,,,,,,,,,,0,0,0,0,0,0,0,0,0,0,0,0,0,0,0,0,0,0,, , , , , , ,0,0,0,0,0,0,, , ,0,,1
11016032600 ,国保由仁町立病院, , ,北海道,夕張郡由仁町馬追１,43.011977,141.780396,0,0,0,0,未,未入力,0,,0,,,,,,,,,,,,,,,,,,,,,,,,,,,0,0,0,0,0,0,0,0,0,0,0,0,0,0,0,0,0,0,, , , , , , ,0,0,0,0,0,0,, , ,0,,1
11016032700 ,町立長沼病院, , ,北海道,夕張郡長沼町中央南２丁目２−１,43.007643,141.693265,0,0,0,0,未,未入力,0,,0,,,,,,,,,,,,,,,,,,,,,,,,,,,0,0,0,0,0,0,0,0,0,0,0,0,0,0,0,0,0,0,, , , , , , ,0,0,0,0,0,0,, , ,0,,1
11016032800 ,栗山赤十字病院, , ,北海道,夕張郡栗山町朝日３丁目２,43.059417,141.78956,0,0,0,0,未,未入力,0,,0,,,,,,,,,,,,,,,,,,,,,,,,,,,0,0,0,0,0,0,0,0,0,0,0,0,0,0,0,0,0,0,, , , , , , ,0,0,0,0,0,0,, , ,0,,1
11016032900 ,国保月形町立病院, , ,北海道,樺戸郡月形町字月形１４６６−１,43.340722,141.674222,0,0,0,0,未,未入力,0,,0,,,,,,,,,,,,,,,,,,,,,,,,,,,0,0,0,0,0,0,0,0,0,0,0,0,0,0,0,0,0,0,, , , , , , ,0,0,0,0,0,0,, , ,0,,1
11016033000 ,空知中央病院, , ,北海道,樺戸郡新十津川町字中央２０−４,43.545228,141.875141,0,0,0,0,未,未入力,0,,0,,,,,,,,,,,,,,,,,,,,,,,,,,,0,0,0,0,0,0,0,0,0,0,0,0,0,0,0,0,0,0,, , , , , , ,0,0,0,0,0,0,, , ,0,,1
11016033300 ,幌加内町国保病院, , ,北海道,雨竜郡幌加内町字幌加内４９４１−１,44.008572,142.152375,0,0,0,0,未,未入力,0,,0,,,,,,,,,,,,,,,,,,,,,,,,,,,0,0,0,0,0,0,0,0,0,0,0,0,0,0,0,0,0,0,, , , , , , ,0,0,0,0,0,0,, , ,0,,1
11016033400 ,市立室蘭総合病院,市立室蘭総合病院,518512,北海道,室蘭市山手町３丁目８−１,42.313594,140.97669,1,0,0,1,未,未入力,0,,0,,,,,,,,,,,,,,,,,,,,,,,,,,,0,0,0,0,0,0,0,0,0,0,0,0,0,0,0,0,0,0,, , , , , , ,0,0,0,0,0,0,, , ,0,,1
11016033500 ,大川原脳神経外科病院, , ,北海道,室蘭市寿町１丁目１０−１,42.348146,141.031045,0,0,0,0,未,未入力,0,,0,,,,,,,,,,,,,,,,,,,,,,,,,,,0,0,0,0,0,0,0,0,0,0,0,0,0,0,0,0,0,0,, , , , , , ,0,0,0,0,0,0,, , ,0,,1
11016033600 ,日鋼記念病院,社会医療法人　母恋　　日鋼記念病院,518501,北海道,室蘭市新富町１丁目５−１３,42.315705,140.985022,1,0,0,1,未,未入力,0,,0,,,,,,,,,,,,,,,,,,,,,,,,,,,0,0,0,0,0,0,0,0,0,0,0,0,0,0,0,0,0,0,, , , , , , ,0,0,0,0,0,0,, , ,0,,1
11016033700 ,製鉄記念室蘭病院,社会医療法人製鉄記念室蘭病院,500076,北海道,室蘭市知利別町１丁目４５,42.357395,141.016823,0,0,0,1,未,未入力,0,,0,,,,,,,,,,,,,,,,,,,,,,,,,,,0,0,0,0,0,0,0,0,0,0,0,0,0,0,0,0,0,0,, , , , , , ,0,0,0,0,0,0,, , ,0,,1
11016033800 ,三村病院, , ,北海道,室蘭市中島町３丁目３２−１５,42.35234,141.023462,0,0,0,0,未,未入力,0,,0,,,,,,,,,,,,,,,,,,,,,,,,,,,0,0,0,0,0,0,0,0,0,0,0,0,0,0,0,0,0,0,, , , , , , ,0,0,0,0,0,0,, , ,0,,1
11016033900 ,上田病院, , ,北海道,室蘭市東町２丁目２４−６,42.347146,141.028823,0,0,0,0,未,未入力,0,,0,,,,,,,,,,,,,,,,,,,,,,,,,,,0,0,0,0,0,0,0,0,0,0,0,0,0,0,0,0,0,0,, , , , , , ,0,0,0,0,0,0,, , ,0,,1
11016034000 ,室蘭太平洋病院, , ,北海道,室蘭市白鳥台５丁目１９−２,42.37928,140.942162,0,0,0,0,未,未入力,0,,0,,,,,,,,,,,,,,,,,,,,,,,,,,,0,0,0,0,0,0,0,0,0,0,0,0,0,0,0,0,0,0,, , , , , , ,0,0,0,0,0,0,, , ,0,,1
11016034600 ,王子総合病院,王子総合病院,538506,北海道,苫小牧市若草町３丁目４−８,42.63857,141.60365,1,0,0,1,未,未入力,0,,0,,,,,,,,,,,,,,,,,,,,,,,,,,,0,0,0,0,0,0,0,0,0,0,0,0,0,0,0,0,0,0,, , , , , , ,0,0,0,0,0,0,, , ,0,,1
11016034800 ,同樹会病院, , ,北海道,苫小牧市新中野町３丁目９−１０,42.642403,141.609927,0,0,0,0,未,未入力,0,,0,,,,,,,,,,,,,,,,,,,,,,,,,,,0,0,0,0,0,0,0,0,0,0,0,0,0,0,0,0,0,0,, , , , , , ,0,0,0,0,0,0,, , ,0,,1
11016034900 ,苫小牧澄川病院, , ,北海道,苫小牧市澄川町７丁目９−１８,42.623792,141.514297,0,0,0,0,未,未入力,0,,0,,,,,,,,,,,,,,,,,,,,,,,,,,,0,0,0,0,0,0,0,0,0,0,0,0,0,0,0,0,0,0,, , , , , , ,0,0,0,0,0,0,, , ,0,,1
11016035000 ,苫小牧緑ヶ丘病院, , ,北海道,苫小牧市清水町１丁目５−７,42.650346,141.600761,0,0,0,0,未,未入力,0,,0,,,,,,,,,,,,,,,,,,,,,,,,,,,0,0,0,0,0,0,0,0,0,0,0,0,0,0,0,0,0,0,, , , , , , ,0,0,0,0,0,0,, , ,0,,1
11016035200 ,苫小牧市立病院, , ,北海道,苫小牧市清水町１丁目５−２０,42.652096,141.603289,1,0,0,1,未,未入力,0,,0,,,,,,,,,,,,,,,,,,,,,,,,,,,0,0,0,0,0,0,0,0,0,0,0,0,0,0,0,0,0,0,, , , , , , ,0,0,0,0,0,0,, , ,0,,1
11016035300 ,苫小牧東病院, , ,北海道,苫小牧市明野新町５丁目１−３０,42.662568,141.636758,0,0,0,0,未,未入力,0,,0,,,,,,,,,,,,,,,,,,,,,,,,,,,0,0,0,0,0,0,0,0,0,0,0,0,0,0,0,0,0,0,, , , , , , ,0,0,0,0,0,0,, , ,0,,1
11016035400 ,苫小牧日翔病院, , ,北海道,苫小牧市矢代町２丁目９−１３,42.625848,141.578903,0,0,0,0,未,未入力,0,,0,,,,,,,,,,,,,,,,,,,,,,,,,,,0,0,0,0,0,0,0,0,0,0,0,0,0,0,0,0,0,0,, , , , , , ,0,0,0,0,0,0,, , ,0,,1
11016035500 ,登別すずらん病院, , ,北海道,登別市青葉町３４−９,42.393781,141.078511,0,0,0,0,未,未入力,0,,0,,,,,,,,,,,,,,,,,,,,,,,,,,,0,0,0,0,0,0,0,0,0,0,0,0,0,0,0,0,0,0,, , , , , , ,0,0,0,0,0,0,, , ,0,,1
11016035700 ,皆川病院, , ,北海道,登別市中央町３丁目２０−５,42.408919,141.103341,0,0,0,0,未,未入力,0,,0,,,,,,,,,,,,,,,,,,,,,,,,,,,0,0,0,0,0,0,0,0,0,0,0,0,0,0,0,0,0,0,, , , , , , ,0,0,0,0,0,0,, , ,0,,1
11016035800 ,三愛病院, , ,北海道,登別市中登別町２４−１２,42.464386,141.167445,0,0,0,0,未,未入力,0,,0,,,,,,,,,,,,,,,,,,,,,,,,,,,0,0,0,0,0,0,0,0,0,0,0,0,0,0,0,0,0,0,, , , , , , ,0,0,0,0,0,0,, , ,0,,1
11016035900 ,ＪＣＨＯ登別病院, , ,北海道,登別市登別温泉町１３３番地,42.488217,141.148195,0,0,0,0,未,未入力,0,,0,,,,,,,,,,,,,,,,,,,,,,,,,,,0,0,0,0,0,0,0,0,0,0,0,0,0,0,0,0,0,0,, , , , , , ,0,0,0,0,0,0,, , ,0,,1
11016036100 ,恵愛病院, , ,北海道,登別市鷲別町２丁目３１−１,42.356361,141.048055,0,0,0,0,未,未入力,0,,0,,,,,,,,,,,,,,,,,,,,,,,,,,,0,0,0,0,0,0,0,0,0,0,0,0,0,0,0,0,0,0,, , , , , , ,0,0,0,0,0,0,, , ,0,,1
11016036200 ,ミネルバ病院, , ,北海道,伊達市松ケ枝町２４５−１,42.484102,140.896883,0,0,0,0,未,未入力,0,,0,,,,,,,,,,,,,,,,,,,,,,,,,,,0,0,0,0,0,0,0,0,0,0,0,0,0,0,0,0,0,0,, , , , , , ,0,0,0,0,0,0,, , ,0,,1
11016036300 ,総合病院　伊達赤十字病院,総合病院　伊達赤十字病院,528511,北海道,伊達市末永町８１番地,42.475491,140.869635,1,0,1,1,未,未入力,0,,0,,,,,,,,,,,,,,,,,,,,,,,,,,,0,0,0,0,0,0,0,0,0,0,0,0,0,0,0,0,0,0,, , , , , , ,0,0,0,0,0,0,, , ,0,,1
11016036400 ,豊浦町国保病院, , ,北海道,虻田郡豊浦町字東雲町１６−１,42.583532,140.715921,0,0,0,0,未,未入力,0,,0,,,,,,,,,,,,,,,,,,,,,,,,,,,0,0,0,0,0,0,0,0,0,0,0,0,0,0,0,0,0,0,, , , , , , ,0,0,0,0,0,0,, , ,0,,1
11016036600 ,洞爺協会病院, , ,北海道,虻田郡洞爺湖町高砂町１２６番地,42.550759,140.774195,0,0,0,0,未,未入力,0,,0,,,,,,,,,,,,,,,,,,,,,,,,,,,0,0,0,0,0,0,0,0,0,0,0,0,0,0,0,0,0,0,, , , , , , ,0,0,0,0,0,0,, , ,0,,1
11016036800 ,洞爺温泉病院, , ,北海道,虻田郡洞爺湖町洞爺町５４−４１,42.65661,140.830603,0,0,0,0,未,未入力,0,,0,,,,,,,,,,,,,,,,,,,,,,,,,,,0,0,0,0,0,0,0,0,0,0,0,0,0,0,0,0,0,0,, , , , , , ,0,0,0,0,0,0,, , ,0,,1
11016037100 ,三恵病院, , ,北海道,有珠郡壮瞥町字仲洞爺６９番地,42.618388,140.916055,0,0,0,0,未,未入力,0,,0,,,,,,,,,,,,,,,,,,,,,,,,,,,0,0,0,0,0,0,0,0,0,0,0,0,0,0,0,0,0,0,, , , , , , ,0,0,0,0,0,0,, , ,0,,1
11016037200 ,そうべつ温泉病院, , ,北海道,有珠郡壮瞥町字南久保内１４６−１２,42.575482,140.964151,0,0,0,0,未,未入力,0,,0,,,,,,,,,,,,,,,,,,,,,,,,,,,0,0,0,0,0,0,0,0,0,0,0,0,0,0,0,0,0,0,, , , , , , ,0,0,0,0,0,0,, , ,0,,1
11016037400 ,白老町立国保病院, , ,北海道,白老郡白老町日の出町３丁目１−１,42.557658,141.367813,0,0,0,0,未,未入力,0,,0,,,,,,,,,,,,,,,,,,,,,,,,,,,0,0,0,0,0,0,0,0,0,0,0,0,0,0,0,0,0,0,, , , , , , ,0,0,0,0,0,0,, , ,0,,1
11016037500 ,追分菊池病院, , ,北海道,勇払郡安平町追分本町１丁目４３,42.876937,141.812066,0,0,0,0,未,未入力,0,,0,,,,,,,,,,,,,,,,,,,,,,,,,,,0,0,0,0,0,0,0,0,0,0,0,0,0,0,0,0,0,0,, , , , , , ,0,0,0,0,0,0,, , ,0,,1
11016037600 ,むかわ町鵡川厚生病院, , ,北海道,勇払郡むかわ町美幸１丁目８６,42.576361,141.9235,0,0,0,0,未,未入力,0,,0,,,,,,,,,,,,,,,,,,,,,,,,,,,0,0,0,0,0,0,0,0,0,0,0,0,0,0,0,0,0,0,, , , , , , ,0,0,0,0,0,0,, , ,0,,1
11016037900 ,平取町国保病院, , ,北海道,沙流郡平取町本町６７−１,42.588585,142.136858,0,0,0,0,未,未入力,0,,0,,,,,,,,,,,,,,,,,,,,,,,,,,,0,0,0,0,0,0,0,0,0,0,0,0,0,0,0,0,0,0,, , , , , , ,0,0,0,0,0,0,, , ,0,,1
11016038000 ,日高町立門別国保病院, , ,北海道,沙流郡日高町門別本町２９−９,42.480123,142.070258,0,0,0,0,未,未入力,0,,0,,,,,,,,,,,,,,,,,,,,,,,,,,,0,0,0,0,0,0,0,0,0,0,0,0,0,0,0,0,0,0,, , , , , , ,0,0,0,0,0,0,, , ,0,,1
11016038300 ,静仁会静内病院, , ,北海道,日高郡新ひだか町静内こうせい町１丁目１０,42.344531,142.37485,0,0,0,0,未,未入力,0,,0,,,,,,,,,,,,,,,,,,,,,,,,,,,0,0,0,0,0,0,0,0,0,0,0,0,0,0,0,0,0,0,, , , , , , ,0,0,0,0,0,0,, , ,0,,1
11016038400 ,石井病院, , ,北海道,日高郡新ひだか町静内高砂町３丁目３−１,42.350142,142.363878,0,0,0,0,未,未入力,0,,0,,,,,,,,,,,,,,,,,,,,,,,,,,,0,0,0,0,0,0,0,0,0,0,0,0,0,0,0,0,0,0,, , , , , , ,0,0,0,0,0,0,, , ,0,,1
11016038800 ,総合病院浦河赤十字病院,総合病院浦河赤十字病院,570007,北海道,浦河郡浦河町東町ちのみ１丁目２−１,42.159781,142.78838,1,0,0,1,未,未入力,0,,0,,,,,,,,,,,,,,,,,,,,,,,,,,,0,0,0,0,0,0,0,0,0,0,0,0,0,0,0,0,0,0,, , , , , , ,0,0,0,0,0,0,, , ,0,,1
11016039000 ,北海道大学病院,北海道大学病院,608648,北海道,札幌市北区北１４条西５丁目,43.077194,141.344388,1,0,1,1,未,未入力,0,,0,,,,,,,,,,,,,,,,,,,,,,,,,,,0,0,0,0,0,0,0,0,0,0,0,0,0,0,0,0,0,0,, , , , , , ,0,0,0,0,0,0,, , ,0,,1
11016039200 ,平和リハビリテーション病院, , ,北海道,札幌市西区平和３０６番地１,43.056102,141.242661,0,0,0,0,未,未入力,0,,0,,,,,,,,,,,,,,,,,,,,,,,,,,,0,0,0,0,0,0,0,0,0,0,0,0,0,0,0,0,0,0,, , , , , , ,0,0,0,0,0,0,, , ,0,,1
11016039300 ,札幌南三条病院, , ,北海道,札幌市中央区南３条西６丁目４−２,43.055861,141.349416,0,0,0,0,未,未入力,0,,0,,,,,,,,,,,,,,,,,,,,,,,,,,,0,0,0,0,0,0,0,0,0,0,0,0,0,0,0,0,0,0,, , , , , , ,0,0,0,0,0,0,, , ,0,,1
11016039600 ,青葉病院, , ,北海道,苫小牧市青葉町２丁目９−１９,42.629972,141.570083,0,0,0,0,未,未入力,0,,0,,,,,,,,,,,,,,,,,,,,,,,,,,,0,0,0,0,0,0,0,0,0,0,0,0,0,0,0,0,0,0,, , , , , , ,0,0,0,0,0,0,, , ,0,,1
11016039700 ,中村記念南病院, , ,北海道,札幌市南区川沿２条２丁目３−１,42.997693,141.335573,0,0,0,0,未,未入力,0,,0,,,,,,,,,,,,,,,,,,,,,,,,,,,0,0,0,0,0,0,0,0,0,0,0,0,0,0,0,0,0,0,, , , , , , ,0,0,0,0,0,0,, , ,0,,1
11016039900 ,登別記念病院, , ,北海道,登別市中央町１丁目１番地４,42.41078,141.107952,0,0,0,0,未,未入力,0,,0,,,,,,,,,,,,,,,,,,,,,,,,,,,0,0,0,0,0,0,0,0,0,0,0,0,0,0,0,0,0,0,, , , , , , ,0,0,0,0,0,0,, , ,0,,1
11016040000 ,恵佑会第２病院, , ,北海道,札幌市白石区本通１３丁目北７−１,43.041218,141.426674,0,0,0,0,未,未入力,0,,0,,,,,,,,,,,,,,,,,,,,,,,,,,,0,0,0,0,0,0,0,0,0,0,0,0,0,0,0,0,0,0,, , , , , , ,0,0,0,0,0,0,, , ,0,,1
11016041000 ,北海道医療大学病院, , ,北海道,札幌市北区あいの里２条５丁目１−１,43.159038,141.397588,0,0,0,0,未,未入力,0,,0,,,,,,,,,,,,,,,,,,,,,,,,,,,0,0,0,0,0,0,0,0,0,0,0,0,0,0,0,0,0,0,, , , , , , ,0,0,0,0,0,0,, , ,0,,1
11016041100 ,札幌心臓血管クリニック, , ,北海道,札幌市東区北４９条東１６丁目８−１,43.122708,141.365203,0,0,0,0,未,未入力,0,,0,,,,,,,,,,,,,,,,,,,,,,,,,,,0,0,0,0,0,0,0,0,0,0,0,0,0,0,0,0,0,0,, , , , , , ,0,0,0,0,0,0,, , ,0,,1
12011015600 ,函館市夜間急病センター, , ,北海道,函館市五稜郭町２３−１,41.799645,140.752426,0,0,0,0,未,未入力,0,,0,,,,,,,,,,,,,,,,,,,,,,,,,,,0,0,0,0,0,0,0,0,0,0,0,0,0,0,0,0,0,0,, , , , , , ,0,0,0,0,0,0,, , ,0,,1
12011028800 ,江差脳神経外科クリニック, , ,北海道,檜山郡江差町字伏木戸町５５０−１,41.914927,140.144749,0,0,0,0,未,未入力,0,,0,,,,,,,,,,,,,,,,,,,,,,,,,,,0,0,0,0,0,0,0,0,0,0,0,0,0,0,0,0,0,0,, , , , , , ,0,0,0,0,0,0,, , ,0,,1
12012007700 ,帯広市休日夜間急病センター, , ,北海道,帯広市柏林台西町２丁目１,42.922761,143.165063,0,0,0,0,未,未入力,0,,0,,,,,,,,,,,,,,,,,,,,,,,,,,,0,0,0,0,0,0,0,0,0,0,0,0,0,0,0,0,0,0,, , , , , , ,0,0,0,0,0,0,, , ,0,,1
12012010800 ,更別村国保診療所, , ,北海道,河西郡更別村字更別１９０−１,42.646236,143.193351,0,0,0,0,未,未入力,0,,0,,,,,,,,,,,,,,,,,,,,,,,,,,,0,0,0,0,0,0,0,0,0,0,0,0,0,0,0,0,0,0,, , , , , , ,0,0,0,0,0,0,, , ,0,,1
12012013400 ,陸別町国保関寛斎診療所, , ,北海道,足寄郡陸別町字陸別東２条３丁目１番地,43.468213,143.748017,0,0,0,0,未,未入力,0,,0,,,,,,,,,,,,,,,,,,,,,,,,,,,0,0,0,0,0,0,0,0,0,0,0,0,0,0,0,0,0,0,, , , , , , ,0,0,0,0,0,0,, , ,0,,1
12013003900 ,木原循環器科内科医院, , ,北海道,旭川市４条通２２丁目１１８,43.762796,142.382923,0,0,0,0,未,未入力,0,,0,,,,,,,,,,,,,,,,,,,,,,,,,,,0,0,0,0,0,0,0,0,0,0,0,0,0,0,0,0,0,0,, , , , , , ,0,0,0,0,0,0,, , ,0,,1
12013008600 ,旭川市夜間急病センター, , ,北海道,旭川市金星町１丁目１−５０,43.779072,142.367035,0,0,0,0,未,未入力,0,,0,,,,,,,,,,,,,,,,,,,,,,,,,,,0,0,0,0,0,0,0,0,0,0,0,0,0,0,0,0,0,0,, , , , , , ,0,0,0,0,0,0,, , ,0,,1
12013028500 ,音威子府村立診療所, , ,北海道,中川郡音威子府村字音威子府５０９−８８,44.727997,142.260888,0,0,0,0,未,未入力,0,,0,,,,,,,,,,,,,,,,,,,,,,,,,,,0,0,0,0,0,0,0,0,0,0,0,0,0,0,0,0,0,0,, , , , , , ,0,0,0,0,0,0,, , ,0,,1
12013028600 ,中川町立診療所, , ,北海道,中川郡中川町字中川３８２−１,44.809235,142.073123,0,0,0,0,未,未入力,0,,0,,,,,,,,,,,,,,,,,,,,,,,,,,,0,0,0,0,0,0,0,0,0,0,0,0,0,0,0,0,0,0,, , , , , , ,0,0,0,0,0,0,, , ,0,,1
12013033200 ,礼文町国保船泊診療所, , ,北海道,礼文郡礼文町大字船泊村字ウエンナイホ４１,45.43565,141.032569,0,0,0,0,未,未入力,0,,0,,,,,,,,,,,,,,,,,,,,,,,,,,,0,0,0,0,0,0,0,0,0,0,0,0,0,0,0,0,0,0,, , , , , , ,0,0,0,0,0,0,, , ,0,,1
12013035800 ,留萌セントラルクリニック, , ,北海道,留萌市栄町１丁目５−１２,43.942431,141.648392,0,0,0,0,未,未入力,0,,0,,,,,,,,,,,,,,,,,,,,,,,,,,,0,0,0,0,0,0,0,0,0,0,0,0,0,0,0,0,0,0,, , , , , , ,0,0,0,0,0,0,, , ,0,,1
12013041300 ,幌延町立診療所, , ,北海道,天塩郡幌延町１条北２丁目１−１８,45.016903,141.843521,0,0,0,0,未,未入力,0,,0,,,,,,,,,,,,,,,,,,,,,,,,,,,0,0,0,0,0,0,0,0,0,0,0,0,0,0,0,0,0,0,, , , , , , ,0,0,0,0,0,0,, , ,0,,1
12014002900 ,うしき整形外科クリニック, , ,北海道,釧路市松浦町４−１２,42.99358,144.390403,0,0,0,0,未,未入力,0,,0,,,,,,,,,,,,,,,,,,,,,,,,,,,0,0,0,0,0,0,0,0,0,0,0,0,0,0,0,0,0,0,, , , , , , ,0,0,0,0,0,0,, , ,0,,1
12014013600 ,釧路市夜間急病センター, , ,北海道,釧路市住吉２丁目１２−３７,42.976888,144.394708,0,0,0,0,未,未入力,0,,0,,,,,,,,,,,,,,,,,,,,,,,,,,,0,0,0,0,0,0,0,0,0,0,0,0,0,0,0,0,0,0,, , , , , , ,0,0,0,0,0,0,, , ,0,,1
12014013700 ,知床らうす国民健康保険診療所, , ,北海道,目梨郡羅臼町栄町１００−８３,44.021873,145.189733,0,0,0,0,未,未入力,0,,0,,,,,,,,,,,,,,,,,,,,,,,,,,,0,0,0,0,0,0,0,0,0,0,0,0,0,0,0,0,0,0,, , , , , , ,0,0,0,0,0,0,, , ,0,,1
12015005700 ,小林整形外科医院, , ,北海道,紋別市真砂町２丁目３−２５,44.36211,143.353176,0,0,0,0,未,未入力,0,,0,,,,,,,,,,,,,,,,,,,,,,,,,,,0,0,0,0,0,0,0,0,0,0,0,0,0,0,0,0,0,0,, , , , , , ,0,0,0,0,0,0,, , ,0,,1
12015011100 ,北見市夜間急病センター, , ,北海道,北見市北６条西２丁目１,43.806305,143.891805,0,0,0,0,未,未入力,0,,0,,,,,,,,,,,,,,,,,,,,,,,,,,,0,0,0,0,0,0,0,0,0,0,0,0,0,0,0,0,0,0,, , , , , , ,0,0,0,0,0,0,, , ,0,,1
12015014600 ,紋別市休日夜間急病センター, , ,北海道,紋別市落石町４丁目１６−２６,44.364915,143.337177,0,0,0,0,未,未入力,0,,0,,,,,,,,,,,,,,,,,,,,,,,,,,,0,0,0,0,0,0,0,0,0,0,0,0,0,0,0,0,0,0,, , , , , , ,0,0,0,0,0,0,, , ,0,,1
12016002000 ,札幌市医師会　夜間急病センター, , ,北海道,札幌市中央区大通西１９丁目,43.057242,141.327987,0,0,0,0,未,未入力,0,,0,,,,,,,,,,,,,,,,,,,,,,,,,,,0,0,0,0,0,0,0,0,0,0,0,0,0,0,0,0,0,0,, , , , , , ,0,0,0,0,0,0,, , ,0,,1
12016013600 ,中野整形外科医院, , ,北海道,札幌市中央区南７条西１５丁目１−３５,43.050521,141.334404,0,0,0,0,未,未入力,0,,0,,,,,,,,,,,,,,,,,,,,,,,,,,,0,0,0,0,0,0,0,0,0,0,0,0,0,0,0,0,0,0,, , , , , , ,0,0,0,0,0,0,, , ,0,,1
12016044600 ,石垣整形外科医院, , ,北海道,札幌市東区北２６条東８丁目１−５,43.095489,141.360594,0,0,0,0,未,未入力,0,,0,,,,,,,,,,,,,,,,,,,,,,,,,,,0,0,0,0,0,0,0,0,0,0,0,0,0,0,0,0,0,0,, , , , , , ,0,0,0,0,0,0,, , ,0,,1
12016063000 ,展望台整形外科, , ,北海道,札幌市豊平区福住２条１０丁目１５−１,43.004055,141.389583,0,0,0,0,未,未入力,0,,0,,,,,,,,,,,,,,,,,,,,,,,,,,,0,0,0,0,0,0,0,0,0,0,0,0,0,0,0,0,0,0,, , , , , , ,0,0,0,0,0,0,, , ,0,,1
12016064900 ,平岸外科整形外科医院, , ,北海道,札幌市豊平区平岸２条１７丁目２−１１,43.021527,141.366972,0,0,0,0,未,未入力,0,,0,,,,,,,,,,,,,,,,,,,,,,,,,,,0,0,0,0,0,0,0,0,0,0,0,0,0,0,0,0,0,0,, , , , , , ,0,0,0,0,0,0,, , ,0,,1
12016101400 ,江別市夜間急病センター, , ,北海道,江別市錦町１４−５,43.10238,141.530746,0,0,0,0,未,未入力,0,,0,,,,,,,,,,,,,,,,,,,,,,,,,,,0,0,0,0,0,0,0,0,0,0,0,0,0,0,0,0,0,0,, , , , , , ,0,0,0,0,0,0,, , ,0,,1
12016103000 ,池永クリニック, , ,北海道,江別市文京台東町１１−２４,43.071299,141.495945,0,0,0,0,未,未入力,0,,0,,,,,,,,,,,,,,,,,,,,,,,,,,,0,0,0,0,0,0,0,0,0,0,0,0,0,0,0,0,0,0,, , , , , , ,0,0,0,0,0,0,, , ,0,,1
12016109800 ,恵庭市夜間・休日急病診療所, , ,北海道,恵庭市南島松８２８−３,42.89782,141.587945,0,0,0,0,未,未入力,0,,0,,,,,,,,,,,,,,,,,,,,,,,,,,,0,0,0,0,0,0,0,0,0,0,0,0,0,0,0,0,0,0,, , , , , , ,0,0,0,0,0,0,, , ,0,,1
12016113100 ,北広島市夜間急病センター, , ,北海道,北広島市北進町１丁目５−２,42.982171,141.561166,0,0,0,0,未,未入力,0,,0,,,,,,,,,,,,,,,,,,,,,,,,,,,0,0,0,0,0,0,0,0,0,0,0,0,0,0,0,0,0,0,, , , , , , ,0,0,0,0,0,0,, , ,0,,1
12016114200 ,佐々木整形外科医院, , ,北海道,石狩市花川南８条３丁目８２−３,43.140388,141.284166,0,0,0,0,未,未入力,0,,0,,,,,,,,,,,,,,,,,,,,,,,,,,,0,0,0,0,0,0,0,0,0,0,0,0,0,0,0,0,0,0,, , , , , , ,0,0,0,0,0,0,, , ,0,,1
12016121000 ,島田脳神経外科, , ,北海道,小樽市錦町１−２,43.205748,140.997563,0,0,0,0,未,未入力,0,,0,,,,,,,,,,,,,,,,,,,,,,,,,,,0,0,0,0,0,0,0,0,0,0,0,0,0,0,0,0,0,0,, , , , , , ,0,0,0,0,0,0,, , ,0,,1
12016125800 ,小樽市夜間急病センター, , ,北海道,小樽市住ノ江１丁目７−１６,43.184973,141.005064,0,0,0,0,未,未入力,0,,0,,,,,,,,,,,,,,,,,,,,,,,,,,,0,0,0,0,0,0,0,0,0,0,0,0,0,0,0,0,0,0,, , , , , , ,0,0,0,0,0,0,, , ,0,,1
12016134300 ,岩見沢市夜間急病センター, , ,北海道,岩見沢市１０条西３丁目１,43.196374,141.769639,0,0,0,0,未,未入力,0,,0,,,,,,,,,,,,,,,,,,,,,,,,,,,0,0,0,0,0,0,0,0,0,0,0,0,0,0,0,0,0,0,, , , , , , ,0,0,0,0,0,0,, , ,0,,1
12016155300 ,苫小牧市夜間・休日急病センター, , ,北海道,苫小牧市旭町２丁目９−２,42.631654,141.606261,0,0,0,0,未,未入力,0,,0,,,,,,,,,,,,,,,,,,,,,,,,,,,0,0,0,0,0,0,0,0,0,0,0,0,0,0,0,0,0,0,, , , , , , ,0,0,0,0,0,0,, , ,0,,1
12016165600 ,なかむら整形外科クリニック, , ,北海道,伊達市梅本町３５−４３,42.473436,140.871302,0,0,0,0,未,未入力,0,,0,,,,,,,,,,,,,,,,,,,,,,,,,,,0,0,0,0,0,0,0,0,0,0,0,0,0,0,0,0,0,0,, , , , , , ,0,0,0,0,0,0,, , ,0,,1
12016183900 ,岩見沢脳神経外科, , ,北海道,岩見沢市８条西１９丁目８番地６号,43.191124,141.752501,0,0,0,0,未,未入力,0,,0,,,,,,,,,,,,,,,,,,,,,,,,,,,0,0,0,0,0,0,0,0,0,0,0,0,0,0,0,0,0,0,, , , , , , ,0,0,0,0,0,0,, , ,0,,1
12016188900 ,江別やまもと整形外科, , ,北海道,江別市高砂町３−３,43.104935,141.540079,0,0,0,0,未,未入力,0,,0,,,,,,,,,,,,,,,,,,,,,,,,,,,0,0,0,0,0,0,0,0,0,0,0,0,0,0,0,0,0,0,, , , , , , ,0,0,0,0,0,0,, , ,0,,1
12016200900 ,札幌北脳神経外科, , ,北海道,札幌市北区新琴似６条１７丁目７−１０,43.124985,141.305514,0,0,0,0,未,未入力,0,,0,,,,,,,,,,,,,,,,,,,,,,,,,,,0,0,0,0,0,0,0,0,0,0,0,0,0,0,0,0,0,0,, , , , , , ,0,0,0,0,0,0,, , ,0,,1
12016207500 ,いぶり腎泌尿器科クリニック, , ,北海道,伊達市梅本町２−１５,42.471741,140.86858,0,0,0,0,未,未入力,0,,0,,,,,,,,,,,,,,,,,,,,,,,,,,,0,0,0,0,0,0,0,0,0,0,0,0,0,0,0,0,0,0,, , , , , , ,0,0,0,0,0,0,, , ,0,,1
12016209900 ,寿都診療所, , ,北海道,寿都郡寿都町字渡島町７２−２,42.792863,140.230202,0,0,0,0,未,未入力,0,,0,,,,,,,,,,,,,,,,,,,,,,,,,,,0,0,0,0,0,0,0,0,0,0,0,0,0,0,0,0,0,0,, , , , , , ,0,0,0,0,0,0,, , ,0,,1
12016210900 ,苫小牧東部脳神経外科, , ,北海道,苫小牧市北栄町２丁目２７−２７,42.674262,141.687142,0,0,0,0,未,未入力,0,,0,,,,,,,,,,,,,,,,,,,,,,,,,,,0,0,0,0,0,0,0,0,0,0,0,0,0,0,0,0,0,0,, , , , , , ,0,0,0,0,0,0,, , ,0,,1
12016213800 ,にしみこどもクリニック, , ,北海道,夕張郡栗山町中央３丁目３２４−４,43.055917,141.783005,0,0,0,0,未,未入力,0,,0,,,,,,,,,,,,,,,,,,,,,,,,,,,0,0,0,0,0,0,0,0,0,0,0,0,0,0,0,0,0,0,, , , , , , ,0,0,0,0,0,0,, , ,0,,1
15010000200 ,北海道赤十字血液センター, , ,北海道,札幌市西区二十四軒２条１丁目１−２０,43.075318,141.31689,0,0,0,0,未,未入力,0,,0,,,,,,,,,,,,,,,,,,,,,,,,,,,0,0,0,0,0,0,0,0,0,0,0,0,0,0,0,0,0,0,, , , , , , ,0,0,0,0,0,0,, , ,0,,1
15010000400 ,北海道函館赤十字血液センター, , ,北海道,函館市日乃出町２３番８号,41.77475,140.752638,0,0,0,0,未,未入力,0,,0,,,,,,,,,,,,,,,,,,,,,,,,,,,0,0,0,0,0,0,0,0,0,0,0,0,0,0,0,0,0,0,, , , , , , ,0,0,0,0,0,0,, , ,0,,1
15010000600 ,北海道旭川赤十字血液センター, , ,北海道,旭川市川端町７条１０丁目１−５０,43.782694,142.338388,0,0,0,0,未,未入力,0,,0,,,,,,,,,,,,,,,,,,,,,,,,,,,0,0,0,0,0,0,0,0,0,0,0,0,0,0,0,0,0,0,, , , , , , ,0,0,0,0,0,0,, , ,0,,1
15010000800 ,北海道赤十字血液センター室蘭出張所, , ,北海道,室蘭市東町１丁目２０番４２号,42.3435,141.023055,0,0,0,0,未,未入力,0,,0,,,,,,,,,,,,,,,,,,,,,,,,,,,0,0,0,0,0,0,0,0,0,0,0,0,0,0,0,0,0,0,, , , , , , ,0,0,0,0,0,0,, , ,0,,1
15010000900 ,北海道釧路赤十字血液センター, , ,北海道,釧路市新釧路町５番地３５,42.990888,144.394472,0,0,0,0,未,未入力,0,,0,,,,,,,,,,,,,,,,,,,,,,,,,,,0,0,0,0,0,0,0,0,0,0,0,0,0,0,0,0,0,0,, , , , , , ,0,0,0,0,0,0,, , ,0,,1
20210000001 ,国立療養所松丘保養園, , ,青森県,青森市石江平山１９番地,40.822055,140.684527,0,0,0,0,未,未入力,0,,0,,,,,,,,,,,,,,,,,,,,,,,,,,,0,0,0,0,0,0,0,0,0,0,0,0,0,0,0,0,0,0,, , , , , , ,0,0,0,0,0,0,, , ,0,,1
20210000002 ,国立青森病院, , ,青森県,青森市浪岡女鹿沢平野１５５−１,40.709555,140.571638,0,0,0,0,未,未入力,0,,0,,,,,,,,,,,,,,,,,,,,,,,,,,,0,0,0,0,0,0,0,0,0,0,0,0,0,0,0,0,0,0,, , , , , , ,0,0,0,0,0,0,, , ,0,,1
20210000003 ,青森県立中央病院,青森県立中央病院,308553,青森県,青森市東造道二丁目１−１,40.829777,140.794361,1,1,1,1,未,未入力,0,,0,,,,,,,,,,,,,,,,,,,,,,,,,,,0,0,0,0,0,0,0,0,0,0,0,0,0,0,0,0,0,0,, , , , , , ,0,0,0,0,0,0,, , ,0,,1
20210000005 ,青森県立つくしが丘病院, , ,青森県,青森市三内沢部３５３番地９２,40.811416,140.681472,0,0,0,0,未,未入力,0,,0,,,,,,,,,,,,,,,,,,,,,,,,,,,0,0,0,0,0,0,0,0,0,0,0,0,0,0,0,0,0,0,, , , , , , ,0,0,0,0,0,0,, , ,0,,1
20210000006 ,青森市民病院,青森市民病院,300821,青森県,青森市勝田一丁目１４番２０号,40.816333,140.754777,1,0,0,1,未,未入力,0,,0,,,,,,,,,,,,,,,,,,,,,,,,,,,0,0,0,0,0,0,0,0,0,0,0,0,0,0,0,0,0,0,, , , , , , ,0,0,0,0,0,0,, , ,0,,1
20210000007 ,青森市立浪岡病院, , ,青森県,青森市浪岡浪岡平野１８０番地,40.714527,140.587222,0,0,0,0,未,未入力,0,,0,,,,,,,,,,,,,,,,,,,,,,,,,,,0,0,0,0,0,0,0,0,0,0,0,0,0,0,0,0,0,0,, , , , , , ,0,0,0,0,0,0,, , ,0,,1
20210000008 ,国保平内中央病院, , ,青森県,東津軽郡平内町小湊外ノ沢１番地１,40.919881,140.947756,0,0,0,0,未,未入力,0,,0,,,,,,,,,,,,,,,,,,,,,,,,,,,0,0,0,0,0,0,0,0,0,0,0,0,0,0,0,0,0,0,, , , , , , ,0,0,0,0,0,0,, , ,0,,1
20210000009 ,外ヶ浜町国民健康保険外ヶ浜中央病院, , ,青森県,東津軽郡外ヶ浜町下蟹田４２−１,41.041861,140.639444,0,0,0,0,未,未入力,0,,0,,,,,,,,,,,,,,,,,,,,,,,,,,,0,0,0,0,0,0,0,0,0,0,0,0,0,0,0,0,0,0,, , , , , , ,0,0,0,0,0,0,, , ,0,,1
20210000010 ,社団法人　慈恵会　青い森病院, , ,青森県,青森市大谷山ノ内１６−３,40.746284,140.703951,0,0,0,0,未,未入力,0,,0,,,,,,,,,,,,,,,,,,,,,,,,,,,0,0,0,0,0,0,0,0,0,0,0,0,0,0,0,0,0,0,, , , , , , ,0,0,0,0,0,0,, , ,0,,1
20210000011 ,浅虫温泉病院, , ,青森県,青森市浅虫内野２７番地２,40.888361,140.866416,0,0,0,0,未,未入力,0,,0,,,,,,,,,,,,,,,,,,,,,,,,,,,0,0,0,0,0,0,0,0,0,0,0,0,0,0,0,0,0,0,, , , , , , ,0,0,0,0,0,0,, , ,0,,1
20210000012 ,鷹揚郷腎研究所青森病院, , ,青森県,青森市石江岡部１０１−１,40.82622,140.703059,0,0,0,0,未,未入力,0,,0,,,,,,,,,,,,,,,,,,,,,,,,,,,0,0,0,0,0,0,0,0,0,0,0,0,0,0,0,0,0,0,, , , , , , ,0,0,0,0,0,0,, , ,0,,1
20210000013 ,青森慈恵会病院, , ,青森県,青森市安田近野１４６−１,40.803195,140.705504,0,0,0,0,未,未入力,0,,0,,,,,,,,,,,,,,,,,,,,,,,,,,,0,0,0,0,0,0,0,0,0,0,0,0,0,0,0,0,0,0,, , , , , , ,0,0,0,0,0,0,, , ,0,,1
20210000014 ,財団法人　双仁会　青森厚生病院, , ,青森県,青森市新城山田４８８−１,40.836444,140.676916,0,0,0,0,未,未入力,0,,0,,,,,,,,,,,,,,,,,,,,,,,,,,,0,0,0,0,0,0,0,0,0,0,0,0,0,0,0,0,0,0,, , , , , , ,0,0,0,0,0,0,, , ,0,,1
20210000015 ,渡辺病院, , ,青森県,青森市橋本１−７−４,40.825305,140.752916,0,0,0,0,未,未入力,0,,0,,,,,,,,,,,,,,,,,,,,,,,,,,,0,0,0,0,0,0,0,0,0,0,0,0,0,0,0,0,0,0,, , , , , , ,0,0,0,0,0,0,, , ,0,,1
20210000017 ,芙蓉会病院, , ,青森県,青森市雲谷山吹９３−１,40.750388,140.77775,0,0,0,0,未,未入力,0,,0,,,,,,,,,,,,,,,,,,,,,,,,,,,0,0,0,0,0,0,0,0,0,0,0,0,0,0,0,0,0,0,, , , , , , ,0,0,0,0,0,0,, , ,0,,1
20210000019 ,村上新町病院, , ,青森県,青森市新町２丁目１−１３,40.826527,140.740694,0,0,0,0,未,未入力,0,,0,,,,,,,,,,,,,,,,,,,,,,,,,,,0,0,0,0,0,0,0,0,0,0,0,0,0,0,0,0,0,0,, , , , , , ,0,0,0,0,0,0,, , ,0,,1
20210000020 ,浪打病院, , ,青森県,青森市合浦２丁目１１−２４,40.82675,140.775444,0,0,0,0,未,未入力,0,,0,,,,,,,,,,,,,,,,,,,,,,,,,,,0,0,0,0,0,0,0,0,0,0,0,0,0,0,0,0,0,0,, , , , , , ,0,0,0,0,0,0,, , ,0,,1
20210000021 ,生協さくら病院, , ,青森県,青森市問屋町１丁目１５番１０号,40.790388,140.757861,0,0,0,0,未,未入力,0,,0,,,,,,,,,,,,,,,,,,,,,,,,,,,0,0,0,0,0,0,0,0,0,0,0,0,0,0,0,0,0,0,, , , , , , ,0,0,0,0,0,0,, , ,0,,1
20210000022 ,あおもり協立病院, , ,青森県,青森市東大野二丁目１番地１０,40.800166,140.74175,0,0,0,0,未,未入力,0,,0,,,,,,,,,,,,,,,,,,,,,,,,,,,0,0,0,0,0,0,0,0,0,0,0,0,0,0,0,0,0,0,, , , , , , ,0,0,0,0,0,0,, , ,0,,1
20210000023 ,佐藤病院, , ,青森県,青森市青柳二丁目１番１２号,40.827305,140.755777,0,0,0,0,未,未入力,0,,0,,,,,,,,,,,,,,,,,,,,,,,,,,,0,0,0,0,0,0,0,0,0,0,0,0,0,0,0,0,0,0,, , , , , , ,0,0,0,0,0,0,, , ,0,,1
20210000024 ,社会福祉法人敬仁会　青森敬仁会病院, , ,青森県,青森市久栗坂字山辺８９−１０,40.866138,140.851194,0,0,0,0,未,未入力,0,,0,,,,,,,,,,,,,,,,,,,,,,,,,,,0,0,0,0,0,0,0,0,0,0,0,0,0,0,0,0,0,0,, , , , , , ,0,0,0,0,0,0,, , ,0,,1
20210000025 ,国立弘前病院, , ,青森県,弘前市富野町１番地,40.5895,140.475222,0,0,0,0,未,未入力,0,,0,,,,,,,,,,,,,,,,,,,,,,,,,,,0,0,0,0,0,0,0,0,0,0,0,0,0,0,0,0,0,0,, , , , , , ,0,0,0,0,0,0,, , ,0,,1
20210000026 ,弘前大学医学部附属病院,弘前大学医学部附属病院,368563,青森県,弘前市本町５３番地,40.600166,140.465833,0,0,0,1,未,未入力,0,,0,,,,,,,,,,,,,,,,,,,,,,,,,,,0,0,0,0,0,0,0,0,0,0,0,0,0,0,0,0,0,0,, , , , , , ,0,0,0,0,0,0,, , ,0,,1
20210000028 ,弘前市立病院,弘前市立病院,368004,青森県,弘前市大町三丁目８番地１,40.595963,140.48431,1,0,0,1,未,未入力,0,,0,,,,,,,,,,,,,,,,,,,,,,,,,,,0,0,0,0,0,0,0,0,0,0,0,0,0,0,0,0,0,0,, , , , , , ,0,0,0,0,0,0,, , ,0,,1
20210000029 ,黒石病院,黒石市国民健康保険黒石病院,360541,青森県,黒石市北美町１丁目７０,40.655361,140.601083,1,0,0,1,未,未入力,0,,0,,,,,,,,,,,,,,,,,,,,,,,,,,,0,0,0,0,0,0,0,0,0,0,0,0,0,0,0,0,0,0,, , , , , , ,0,0,0,0,0,0,, , ,0,,1
20210000030 ,板柳中央病院, , ,青森県,北津軽郡板柳町灰沼岩井７４−２,40.701166,140.455472,0,0,0,0,未,未入力,0,,0,,,,,,,,,,,,,,,,,,,,,,,,,,,0,0,0,0,0,0,0,0,0,0,0,0,0,0,0,0,0,0,, , , , , , ,0,0,0,0,0,0,, , ,0,,1
20210000031 ,大鰐病院, , ,青森県,南津軽郡大鰐町蔵館川原田４０−４,40.52,140.581,0,0,0,0,未,未入力,0,,0,,,,,,,,,,,,,,,,,,,,,,,,,,,0,0,0,0,0,0,0,0,0,0,0,0,0,0,0,0,0,0,, , , , , , ,0,0,0,0,0,0,, , ,0,,1
20210000032 ,弘前愛成会病院, , ,青森県,弘前市北園１丁目６−２,40.581076,140.479672,0,0,0,0,未,未入力,0,,0,,,,,,,,,,,,,,,,,,,,,,,,,,,0,0,0,0,0,0,0,0,0,0,0,0,0,0,0,0,0,0,, , , , , , ,0,0,0,0,0,0,, , ,0,,1
20210000033 ,弘前中央病院, , ,青森県,弘前市吉野町３−１,40.597305,140.472138,0,0,0,0,未,未入力,0,,0,,,,,,,,,,,,,,,,,,,,,,,,,,,0,0,0,0,0,0,0,0,0,0,0,0,0,0,0,0,0,0,, , , , , , ,0,0,0,0,0,0,, , ,0,,1
20210000035 ,鳴海病院, , ,青森県,弘前市品川町１９番地,40.597046,140.475005,0,0,0,0,未,未入力,0,,0,,,,,,,,,,,,,,,,,,,,,,,,,,,0,0,0,0,0,0,0,0,0,0,0,0,0,0,0,0,0,0,, , , , , , ,0,0,0,0,0,0,, , ,0,,1
20210000036 ,鷹揚郷腎研究所弘前病院, , ,青森県,弘前市小沢山崎９０番地,40.573604,140.45648,0,0,0,0,未,未入力,0,,0,,,,,,,,,,,,,,,,,,,,,,,,,,,0,0,0,0,0,0,0,0,0,0,0,0,0,0,0,0,0,0,, , , , , , ,0,0,0,0,0,0,, , ,0,,1
20210000037 ,黒石厚生病院, , ,青森県,黒石市黒石建石９番地１,40.654181,140.578188,0,0,0,0,未,未入力,0,,0,,,,,,,,,,,,,,,,,,,,,,,,,,,0,0,0,0,0,0,0,0,0,0,0,0,0,0,0,0,0,0,, , , , , , ,0,0,0,0,0,0,, , ,0,,1
20210000039 ,聖康会病院,医療法人社団聖康会聖康会病院,368053,青森県,弘前市和泉２丁目１７−１,40.610795,140.496863,0,0,0,0,未,未入力,0,,0,,,,,,,,,,,,,,,,,,,,,,,,,,,0,0,0,0,0,0,0,0,0,0,0,0,0,0,0,0,0,0,, , , , , , ,0,0,0,0,0,0,, , ,0,,1
20210000040 ,弘愛会病院, , ,青森県,弘前市宮川三丁目１番地の４,40.615138,140.485111,0,0,0,0,未,未入力,0,,0,,,,,,,,,,,,,,,,,,,,,,,,,,,0,0,0,0,0,0,0,0,0,0,0,0,0,0,0,0,0,0,, , , , , , ,0,0,0,0,0,0,, , ,0,,1
20210000041 ,弘前記念病院, , ,青森県,弘前市境関西田５９番地１,40.611351,140.497725,0,0,0,0,未,未入力,0,,0,,,,,,,,,,,,,,,,,,,,,,,,,,,0,0,0,0,0,0,0,0,0,0,0,0,0,0,0,0,0,0,, , , , , , ,0,0,0,0,0,0,, , ,0,,1
20210000042 ,津軽保健生活協同組合　健生病院, , ,青森県,弘前市野田２丁目２番地１号,40.607333,140.478888,0,0,0,0,未,未入力,0,,0,,,,,,,,,,,,,,,,,,,,,,,,,,,0,0,0,0,0,0,0,0,0,0,0,0,0,0,0,0,0,0,, , , , , , ,0,0,0,0,0,0,, , ,0,,1
20210000043 ,津軽保健生活協同組合　藤代健生病院, , ,青森県,弘前市藤代２−１２−１,40.614544,140.453145,0,0,0,0,未,未入力,0,,0,,,,,,,,,,,,,,,,,,,,,,,,,,,0,0,0,0,0,0,0,0,0,0,0,0,0,0,0,0,0,0,, , , , , , ,0,0,0,0,0,0,, , ,0,,1
20210000044 ,弘前メディカルセンター, , ,青森県,弘前市大町２丁目２−９,40.595361,140.481166,0,0,0,0,未,未入力,0,,0,,,,,,,,,,,,,,,,,,,,,,,,,,,0,0,0,0,0,0,0,0,0,0,0,0,0,0,0,0,0,0,, , , , , , ,0,0,0,0,0,0,, , ,0,,1
20210000046 ,弘前小野病院, , ,青森県,弘前市和泉二丁目１９番地１,40.610434,140.497447,0,0,0,0,未,未入力,0,,0,,,,,,,,,,,,,,,,,,,,,,,,,,,0,0,0,0,0,0,0,0,0,0,0,0,0,0,0,0,0,0,, , , , , , ,0,0,0,0,0,0,, , ,0,,1
20210000047 ,黒石あけぼの病院, , ,青森県,黒石市あけぼの町５２,40.658181,140.613074,0,0,0,0,未,未入力,0,,0,,,,,,,,,,,,,,,,,,,,,,,,,,,0,0,0,0,0,0,0,0,0,0,0,0,0,0,0,0,0,0,, , , , , , ,0,0,0,0,0,0,, , ,0,,1
20210000048 ,ときわ会病院,ときわ会病院,381216,青森県,南津軽郡藤崎町榊亀田２−１,40.672666,140.533277,0,0,0,0,未,未入力,0,,0,,,,,,,,,,,,,,,,,,,,,,,,,,,0,0,0,0,0,0,0,0,0,0,0,0,0,0,0,0,0,0,, , , , , , ,0,0,0,0,0,0,, , ,0,,1
20210000049 ,須藤病院, , ,青森県,平川市柏木町藤山３７−５,40.585799,140.563415,0,0,0,0,未,未入力,0,,0,,,,,,,,,,,,,,,,,,,,,,,,,,,0,0,0,0,0,0,0,0,0,0,0,0,0,0,0,0,0,0,, , , , , , ,0,0,0,0,0,0,, , ,0,,1
20210000050 ,弘前脳卒中・リハビリテーションセンター, , ,青森県,弘前市扇町一丁目２番地１,40.586742,140.50392,0,0,0,0,未,未入力,0,,0,,,,,,,,,,,,,,,,,,,,,,,,,,,0,0,0,0,0,0,0,0,0,0,0,0,0,0,0,0,0,0,, , , , , , ,0,0,0,0,0,0,, , ,0,,1
20210000051 ,国立八戸病院, , ,青森県,八戸市吹上３丁目１３−１,40.499852,141.49623,0,0,0,0,未,未入力,0,,0,,,,,,,,,,,,,,,,,,,,,,,,,,,0,0,0,0,0,0,0,0,0,0,0,0,0,0,0,0,0,0,, , , , , , ,0,0,0,0,0,0,, , ,0,,1
20210000052 ,青森労災病院, , ,青森県,八戸市白銀町南ヶ丘１番地,40.516601,141.54417,0,0,0,0,未,未入力,0,,0,,,,,,,,,,,,,,,,,,,,,,,,,,,0,0,0,0,0,0,0,0,0,0,0,0,0,0,0,0,0,0,, , , , , , ,0,0,0,0,0,0,, , ,0,,1
20210000053 ,青森県はまなす医療療育センター, , ,青森県,八戸市大久保大塚１７−７２９,40.490882,141.564947,0,0,0,0,未,未入力,0,,0,,,,,,,,,,,,,,,,,,,,,,,,,,,0,0,0,0,0,0,0,0,0,0,0,0,0,0,0,0,0,0,, , , , , , ,0,0,0,0,0,0,, , ,0,,1
20210000054 ,八戸市立市民病院,八戸市立市民病院,318555,青森県,八戸市田向毘沙門平１,40.49327,141.512785,1,1,1,1,未,未入力,0,,0,,,,,,,,,,,,,,,,,,,,,,,,,,,0,0,0,0,0,0,0,0,0,0,0,0,0,0,0,0,0,0,, , , , , , ,0,0,0,0,0,0,, , ,0,,1
20210000055 ,五戸総合病院, , ,青森県,三戸郡五戸町沢向１７−３,40.521374,141.307245,0,0,0,0,未,未入力,0,,0,,,,,,,,,,,,,,,,,,,,,,,,,,,0,0,0,0,0,0,0,0,0,0,0,0,0,0,0,0,0,0,, , , , , , ,0,0,0,0,0,0,, , ,0,,1
20210000056 ,三戸中央病院, , ,青森県,三戸郡三戸町川守田沖中９−１,40.391082,141.268976,0,0,0,0,未,未入力,0,,0,,,,,,,,,,,,,,,,,,,,,,,,,,,0,0,0,0,0,0,0,0,0,0,0,0,0,0,0,0,0,0,, , , , , , ,0,0,0,0,0,0,, , ,0,,1
20210000057 ,南部町医療センター, , ,青森県,三戸郡南部町下名久井字白山８７−１,40.40986,141.381605,0,0,0,0,未,未入力,0,,0,,,,,,,,,,,,,,,,,,,,,,,,,,,0,0,0,0,0,0,0,0,0,0,0,0,0,0,0,0,0,0,, , , , , , ,0,0,0,0,0,0,, , ,0,,1
20210000058 ,国保おいらせ病院, , ,青森県,上北郡おいらせ町上明堂１番地１,40.592508,141.430231,0,0,0,0,未,未入力,0,,0,,,,,,,,,,,,,,,,,,,,,,,,,,,0,0,0,0,0,0,0,0,0,0,0,0,0,0,0,0,0,0,, , , , , , ,0,0,0,0,0,0,, , ,0,,1
20210000059 ,八戸赤十字病院, , ,青森県,八戸市田面木中明戸２,40.500851,141.447984,0,0,0,1,未,未入力,0,,0,,,,,,,,,,,,,,,,,,,,,,,,,,,0,0,0,0,0,0,0,0,0,0,0,0,0,0,0,0,0,0,, , , , , , ,0,0,0,0,0,0,, , ,0,,1
20210000060 ,さくら病院, , ,青森県,八戸市八幡上樋田８番地１,40.790364,140.757945,0,0,0,0,未,未入力,0,,0,,,,,,,,,,,,,,,,,,,,,,,,,,,0,0,0,0,0,0,0,0,0,0,0,0,0,0,0,0,0,0,, , , , , , ,0,0,0,0,0,0,, , ,0,,1
20210000062 ,青南病院, , ,青森県,八戸市田面木赤坂１６−３,40.500879,141.454761,0,0,0,0,未,未入力,0,,0,,,,,,,,,,,,,,,,,,,,,,,,,,,0,0,0,0,0,0,0,0,0,0,0,0,0,0,0,0,0,0,, , , , , , ,0,0,0,0,0,0,, , ,0,,1
20210000063 ,於本病院, , ,青森県,八戸市大工町１０番地,40.506907,141.492341,0,0,0,0,未,未入力,0,,0,,,,,,,,,,,,,,,,,,,,,,,,,,,0,0,0,0,0,0,0,0,0,0,0,0,0,0,0,0,0,0,, , , , , , ,0,0,0,0,0,0,, , ,0,,1
20210000064 ,圭仁会病院, , ,青森県,八戸市市川町桔梗野上２−３６,40.55775,141.450277,0,0,0,0,未,未入力,0,,0,,,,,,,,,,,,,,,,,,,,,,,,,,,0,0,0,0,0,0,0,0,0,0,0,0,0,0,0,0,0,0,, , , , , , ,0,0,0,0,0,0,, , ,0,,1
20210000065 ,室岡整形外科病院, , ,青森県,八戸市長者三丁目３番２３号,40.501824,141.482898,0,0,0,0,未,未入力,0,,0,,,,,,,,,,,,,,,,,,,,,,,,,,,0,0,0,0,0,0,0,0,0,0,0,0,0,0,0,0,0,0,, , , , , , ,0,0,0,0,0,0,, , ,0,,1
20210000066 ,佐々木泌尿器科病院, , ,青森県,八戸市根城４−６−２３,40.507129,141.477592,0,0,0,0,未,未入力,0,,0,,,,,,,,,,,,,,,,,,,,,,,,,,,0,0,0,0,0,0,0,0,0,0,0,0,0,0,0,0,0,0,, , , , , , ,0,0,0,0,0,0,, , ,0,,1
20210000067 ,岸原病院, , ,青森県,八戸市柏崎六丁目２９−６,40.515462,141.506145,0,0,0,0,未,未入力,0,,0,,,,,,,,,,,,,,,,,,,,,,,,,,,0,0,0,0,0,0,0,0,0,0,0,0,0,0,0,0,0,0,, , , , , , ,0,0,0,0,0,0,, , ,0,,1
20210000068 ,総合リハビリ美保野病院, , ,青森県,八戸市大久保大山３１番地２,40.487916,141.578138,0,0,0,0,未,未入力,0,,0,,,,,,,,,,,,,,,,,,,,,,,,,,,0,0,0,0,0,0,0,0,0,0,0,0,0,0,0,0,0,0,, , , , , , ,0,0,0,0,0,0,, , ,0,,1
20210000069 ,八戸城北病院, , ,青森県,八戸市石堂１−１４−１４,40.529543,141.480619,0,0,0,0,未,未入力,0,,0,,,,,,,,,,,,,,,,,,,,,,,,,,,0,0,0,0,0,0,0,0,0,0,0,0,0,0,0,0,0,0,, , , , , , ,0,0,0,0,0,0,, , ,0,,1
20210000070 ,湊病院, , ,青森県,八戸市新井田松山下野場７−１５,40.504305,141.534166,0,0,0,0,未,未入力,0,,0,,,,,,,,,,,,,,,,,,,,,,,,,,,0,0,0,0,0,0,0,0,0,0,0,0,0,0,0,0,0,0,, , , , , , ,0,0,0,0,0,0,, , ,0,,1
20210000071 ,みちのく記念病院, , ,青森県,八戸市小中野１−４−２２,40.517916,141.508638,0,0,0,0,未,未入力,0,,0,,,,,,,,,,,,,,,,,,,,,,,,,,,0,0,0,0,0,0,0,0,0,0,0,0,0,0,0,0,0,0,, , , , , , ,0,0,0,0,0,0,, , ,0,,1
